long,lat,objectID,siteName,siteStatus,siteAddress,siteAddress2,siteCity,siteState,siteZip,sitePhone,ext,contactFirstName,contactLastName,contactPhone,sponsoringOrganization,startDate,endDate,daysofOperation,comments,breakfastTime,lunchTime,snackTimeAM,snackTimePM,dinnerSupperTime,mealTypesServed,cycleNumber,recordStatus,country,fnsid,created,season,county
-117.0824967,33.10649872,45284,FELICITA ELEMENTARY,Open,"737 WEST 13TH AVE. ESCONDIDO, CA 92025",,ESCONDIDO,CA,92025,7607086157,,KIM,SEGURA,7607086157,ESCONDIDO UNION SCHOOL DISTRICT,2019-06-05T04:00:00.000Z,2019-06-14T04:00:00.000Z,"M,T,W,TH,F",,7:30 AM - 8:30 AM,12:00 PM - 1:00 PM,,,,"B,L",1,N,US,27475,,2019,San Diego
-118.1831894,33.91989519,51159,MARCO ANTONIO FIREBAUGH HIGH,Open,"5246 MARTIN LUTHER KING BLVD. LYNWOOD, CA 90262",,LYNWOOD,CA,90262,3108861600,8260,VANESSA,WILLIAMS,3108861600,LYNWOOD UNIFIED SCHOOL DISTRICT,2019-06-20T04:00:00.000Z,2019-08-09T04:00:00.000Z,"M,T,W,TH,F",,10:00 AM - 10:30 AM,12:00 PM - 12:30 PM,,,,"B,L",2,N,US,131668,,2019,Los Angeles
-120.0691034,36.98691251,51192,EZEQUIEL TAFOYA ALVARADO ACADEMY,Open,"26247 ELLIS ST. MADERA, CA 93638",,MADERA,CA,93638,5596752070,,CONOR,CARLSEN,5596752070,EZEQUIEL TAFOYA ALVARDO ACADEMY (ETAA),2019-06-17T04:00:00.000Z,2019-08-02T04:00:00.000Z,"M,T,W,TH,F",,7:30 AM - 8:30 AM,11:00 AM - 1:00 PM,,,,"B,L",2,N,US,27415,,2019,Madera
-119.7951605,36.71782349,55138,BIGBY VILLA APARTMENTS,Open,"1329 E REV CHESTER RIGGINS AVE FRESNO, CA 93706",,FRESNO,CA,93706,5592330345,,LEE,POINTER,5592330345,FRESNO COUNTY ECONOMIC OPPORTUNITIES COMMISSION,2019-06-17T04:00:00.000Z,2019-07-25T04:00:00.000Z,"M,T,W,TH",,9:00 AM - 10:00 AM,12:00 PM - 1:00 PM,,,,"B,L",3,N,US,98898,,2019,Fresno
-119.7930662,36.69545717,55219,WASHINGTON USD MIGRANT SUMMER PROGRAM,Open,"2910 S. IVY FRESNO, CA 93706",,FRESNO,CA,93706,5594973864,,DEIDI,SANCHEZ,5594973864,FRESNO COUNTY ECONOMIC OPPORTUNITIES COMMISSION,2019-06-10T04:00:00.000Z,2019-07-05T04:00:00.000Z,"M,T,W,TH,F",,7:45 AM - 8:30 AM,,,,,B,3,N,US,101522,,2019,Fresno
-119.762752,36.78687248,55230,BETHESDA,Open,"3723 E DAKOTA FRESNO, CA 93726",,FRESNO,CA,93726,5592251673,,ANGELA,BOYCE,5592251673,FRESNO COUNTY ECONOMIC OPPORTUNITIES COMMISSION,2019-06-07T04:00:00.000Z,2019-08-11T04:00:00.000Z,"M,T,W,TH,F",,,12:30 PM - 1:00 PM,,,,L,3,N,US,114191,,2019,Fresno
-117.0017614,32.71236036,57397,SPRING VALLEY REC CLUB,Open,"838 KEMPTON STREET SPRING VALLEY, CA 91977",,SPRING VALLEY,CA,91977,6196676839,,PRICILLA,AGUILA,6196676839,HEAVEN'S WINDOWS,2019-06-17T07:00:00.000Z,2019-08-10T07:00:00.000Z,"M,T,W,TH,F",,,,,1:30 PM - 2:00 PM,4:00 PM - 5:00 PM,"S,A",4,N,US,6778,,2019,San Diego
-118.4382914,34.28774324,57427,PUC NUEVA ESPERANZA CHARTER ACADEMY-4TH ST.,Open,"1218 4TH ST SAN FERNANDO, CA 91340",,SAN FERNANDO,CA,91340,3232173610,,YARDIA,QUEZADA,3232173610,OUR LITTLE HELPERS INC,2019-06-10T07:00:00.000Z,2019-06-10T07:00:00.000Z,M,,8:00 AM - 8:10 AM,,,,,B,4,N,US,124626,,2019,Los Angeles
-118.220247,34.06644914,57428,PUC EXCEL CHARTER ACADEMY,Open,"1855 N MAIN ST LOS ANGELES, CA 90031",,LOS ANGELES,CA,90031,3233170756,,NICHOLAS,SILVA,3233170756,OUR LITTLE HELPERS INC,2019-06-24T07:00:00.000Z,2019-06-24T07:00:00.000Z,M,,8:00 AM - 8:10 AM,,,,,B,4,N,US,124622,,2019,Los Angeles
-118.2309311,34.11895847,57429,PUC SANTA ROSA CHARTER ACADEMY,Open,"3838 EAGLE ROCK BLVD LOS ANGELES, CA 90065",,LOS ANGELES,CA,90065,3232541703,,WILLIAM,MARTINEZ,3232541703,OUR LITTLE HELPERS INC,2019-06-10T07:00:00.000Z,2019-06-10T07:00:00.000Z,M,,,,8:00 AM - 8:10 AM,,,M,4,N,US,99091,,2019,Los Angeles
-118.2368167,34.10171092,57430,PUC ECALS HIGH SCHOOL,Open,"2050 N SAN FERNANDO RD LOS ANGELES, CA 90065",,LOS ANGELES,CA,90065,3239438294,,CINDY,GONZALES,3239438294,OUR LITTLE HELPERS INC,2019-06-10T07:00:00.000Z,2019-07-26T07:00:00.000Z,"M,T,W,TH,F",,,11:30 AM - 12:15 PM,8:30 AM - 9:00 AM,,,"L,M",4,N,US,91560,,2019,Los Angeles
-118.381474,34.27995039,57431,PUC LAKEVIEW CHARTER ACADEMY,Open,"11465 KAGEL CANYON ST LAKEVIEW TERRACE, CA 91342",,LAKEVIEW TERRACE,CA,91342,8184850340,,ARCELIA,ARANDA,8184850340,OUR LITTLE HELPERS INC,2019-06-24T07:00:00.000Z,2019-06-24T07:00:00.000Z,M,,8:00 AM - 8:10 AM,,,,,B,4,N,US,124624,,2019,Los Angeles
-118.4065149,34.27743647,57432,PUC INSPIRE CHARTER ACADEMY,Open,"12550 VAN NUYS BLVD PACOIMA, CA 91331",,PACOIMA,CA,91331,8187477978,,TATIANA,CURA,8187477978,OUR LITTLE HELPERS INC,2019-06-10T07:00:00.000Z,2019-07-26T07:00:00.000Z,"M,T,W,TH,F",,,12:30 PM - 1:30 PM,,,,L,4,N,US,124623,,2019,Los Angeles
-118.4471423,34.28699987,57445,PUC PARENT CENTER,Open,"1445 CELIS ST. SAN FERNANDO, CA 91340",,SAN FERNANDO,CA,91340,8182203920,,STEPHANIE,GOMEZ,8182203920,OUR LITTLE HELPERS INC,2019-07-08T07:00:00.000Z,2019-07-08T07:00:00.000Z,M,,,12:00 PM - 12:05 PM,,,,L,4,N,US,124627,,2019,Los Angeles
-120.4260761,34.88887713,57507,ALICE SHAW ELEMENTARY,Open,"759 DAHLIA PL. SANTA MARIA, CA 93455",,SANTA MARIA,CA,93455,8059388925,,BETHANY,MARKEE,8059388925,ORCUTT UNION ELEMENTARY SCHOOL DISTRICT,2019-06-13T07:00:00.000Z,2019-08-09T07:00:00.000Z,"M,T,W,TH,F",,8:00 AM - 8:30 AM,11:30 AM - 12:05 PM,,,,"B,L",4,N,US,133689,,2019,Santa Barbara
-119.7889912,36.77977352,71981,MANCHESTER MALL (MOBILE),Open,"1901 E SHIELDS AVE SUITE 200 FRESNO, CA 93726",,FRESNO,CA,93726,5592888947,,DEBORAH,MC COY,5592888947,FRESNO COUNTY ECONOMIC OPPORTUNITIES COMMISSION,2019-06-10T04:00:00.000Z,2019-08-09T04:00:00.000Z,"M,T,W,TH,F",,8:30 AM - 9:30 AM,12:00 PM - 12:45 PM,,,,"B,L",5,U,US,102224,,2019,Fresno
-117.2845118,33.84449153,92983,TOMAS RIVERA MIDDLE,Open,"21675 MARTIN ST. PERRIS, CA 92570",,PERRIS,CA,92570,9519406100,10859,ROBERT,QUANSTROM,9519406100,VAL VERDE UNIFIED SCHOOL DISTRICT,2019-06-10T04:00:00.000Z,2019-06-25T04:00:00.000Z,"M,T,W,TH,F",,,10:30 AM - 11:30 AM,,,,,7,U,US,84051,,2019,Riverside
-117.6780945,33.48718733,92984,BOYS AND GIRLS CLUB OF SAN JUAN CAPISTRANO,Open,"1 VIA POSITIVA SAN JUAN CAPISTRANO, CA 92675",,SAN JUAN CAPISTRANO,CA,92675,9492407898,19,JEANETTE,RODRIGUEZ,9492407898,"SECOND HARVEST FOOD BANK OF ORANGE COUNTY, INC",2019-06-10T04:00:00.000Z,2019-08-14T04:00:00.000Z,"M,T,W,TH,F",,,12:00 PM - 12:20 PM,,3:30 PM - 3:50 PM,,,7,U,US,26081,,2019,Orange
-117.9308136,33.80936497,92987,PROJECT ACCESS - HERMOSA VILLAGE,Open,"1515 CALLE DEL MAR ANAHEIM, CA 92802",,ANAHEIM,CA,92802,7142547216,,ANDREA,GUZMAN,7142547216,"SECOND HARVEST FOOD BANK OF ORANGE COUNTY, INC",2019-06-17T04:00:00.000Z,2019-08-02T04:00:00.000Z,"M,T,W,TH,F",,,12:15 PM - 1:00 PM,,,,,7,U,US,76605,,2019,Orange
-117.9214414,33.91726651,92989,PROJECT ACCESS - NORTH HILLS,Open,"570 E. IMPERIAL HIGHWAY FULLERTON, CA 92835",,FULLERTON,CA,92835,7148701338,,NASSER,SALAME,7148701338,"SECOND HARVEST FOOD BANK OF ORANGE COUNTY, INC",2019-06-17T04:00:00.000Z,2019-08-02T04:00:00.000Z,"M,T,W,TH,F",,,12:00 PM - 12:30 PM,,,,,7,U,US,76606,,2019,Orange
-117.9306538,33.63835254,92991,THINK TOGETHER - SHALIMAR,Open,"775 SHALIMAR DRIVE #1 COSTA MESA, CA 92627",,COSTA MESA,CA,92627,9493107750,,RUTH,MALAGON,9493107750,"SECOND HARVEST FOOD BANK OF ORANGE COUNTY, INC",2019-07-01T04:00:00.000Z,2019-07-24T04:00:00.000Z,"M,T,W",,,11:35 AM - 12:00 PM,,,,,7,U,US,76915,,2019,Orange
-117.8950797,33.74280851,92992,KIDWORKS - DONAHUE,Open,"1902 W. CHESTNUT AVENUE SANTA ANA, CA 92703",,SANTA ANA,CA,92703,7148349400,143,JESSICA,ELLIS,7148349400,"SECOND HARVEST FOOD BANK OF ORANGE COUNTY, INC",2019-06-25T04:00:00.000Z,2019-07-18T04:00:00.000Z,"T,W,TH",,,1:00 PM - 1:30 PM,,,,,7,U,US,76084,,2019,Orange
-117.8301592,33.73002132,92995,TUSTIN CITY COMMUNITY SERVICES,Open,"14722 NEWPORT AVENUE TUSTIN, CA 92780",,TUSTIN,CA,92780,7145733370,,BARBARA,GUERRERO-YANEZ,7145733370,"SECOND HARVEST FOOD BANK OF ORANGE COUNTY, INC",2019-06-03T04:00:00.000Z,2019-07-26T04:00:00.000Z,"M,T,W,TH,F",,,12:00 PM - 12:30 PM,,3:30 PM - 4:00 PM,,,7,U,US,119994,,2019,Orange
-117.9086717,33.75759651,92996,BUENA CLINTON YOUTH AND FAMILY CENTER,Open,"12661 SUNSWEPT AVENUE GARDEN GROVE, CA 92843",,GARDEN GROVE,CA,92843,7147415768,,NOEL,NICHOLAS,7147415768,"SECOND HARVEST FOOD BANK OF ORANGE COUNTY, INC",2019-06-24T04:00:00.000Z,2019-08-08T04:00:00.000Z,"M,T,W,TH",,,12:00 PM - 12:30 PM,9:00 AM - 9:30 AM,,,,7,U,US,26187,,2019,Orange
-117.8616693,33.75222101,92997,ST. JOSEPH'S SCHOOL,Open,"608 CIVIC CENTER DRIVE EAST SANTA ANA, CA 92701",,SANTA ANA,CA,92701,7145955272,,MARGO,GARZA,7145955272,"SECOND HARVEST FOOD BANK OF ORANGE COUNTY, INC",2019-06-24T04:00:00.000Z,2019-07-25T04:00:00.000Z,"M,T,W,TH",,,12:00 PM - 12:15 PM,,3:15 PM - 3:30 PM,,,7,U,US,31139,,2019,Orange
-117.995948,33.80215756,92998,BOYS AND GIRLS CLUB OF STANTON,Open,"11050 CEDAR STREET STANTON, CA 90680",,STANTON,CA,90680,7148910740,,SARA,NEAL,7148910740,"SECOND HARVEST FOOD BANK OF ORANGE COUNTY, INC",2019-06-17T04:00:00.000Z,2019-08-27T04:00:00.000Z,"M,T,W,TH,F",,,12:00 PM - 12:30 PM,,3:00 PM - 3:30 PM,,,7,U,US,75348,,2019,Orange
-117.9935032,33.71155585,92999,BOYS AND GIRLS CLUB OF HUNTINGTON VALLEY OAK VIEW,Open,"17261 OAK LANE HUNTINGTON BEACH, CA 92647",,HUNTINGTON BEACH,CA,92647,7143313907,,DANIELA,GOMEZ,7143313907,"SECOND HARVEST FOOD BANK OF ORANGE COUNTY, INC",2019-07-01T04:00:00.000Z,2019-08-16T04:00:00.000Z,"M,T,W,TH,F",,,12:00 PM - 1:00 PM,,4:30 PM - 5:00 PM,,,7,U,US,26075,,2019,Orange
-117.9792123,33.86093347,93000,BUENA PARK HIGH,Open,"8833 ACADEMY DR. BUENA PARK, CA 90621",,BUENA PARK,CA,90621,7148702812,,JOAN,VELASCO,7148702812,FULLERTON JOINT UNION HIGH SCHOOL DISTRICT,2019-06-03T04:00:00.000Z,2019-07-11T04:00:00.000Z,"M,T,W,TH",,,10:00 AM - 12:00 PM,,,,,7,U,US,3528,,2019,Orange
-116.494331,32.73243262,93001,MOUNTAIN EMPIRE HIGH,Open,"3305 BUCKMAN SPRINGS RD. PINE VALLEY, CA 91962",,PINE VALLEY,CA,91962,6194759022,1125,DOROTHY,HASKINS,6194759022,MOUNTAIN EMPIRE UNIFIED SCHOOL DISTRICT,2019-07-01T04:00:00.000Z,2019-07-31T04:00:00.000Z,"M,T,W,TH",,,11:30 AM - 12:00 PM,,,,,7,U,US,129867,,2019,San Diego
-117.9200343,33.8740295,93002,FULLERTON UNION HIGH,Open,"201 EAST CHAPMAN AVE. FULLERTON, CA 92832",,FULLERTON,CA,92832,7148702812,,JOAN,VELASCO,7148702812,FULLERTON JOINT UNION HIGH SCHOOL DISTRICT,2019-06-03T04:00:00.000Z,2019-07-11T04:00:00.000Z,"M,T,W,TH",,,10:00 AM - 12:00 PM,,,,,7,U,US,4479,,2019,Orange
-117.9565934,33.93552748,93003,LA HABRA HIGH,Open,"801 WEST HIGHLANDER AVE. LA HABRA, CA 90631",,LA HABRA,CA,90631,7148702812,,JOAN,VELASCO,7148702812,FULLERTON JOINT UNION HIGH SCHOOL DISTRICT,2019-06-03T04:00:00.000Z,2019-07-11T04:00:00.000Z,"M,T,W,TH",,,10:00 AM - 12:00 PM,,,,,7,U,US,5186,,2019,Orange
-117.8897231,33.87843529,93004,LA VISTA HIGH (CONTINUATION),Open,"909 NORTH STATE COLLEGE BLVD. FULLERTON, CA 92831",,FULLERTON,CA,92831,7148702812,,JOAN,VELASCO,7148702812,FULLERTON JOINT UNION HIGH SCHOOL DISTRICT,2019-06-03T04:00:00.000Z,2019-07-11T04:00:00.000Z,"M,T,W,TH",,,10:00 AM - 12:00 PM,,,,,7,U,US,5198,,2019,Orange
-117.9244031,33.92709541,93005,SONORA HIGH,Open,"401 SOUTH PALM ST. LA HABRA, CA 90631",,LA HABRA,CA,90631,7148702820,,JOAN,VELASCO,7148702820,FULLERTON JOINT UNION HIGH SCHOOL DISTRICT,2019-06-03T04:00:00.000Z,2019-07-11T04:00:00.000Z,"M,T,W,TH",,,10:00 AM - 12:00 PM,,,,,7,U,US,6703,,2019,Orange
-118.399921,34.19207147,93006,VALLEY PLAZA RECREATION CENTER,Open,"12240 ARCHWOOD ST. LOS ANGELES, CA 91606",,LOS ANGELES,CA,91606,8187655885,,PAT,KANAN,8187655885,"LOS ANGELES, CITY OF DEPT OF REC & PARKS",2019-06-10T04:00:00.000Z,2019-08-09T04:00:00.000Z,"M,T,W,TH,F",,,11:30 AM - 12:00 PM,,,,,7,U,US,24209,,2019,Los Angeles
-118.7647972,34.26454518,93007,RANCHO SIMI COMMUNITY PARK,Open,"1765 ROYAL AVE SIMI VALLEY, CA 93065",,SIMI VALLEY,CA,93065,8053064500,4703,LORETTA,MEDINA,8053064500,SIMI VALLEY UNIFIED SCHOOL DISTRICT,2019-06-11T04:00:00.000Z,2019-07-25T04:00:00.000Z,"M,T,W,TH,F",,,11:45 AM - 12:45 PM,,,,,7,U,US,6278,,2019,Ventura
-117.0017623,32.71232524,93008,SPRING VALLEY LIBRARY,Open,"836 KEMPTON STREET SPRING VALLEY, CA 91977",,SPRING VALLEY,CA,91977,6196685764,,JILL,WHITTENBERG,6196685764,LA MESA-SPRING VALLEY SCHOOL DISTRICT,2019-06-17T04:00:00.000Z,2019-08-09T04:00:00.000Z,"M,T,W,TH,F",,,12:00 PM - 1:00 PM,,,,,7,U,US,38973,,2019,San Diego
-121.882285,39.78086921,93009,DEGARMO COMMUNITY PARK,Open,"199 LEORA CT CHICO, CA 95973",,CHICO,CA,95973,5308913021,20706,TERI,MOLINA,5308913021,CHICO UNIFIED SCHOOL DISTRICT,2019-06-10T04:00:00.000Z,2019-08-09T04:00:00.000Z,"M,T,W,TH,F",,,11:30 AM - 12:30 PM,,,,,7,U,US,129360,,2019,Butte
-121.8072677,39.71749882,93010,SILVER DOLLAR BMX TRACK,Open,"2352 DR MARTIN LUTHER KING JR PKWY CHICO, CA 95928",,CHICO,CA,95928,5308913021,20706,TERI,MOLINA,5308913021,CHICO UNIFIED SCHOOL DISTRICT,2019-06-10T04:00:00.000Z,2019-07-12T04:00:00.000Z,"M,T,W,TH,F",,,11:40 AM - 12:15 PM,,,,,7,U,US,130115,,2019,Butte
-120.8553539,37.49053637,93011,COLUMBIA PARK,Open,"595 HIGH STREET TURLOCK, CA 95380",,TURLOCK,CA,95380,2096679048,,SCOTT,SOISETH,2096679048,TURLOCK UNIFIED SCHOOL DISTRICT,2019-06-06T04:00:00.000Z,2019-07-12T04:00:00.000Z,"M,T,W,TH,F",,,11:30 AM - 12:30 PM,,,,,7,U,US,3878,,2019,Stanislaus
-120.8306351,37.48851211,93012,SUNNYVIEW PARK,Open,"500 S BERKELY TURLOCK, CA 95380",,TURLOCK,CA,95380,2096679048,,SCOTT,SOISETH,2096679048,TURLOCK UNIFIED SCHOOL DISTRICT,2019-06-06T04:00:00.000Z,2019-07-12T04:00:00.000Z,"M,T,W,TH,F",,,11:30 AM - 12:30 PM,,,,,7,U,US,10049,,2019,Stanislaus
-121.0265493,37.31428194,93013,PIONEER PARK,Open,"1358 R ST NEWMAN, CA 95360",,NEWMAN,CA,95360,2098622158,,ALEX,PINEDA,2098622158,NEWMAN-CROWS LANDING UNIFIED SCHOOL DISTRICT,2019-06-03T04:00:00.000Z,2019-08-02T04:00:00.000Z,"M,T,W,TH,F",,,12:00 PM - 12:45 PM,,,,,7,U,US,129988,,2019,Stanislaus
-118.2919431,33.94888267,93014,PLEASANT HILL BAPTIST CHURCH,Open,"9537 S VERMONT AVE LOS ANGELES, CA 90044",,LOS ANGELES,CA,90044,3237551139,,ORLANDA,THOMAS,3237551139,"J-TECH INSTITUTE, INC",2019-06-10T04:00:00.000Z,2019-08-19T04:00:00.000Z,"S,M,T,W,TH,F",,8:30 AM - 9:15 AM,11:30 AM - 12:15 AM,10:30 AM - 11:00 AM,,,,7,U,US,46448,,2019,Los Angeles
-117.9505663,33.92811919,93015,GUADALUPE PARK,Open,"381 S. WALNUT STREET LA HABRA, CA 90631",,LA HABRA,CA,90631,5626941805,31,PATRICK,FAVELA,5626941805,BOYS AND GIRLS CLUBS LA HABRA,2019-06-10T04:00:00.000Z,2019-08-16T04:00:00.000Z,"M,T,W,TH,F",,,12:00 PM - 12:45 PM,,,,,7,U,US,4641,,2019,Orange
-121.4173125,38.452248,93016,VALLEY HI-NORTH LAGUNA LIBRARY,Open,"7400 IMAGINATION PARKWAY SACRAMENTO, CA 95823",,SACRAMENTO,CA,95823,9166867735,78081,MICHELLE,DRAKE,9166867735,ELK GROVE UNIFIED SCHOOL DISTRICT,2019-06-10T04:00:00.000Z,2019-08-03T04:00:00.000Z,"M,T,W,TH,F,SA",,,12:00 PM - 1:30 PM,,,,,7,U,US,56374,,2019,Sacramento
-121.4148645,38.49053813,93017,RUTTER PARK,Open,"7350 PALMER HOUSE DRIVE SACRAMENTO, CA 95828",,SACRAMENTO,CA,95828,9166867735,78081,MICHELLE,DRAKE,9166867735,ELK GROVE UNIFIED SCHOOL DISTRICT,2019-06-10T04:00:00.000Z,2019-08-09T04:00:00.000Z,"M,T,W,TH,F",,,12:45 PM - 1:15 PM,,,,,7,U,US,55285,,2019,Sacramento
-118.3189242,34.034526,93018,SOUTH SEAS HOUSE #2,Open,"2413 2ND AVE LOS ANGELES, CA 90018",,LOS ANGELES,CA,90018,3233739483,,ANNETTE,DIB,3233739483,"LOS ANGELES, CITY OF DEPT OF REC & PARKS",2019-06-10T04:00:00.000Z,2019-08-09T04:00:00.000Z,"M,T,W,TH,F",,,12:00 PM - 12:30 PM,,,,,7,U,US,23999,,2019,Los Angeles
-122.0824503,37.64843663,93019,GOOD SHEPHERD LUTHERAN CHURCH,Open,"166 W. HARDER RD HAYWARD, CA 94544",,HAYWARD,CA,94544,5107233890,28110,ROBIN,GALLAGHER,5107233890,HAYWARD UNIFIED SCHOOL DISTRICT,2019-06-17T04:00:00.000Z,2019-08-02T04:00:00.000Z,"M,T,W,TH,F",,8:00 AM - 9:00 AM,11:30 AM - 12:30 PM,,,,,7,U,US,27818,,2019,Alameda
-119.1800832,34.15118506,93020,SOUTHWINDS RECREATION CENTER,Open,"300 E. CLARA STREET OXNARD, CA 93033",,OXNARD,CA,93033,8053858230,,SUSAN,MARQUEZ,8053858230,HUENEME ELEMENTARY SCHOOL DISTRICT,2019-06-24T04:00:00.000Z,2019-08-16T04:00:00.000Z,"M,T,W,TH,F",,,11:00 AM - 12:30 PM,,,,,7,U,US,137751,,2019,Ventura
-120.4491548,37.28255138,93021,"GROVE APPARTMENTS, 340 S. PARSONS AVE., MERCED, CA 95341",Open,"340 SOUTH PARSONS AVE MERCED, CA 95341",,MERCED,CA,95341,2097257130,,DANIELLE,JOHNSON,2097257130,WEAVER UNION SCHOOL DISTRICT,2019-06-10T04:00:00.000Z,2019-07-19T04:00:00.000Z,"M,T,W,TH,F",,,12:00 PM - 1:00 PM,,,,,7,U,US,52178,,2019,Merced
-116.0835221,34.12857037,93023,KNOTTS SKY PARK,Open,"6897 EL SOL TWENTYNINE PALMS, CA 92277",,TWENTYNINE PALMS,CA,92277,7603679191,4263,JONI,DELGADO,7603679191,MORONGO UNIFIED SCHOOL DISTRICT,2019-06-17T04:00:00.000Z,2019-08-09T04:00:00.000Z,"M,T,W,TH,F",,,10:45 AM - 11:15 AM,,,,,7,U,US,23331,,2019,San Bernardino
-119.0119059,36.04870944,93024,PORTERVILLE COLLEGE,Open,"100 E. COLLEGE AVENUE PORTERVILLE, CA 93257",,PORTERVILLE,CA,93257,5597827062,4861,CLINT,LARA,5597827062,PORTERVILLE UNIFIED SCHOOL DISTRICT,2019-06-10T04:00:00.000Z,2019-07-19T04:00:00.000Z,"M,T,W,TH,F",,7:00 AM - 8:00 AM,11:00 AM - 12:00 PM,,,,,7,U,US,104974,,2019,Tulare
-119.7865045,36.73818809,93025,FRESNO COUNTY MAIN LIBRARY,Open,"2420 MARIPOSA STREET FRESNO, CA 93721",,FRESNO,CA,93721,5593604030,,SAMANTHA,MALVEAUX,5593604030,FRESNO COUNTY ECONOMIC OPPORTUNITIES COMMISSION,2019-06-07T04:00:00.000Z,2019-08-11T04:00:00.000Z,"M,T,W,TH,F",,,12:00 PM - 1:00 PM,,,,,7,U,US,35839,,2019,Fresno
-116.0784994,33.58990734,93027,PASEO DE LOS HEROES II,Open,"63-950 LINCOLN AVE MECCA, CA 92254",,MECCA,CA,92254,7608481078,,MARCUS,ALONZO,7608481078,COACHELLA VALLEY UNIFIED SCHOOL DISTRICT,2019-06-10T04:00:00.000Z,2019-06-28T04:00:00.000Z,"M,T,W,TH,F",,,12:30 PM - 1:00 PM,,,,,7,U,US,23725,,2019,Riverside
-121.4607375,38.523717,93028,FRUITRIDGE COMMUNITY CENTER,Open,"4000 FRUITRIDGE ROAD SACRAMENTO, CA 95820",,SACRAMENTO,CA,95820,9166867735,78180,MICHELLE,DRAKE,9166867735,ELK GROVE UNIFIED SCHOOL DISTRICT,2019-06-17T04:00:00.000Z,2019-08-16T04:00:00.000Z,"M,T,W,TH,F",,,12:30 PM - 1:30 PM,,3:30 PM - 4:00 PM,,,7,U,US,51895,,2019,Sacramento
-122.1044964,37.66541445,93029,LA FAMILIA NEIGHBORHOOD RESOURCE CENTER,Open,"22366 FULLER AVE. HAYWARD, CA 94544",,HAYWARD,CA,94544,5107233890,28110,ROBIN,GALLAGHER,5107233890,HAYWARD UNIFIED SCHOOL DISTRICT,2019-06-17T04:00:00.000Z,2019-08-02T04:00:00.000Z,"M,T,W,TH,F",,8:00 AM - 9:00 AM,11:30 AM - 12:30 PM,,,,,7,U,US,28728,,2019,Alameda
-122.055403,37.59399893,93030,LOS ROBLES APARTMENT,Open,"32300 ALMADEN BLVD. UNION CITY, CA 94587",,UNION CITY,CA,94587,5107233890,28110,ROBIN,GALLAGHER,5107233890,HAYWARD UNIFIED SCHOOL DISTRICT,2019-06-17T04:00:00.000Z,2019-08-02T04:00:00.000Z,"M,T,W,TH,F",,9:30 AM - 10:30 AM,12:30 PM - 1:30 PM,,,,,7,U,US,111805,,2019,Alameda
-121.877757,38.014741,93031,SOLOMON BAPTIST CHURCH,Open,"655 CALIFORNIA STREET PITTSBURG, CA 94565",,PITTSBURG,CA,94565,9254732323,,ANGELIA,NAVA,9254732323,PITTSBURG UNIFIED SCHOOL DISTRICT,2019-06-10T04:00:00.000Z,2019-08-02T04:00:00.000Z,"M,T,W,TH,F",,8:00 AM - 8:30 AM,12:00 PM - 12:30 PM,,,,,7,U,US,93992,,2019,Contra Costa
-118.2083514,33.90084881,93032,CHRIST FIRST BAPTIST MISSIONARY BAPTIST CHURCH,Open,"701 N. LONG BEACH BLVD. COMPTON, CA 90221",,COMPTON,CA,90221,7143982077,,DEYANA,MC KOY,7143982077,CHRIST FIRST BAPTIST MISSIONARY BAPTIST CHURCH,2019-06-10T04:00:00.000Z,2019-08-09T04:00:00.000Z,"M,T,W,TH,F",,9:00 AM - 10:00 AM,12:00 PM - 2:00 PM,,,,,7,U,US,22734,,2019,Los Angeles
-117.2407156,33.21218168,93033,LUZ DURAN PARK,Open,"340 E TOWNSITE DRIVE VISTA, CA 92084",,VISTA,CA,92084,7607262170,92401,JAMIE,PHILLIPS,7607262170,VISTA UNIFIED SCHOOL DISTRICT,2019-06-10T04:00:00.000Z,2019-08-02T04:00:00.000Z,"M,T,W,TH,F",,,11:00 AM - 12:00 PM,,,,,7,U,US,23418,,2019,San Diego
-121.7568105,37.99778052,93034,GRACE BIBLE FELLOWSHIP,Open,"3415 OAKLEY RD ANTIOCH, CA 94509",,ANTIOCH,CA,94509,9257797600,13397,CARRIE,DOWNEY,9257797600,ANTIOCH UNIFIED SCHOOL DISTRICT,2019-06-10T04:00:00.000Z,2019-08-02T04:00:00.000Z,"M,T,W,TH,F",,8:00 AM - 9:00 AM,12:00 PM - 1:00 PM,,,,,7,U,US,11166,,2019,Contra Costa
-116.8790006,33.93248681,93035,REPPLIER PARK,Open,"200 W. WILSON BANNING, CA 92220",,BANNING,CA,92220,9519220217,,KAREN,SANCHEZ-WRIGHT,9519220217,BANNING UNIFIED SCHOOL DISTRICT,2019-06-05T04:00:00.000Z,2019-08-02T04:00:00.000Z,"M,T,W,TH,F",,,12:00 PM - 12:30 PM,,,,,7,U,US,6337,,2019,Riverside
-116.8941733,33.91798436,93036,LIONS PARK,Open,"WESTWARD AVE. BANNING, CA 92220",,BANNING,CA,92220,9519220217,,KAREN,SANCHEZ- WRIGHT,9519220217,BANNING UNIFIED SCHOOL DISTRICT,2019-06-05T04:00:00.000Z,2019-08-02T04:00:00.000Z,"M,T,W,TH,F",,,12:00 PM - 12:30 PM,,,,,7,U,US,5358,,2019,Riverside
-116.8713406,33.932565,93037,ROOSEVELT WILLIAMS PARK,Open,"E. WILSON BANNING, CA 92220",,BANNING,CA,92220,9519220217,,KAREN,SANCHEZ-WRIGHT,9519220217,BANNING UNIFIED SCHOOL DISTRICT,2019-06-05T04:00:00.000Z,2019-08-02T04:00:00.000Z,"M,T,W,TH,F",,,12:00 PM - 12:30 PM,,,,,7,U,US,6455,,2019,Riverside
-116.9074729,33.92911437,93038,SYLVAN PARK,Open,"2801 W. NICOLET ST. BANNING, CA 92220",,BANNING,CA,92220,9519220217,,KAREN,SANCHEZ-WRIGHT,9519220217,BANNING UNIFIED SCHOOL DISTRICT,2019-06-05T04:00:00.000Z,2019-08-02T04:00:00.000Z,"M,T,W,TH,F",,8:00 AM - 8:30 AM,12:00 PM - 12:30 PM,,,,,7,U,US,6925,,2019,Riverside
-116.7832937,33.91067048,93039,CABAZON COMMUNITY CENTER,Open,"50390 CARMEN AVE. CABAZON, CA 92230",,CABAZON,CA,92230,9519220217,,KAREN,SANCHEZ-WRIGHT,9519220217,BANNING UNIFIED SCHOOL DISTRICT,2019-06-05T04:00:00.000Z,2019-08-02T04:00:00.000Z,"M,T,W,TH,F",,,12:00 PM - 12:30 PM,,,,,7,U,US,3557,,2019,Riverside
-119.356427,36.21441897,93040,MAPLE DEVELOPMENT CNTR.FOR HAN,Open,"509 W. MAPLE TULARE, CA 93274",,TULARE,CA,93274,5596882021,2037,JANET,STEPHENS,5596882021,TULARE JOINT UNION HIGH SCHOOL DISTRICT,2019-06-17T04:00:00.000Z,2019-07-11T04:00:00.000Z,"M,T,W,TH",,10:00 AM - 10:30 AM,12:45 PM - 1:15 PM,,,,,7,U,US,5514,,2019,Tulare
-119.0298311,36.05501253,93041,PARK VIEW APARTMENTS,Open,"550 W. SPRINGVILLE AVE. PORTERVILLE, CA 93257",,PORTERVILLE,CA,93257,5597827062,4861,CLINT,LARA,5597827062,PORTERVILLE UNIFIED SCHOOL DISTRICT,2019-06-03T04:00:00.000Z,2019-07-31T04:00:00.000Z,"M,T,W,TH,F",,,11:00 AM - 12:00 PM,,,,,7,U,US,104861,,2019,Tulare
-120.6183555,37.35305275,93043,HELLER PARK,Open,"1450 HERMAN AVENUE ATWATER, CA 95301",,ATWATER,CA,95301,2093576115,120,LISA,LUDWIG,2093576115,ATWATER ELEMENTARY SCHOOL DISTRICT,2019-06-17T04:00:00.000Z,2019-08-02T04:00:00.000Z,"M,T,W,TH,F",,,11:50 AM - 12:30 PM,,,,,7,U,US,36242,,2019,Merced
-117.9668387,34.52819122,93044,EVERETT MARTIN PARK,Open,"35548 N. 92ND ST EAST LITTLE ROCK, CA 93543",,LITTLE ROCK,CA,93543,6619442880,,JAMIITWA,JOHNSON,6619442880,LOS ANGELES COUNTY DEPT OF PARKS & RECREATION,2019-06-10T04:00:00.000Z,2019-08-02T04:00:00.000Z,"M,T,W,TH,F",,,12:00 PM - 1:00 PM,,3:00 PM - 4:00 PM,,,7,U,US,22933,,2019,Los Angeles
-117.8555109,33.73949452,93046,KIDWORKS BISHOP MANOR,Open,"1000 E. BISHOP STREET SANTA ANA, CA 92701",,SANTA ANA,CA,92701,7147604399,,BRISEIDA,CRUZ,7147604399,"SECOND HARVEST FOOD BANK OF ORANGE COUNTY, INC",2019-07-09T04:00:00.000Z,2019-07-18T04:00:00.000Z,"T,W,TH",,,1:00 PM - 1:30 PM,,,,,7,U,US,76085,,2019,Orange
-117.9660832,33.85913754,93047,GILBERT PARK,Open,"2120 W. ORANGETHORPE AVENUE FULLERTON, CA 92832",,FULLERTON,CA,92832,7147731304,,COURTNEY,WYSOCKI,7147731304,"SECOND HARVEST FOOD BANK OF ORANGE COUNTY, INC",2019-06-03T04:00:00.000Z,2019-07-26T04:00:00.000Z,"M,T,W,TH,F",,,2:00 PM - 2:30 PM,,,,,7,U,US,75833,,2019,Orange
-117.8847562,33.87022637,93048,CHAPMAN PARK,Open,"2515 SAN CARLOS STREET FULLERTON, CA 92831",,FULLERTON,CA,92831,7147385360,,COURTNEY,WYSOCKI,7147385360,"SECOND HARVEST FOOD BANK OF ORANGE COUNTY, INC",2019-06-03T04:00:00.000Z,2019-07-26T04:00:00.000Z,"M,T,W,TH,F",,,1:00 PM - 1:30 PM,,,,,7,U,US,26478,,2019,Orange
-121.4993689,38.61286315,93049,RIVER COURT APARTMENTS LEARNING CENTER,Open,"1671 WEST EL CAMINO SACRAMENTO, CA 95834",,SACRAMENTO,CA,95834,9165675472,,VINCE,CAGUIN,9165675472,NATOMAS UNIFIED SCHOOL DISTRICT,2019-06-03T04:00:00.000Z,2019-07-31T04:00:00.000Z,"M,T,W,TH,F",,,11:00 AM - 11:30 AM,,,,,7,U,US,55104,,2019,Sacramento
-119.2440691,34.27361172,93052,YMCA,Open,"3760 TELEGRAPH ROAD VENTURA, CA 93003",,VENTURA,CA,93003,8056422131,,SARAH,ABRAM,8056422131,VENTURA UNIFIED SCHOOL DISTRICT,2019-06-17T04:00:00.000Z,2019-07-26T04:00:00.000Z,"M,T,W,TH,F",,,11:00 AM - 1:00 PM,,,,,7,U,US,12367,,2019,Ventura
-117.1035415,33.09633909,93053,DEL LAGO ACADEMY - CAMPUS OF APPLIED SCIENCE,Open,"1740 SCENIC TRAIL WAY ESCONDIDO, CA 92029",,ESCONDIDO,CA,92029,7602913239,,ALICIA,PITRONE,7602913239,ESCONDIDO UNION HIGH SCHOOL DISTRICT,2019-06-04T04:00:00.000Z,2019-07-03T04:00:00.000Z,"M,T,W,TH",,,10:15 AM - 10:45 AM,,,,,7,U,US,4078,,2019,San Diego
-120.6169625,37.36413047,93054,ATWATER HIGH,Open,"2201 FRUITLAND AVE. ATWATER, CA 95301",,ATWATER,CA,95301,2093252213,,ERIN,TASSEY,2093252213,MERCED UNION HIGH SCHOOL DISTRICT,2019-06-10T04:00:00.000Z,2019-07-17T04:00:00.000Z,"M,T,W,TH,F",,8:30 AM - 9:30 AM,11:30 AM - 12:30 PM,,,,,7,U,US,80668,,2019,Merced
-120.7233956,37.37644567,93056,LIVINGSTON HIGH,Open,"1617 MAIN ST. LIVINGSTON, CA 95334",,LIVINGSTON,CA,95334,2093252213,,ERIN,TASSEY,2093252213,MERCED UNION HIGH SCHOOL DISTRICT,2019-06-10T04:00:00.000Z,2019-07-17T04:00:00.000Z,"M,T,W,TH,F",,9:00 AM - 10:00 AM,,,,,,7,U,US,53202,,2019,Merced
-120.4726244,37.31896887,93057,MERCED HIGH,Open,"205 WEST OLIVE AVE. MERCED, CA 95348",,MERCED,CA,95348,2093252213,,ERIN,TASSEY,2093252213,MERCED UNION HIGH SCHOOL DISTRICT,2019-06-10T04:00:00.000Z,2019-07-17T04:00:00.000Z,"M,T,W,TH,F",,9:00 AM - 10:00 AM,,,,,,7,U,US,82722,,2019,Merced
-119.0814495,34.34812119,93058,GLEN CITY ELEMENTARY,Open,"141 STECKEL DR. SANTA PAULA, CA 93060",,SANTA PAULA,CA,93060,8059338838,,SUZANNE,STAMP,8059338838,SANTA PAULA UNIFIED SCHOOL DISTRICT,2019-06-13T04:00:00.000Z,2019-08-09T04:00:00.000Z,"M,T,W,TH,F",,8:00 AM - 9:45 AM,11:15 AM - 12:45 PM,,,,,7,U,US,23072,,2019,Ventura
-120.4746718,37.30058839,93060,INDEPENDENCE HIGH (ALTERNATIVE),Open,"1900 G ST. MERCED, CA 95340",,MERCED,CA,95340,2093252213,,ERIN,TASSEY,2093252213,MERCED UNION HIGH SCHOOL DISTRICT,2019-06-10T04:00:00.000Z,2019-07-18T04:00:00.000Z,"M,T,W,TH,F",,7:00 AM - 8:15 AM,11:00 AM - 12:00 PM,,,,,7,U,US,52585,,2019,Merced
-120.9432843,37.59760378,93061,LUCAS ELEMENTARY,Open,"3500 ROSE AVE. CERES, CA 95307",,CERES,CA,95307,2095561580,1582,RHONDA,WHITEHEAD,2095561580,CERES UNIFIED SCHOOL DISTRICT,2019-06-10T04:00:00.000Z,2019-07-03T04:00:00.000Z,"M,T,W,TH,F",,8:00 AM - 8:30 AM,10:45 AM - 12:00 PM,,,,,7,U,US,5436,,2019,Stanislaus
-121.9418991,37.3451933,93062,BUCHSER MIDDLE,Open,"1111 BELLOMY ST. SANTA CLARA, CA 95050",,SANTA CLARA,CA,95050,4084232077,,SHERI,NIELSEN,4084232077,SANTA CLARA UNIFIED SCHOOL DISTRICT,2019-06-12T04:00:00.000Z,2019-07-10T04:00:00.000Z,"M,T,W,TH,F",,7:30 AM - 8:30 AM,10:30 AM - 11:30 AM,,,,,7,U,US,129221,,2019,Santa Clara
-121.9720767,37.35931682,93063,JUAN CABRILLO MIDDLE,Open,"2550 CABRILLO AVE. SANTA CLARA, CA 95051",,SANTA CLARA,CA,95051,4084232077,,SHERI,NIELSEN,4084232077,SANTA CLARA UNIFIED SCHOOL DISTRICT,2019-06-11T04:00:00.000Z,2019-08-09T04:00:00.000Z,"M,T,W,TH,F",,,11:00 AM - 12:15 PM,,3:00 PM - 4:00 PM,,,7,U,US,11372,,2019,Santa Clara
-121.9662642,37.42358021,93064,GEORGE MAYNE ELEMENTARY,Open,"5030 NORTH FIRST ST. ALVISO, CA 95002",,ALVISO,CA,95002,4084232077,,SHERI,NIELSEN,4084232077,SANTA CLARA UNIFIED SCHOOL DISTRICT,2019-06-11T04:00:00.000Z,2019-08-02T04:00:00.000Z,"M,T,W,TH,F",,7:30 AM - 8:30 AM,11:00 AM - 12:15 PM,,,,,7,U,US,93265,,2019,Santa Clara
-117.9772335,33.80763053,93065,ILLUMINATIONS FOUNDATION CHILDREN'S RESOURCE CENTER,Open,"8920 PACIFIC AVENUE ANAHEIM, CA 92805",,ANAHEIM,CA,92805,7148808244,,ANDREA,CUIRIS,7148808244,"SECOND HARVEST FOOD BANK OF ORANGE COUNTY, INC",2019-06-17T04:00:00.000Z,2019-07-31T04:00:00.000Z,"M,T,W,TH,F",,,1:30 PM - 2:00 PM,,4:30 PM - 4:40 PM,,,7,U,US,76011,,2019,Orange
-122.1624436,37.75848154,93067,CASTLEMONT HIGH,Open,"8601 MACARTHUR BLVD. OAKLAND, CA 94605",,OAKLAND,CA,94605,5104343334,,DONNIE,BARCLIFT,5104343334,OAKLAND UNIFIED SCHOOL DISTRICT,2019-06-10T04:00:00.000Z,2019-06-28T04:00:00.000Z,"M,T,W,TH,F",,8:30 AM - 9:00 AM,11:00 AM - 11:30 AM,,,,,7,U,US,34654,,2019,Alameda
-121.985786,37.36685708,93070,ADRIAN WILCOX HIGH,Open,"3250 MONROE ST. SANTA CLARA, CA 95051",,SANTA CLARA,CA,95051,4084232077,,SHERI,NIELSEN,4084232077,SANTA CLARA UNIFIED SCHOOL DISTRICT,2019-06-11T04:00:00.000Z,2019-07-25T04:00:00.000Z,"M,T,W,TH,F",,7:30 AM - 8:30 AM,10:30 AM - 11:30 AM,,,,,7,U,US,10470,,2019,Santa Clara
-117.5724658,34.418925,93071,SERRANO HIGH,Open,"9292 SHEEP CREEK RD. PHELAN, CA 92329",,PHELAN,CA,92329,7608685817,21061,LORRIE,MARTIN,7608685817,SNOWLINE JOINT UNIFIED SCHOOL DISTRICT,2019-06-10T04:00:00.000Z,2019-06-27T04:00:00.000Z,"M,T,W,TH,F",,,11:00 AM - 12:30 PM,,,,,7,U,US,6606,,2019,San Bernardino
-119.0511366,34.35578171,93072,SANTA PAULA BOYS AND GIRLS CLUB,Open,"1400 HARVARD BLVD SANTA PAULA, CA 93060",,SANTA PAULA,CA,93060,8059338838,,SUZANNE,STAMP,8059338838,SANTA PAULA UNIFIED SCHOOL DISTRICT,2019-06-12T04:00:00.000Z,2019-08-09T04:00:00.000Z,"M,T,W,TH,F",,,11:30 AM - 12:00 PM,,3:00 PM - 3:30 PM,,,7,U,US,140915,,2019,Ventura
-120.3222304,36.5013415,93073,CANTUA ELEMENTARY,Open,"29288 WEST CLARKSON CANTUA CREEK, CA 93608",,CANTUA CREEK,CA,93608,5592105903,,LUPE,GUZMAN,5592105903,GOLDEN PLAINS UNIFIED SCHOOL DISTRICT,2019-06-10T04:00:00.000Z,2019-08-01T04:00:00.000Z,"M,T,W,TH",,8:00 AM - 8:30 AM,11:00 AM - 11:30 AM,,,,,7,U,US,85246,,2019,Fresno
-120.2543015,36.64621525,93074,TRANQUILLITY HIGH,Open,"6052 JUANCHE ST. TRANQUILLITY, CA 93668",,TRANQUILLITY,CA,93668,5592105701,,JOZETTE,GODINEZ,5592105701,GOLDEN PLAINS UNIFIED SCHOOL DISTRICT,2019-06-10T04:00:00.000Z,2019-08-01T04:00:00.000Z,"M,T,W,TH",,7:30 AM - 8:00 AM,11:15 AM - 11:45 AM,,,,,7,U,US,31474,,2019,Fresno
-117.8152728,35.64589706,93076,INYOKERN ELEMENTARY,Open,"6601 LOCUST ST. INYOKERN, CA 93527",,INYOKERN,CA,93527,7604991880,1,KRISTEN,GROVES,7604991880,SIERRA SANDS UNIFIED SCHOOL DISTRICT,2019-06-12T04:00:00.000Z,2019-07-24T04:00:00.000Z,W,,,10:30 AM - 11:30 AM,,,,,7,U,US,129619,,2019,Kern
-119.000232,35.36072653,93077,BAKERSFIELD POLICE ACTIVITIES LEAGUE,Open,"301 E. 4TH ST. BAKERSFIELD, CA 93305",,BAKERSFIELD,CA,93305,6618525930,,RAFAEL,JUAREZ,6618525930,KERN CO SUPT OF SCHOOLS,2019-06-10T04:00:00.000Z,2019-07-25T04:00:00.000Z,"M,T,W,TH",,,10:45 AM - 11:30 AM,,,,,7,U,US,138688,,2019,Kern
-118.9907983,35.366742,93078,DR. MARTIN LUTHER KING JR. COMMUNITY CENTER,Open,"1001 SOUTH OWENS BAKERSFIELD, CA 93307",,BAKERSFIELD,CA,93307,6618525930,,RAFAEL,JUAREZ,6618525930,KERN CO SUPT OF SCHOOLS,2019-06-03T04:00:00.000Z,2019-08-09T04:00:00.000Z,"M,T,W,TH,F",,8:45 AM - 9:15 AM,11:30 AM - 12:30 PM,,,,,7,U,US,136472,,2019,Kern
-117.9474705,33.92097753,93079,LAS LOMAS ELEMENTARY,Open,"301 LAS LOMAS DR. LA HABRA, CA 90631",,LA HABRA,CA,90631,5626902314,,CHERYL,EUBANKS,5626902314,LA HABRA CITY ELEMENTARY SCHOOL DISTRICT,2019-06-10T04:00:00.000Z,2019-07-11T04:00:00.000Z,"M,T,W,TH",,9:00 AM - 10:15 AM,,,,,,7,U,US,23359,,2019,Orange
-121.6917365,37.9420155,93080,VILLAGE COMMUNITY RESOURCE CENTER,Open,"633 VILLAGE DRIVE BRENTWOOD, CA 94513",,BRENTWOOD,CA,94513,9255136338,,KRISTEN,NISEN,9255136338,BRENTWOOD UNION ELEMENTARY SCHOOL DISTRICT,2019-06-11T04:00:00.000Z,2019-07-03T04:00:00.000Z,"M,T,W,TH,F",,,11:30 AM - 12:00 PM,,,,,7,U,US,24233,,2019,Contra Costa
-117.3571122,33.9755155,93081,BOBBY BONDS PARK,Open,"2060 UNIVERSITY AVE. RIVERSIDE, CA 92507",,RIVERSIDE,CA,92507,9518265746,,JOVAN,FONTENOT,9518265746,"RIVERSIDE, CITY OF DEPT OF PARKS & REC",2019-06-03T04:00:00.000Z,2019-08-09T04:00:00.000Z,"M,T,W,TH,F",,,12:00 PM - 1:30 PM,,,,,7,U,US,138793,,2019,Riverside
-117.9380842,33.93179409,93083,WASHINGTON MIDDLE,Open,"716 EAST LA HABRA BLVD. LA HABRA, CA 90631",,LA HABRA,CA,90631,5626902314,,CHERYL,EUBANKS,5626902314,LA HABRA CITY ELEMENTARY SCHOOL DISTRICT,2019-06-10T04:00:00.000Z,2019-07-11T04:00:00.000Z,"M,T,W,TH",,9:00 AM - 10:15 AM,,,,,,7,U,US,24266,,2019,Orange
-117.0895197,33.70338328,93084,WINCHESTER VALLEY WIDE,Open,"32665 HADDOCK STREET WINCHESTER, CA 92596",,WINCHESTER,CA,92596,9517655100,5300,JANET,JUNGNICKEL,9517655100,HEMET UNIFIED SCHOOL DISTRICT,2019-06-06T04:00:00.000Z,2019-06-28T04:00:00.000Z,"M,T,W,TH,F",,8:30 AM - 9:15 AM,11:30 AM - 12:30 PM,,,,,7,U,US,10334,,2019,Riverside
-116.9597261,33.7440206,93085,ACACIA MIDDLE,Open,"1200 EAST ACACIA AVE. HEMET, CA 92543",,HEMET,CA,92543,9517655100,5300,JANET,JUNGNICKEL,9517655100,HEMET UNIFIED SCHOOL DISTRICT,2019-06-10T04:00:00.000Z,2019-06-28T04:00:00.000Z,"M,T,W,TH,F",,7:30 AM - 8:40 AM,10:40 AM - 11:50 AM,,,,,7,U,US,99998,,2019,Riverside
-116.9857607,32.74795055,93086,CASA DE ORO LIBRARY,Open,"9805 CAMPO ROAD #180 SPRING VALLEY, CA 91977",,SPRING VALLEY,CA,91977,6194638277,,JEFFERSON,BAKER,6194638277,HEAVEN'S WINDOWS,2019-06-18T04:00:00.000Z,2019-08-23T04:00:00.000Z,"M,T,W,TH",,,12:00 PM - 1:00 PM,,,,,7,U,US,3653,,2019,San Diego
-116.9627537,33.7511215,93087,ALESSANDRO HIGH,Open,"831 EAST DEVONSHIRE AVE. HEMET, CA 92543",,HEMET,CA,92543,9517655100,5300,JANET,JUNGNICKEL,9517655100,HEMET UNIFIED SCHOOL DISTRICT,2019-06-06T04:00:00.000Z,2019-07-03T04:00:00.000Z,"M,T,W,TH,F",,7:20 AM - 8:05 AM,10:50 AM - 11:45 AM,,,,,7,U,US,7826,,2019,Riverside
-116.914977,33.75380476,93088,BAUTISTA CREEK ELEMENTARY,Open,"441 LAKE ST. HEMET, CA 92544",,HEMET,CA,92544,9517655100,5300,JANET,JUNGNICKEL,9517655100,HEMET UNIFIED SCHOOL DISTRICT,2019-06-10T04:00:00.000Z,2019-06-28T04:00:00.000Z,"M,T,W,TH,F",,8:30 AM - 9:10 AM,11:00 AM - 11:40 AM,,,,,7,U,US,73230,,2019,Riverside
-116.9120348,33.48184076,93089,COTTONWOOD ELEMENTARY,Open,"44260 SAGE RD. AGUANGA, CA 92536",,AGUANGA,CA,92536,9517655100,5300,JANET,JUNGNICKEL,9517655100,HEMET UNIFIED SCHOOL DISTRICT,2019-06-06T04:00:00.000Z,2019-06-28T04:00:00.000Z,"M,T,W,TH,F",,,11:00 AM - 11:30 AM,,,,,7,U,US,8340,,2019,Riverside
-116.9362718,33.74037115,93090,DARTMOUTH MIDDLE,Open,"41535 MAYBERRY AVE. HEMET, CA 92544",,HEMET,CA,92544,9517655100,5300,JANET,JUNGNICKEL,9517655100,HEMET UNIFIED SCHOOL DISTRICT,2019-06-10T04:00:00.000Z,2019-06-28T04:00:00.000Z,"M,T,W,TH,F",,7:30 AM - 8:20 AM,11:00 AM - 11:50 AM,,,,,7,U,US,131193,,2019,Riverside
-117.3167138,34.07152582,93091,GONZALES CENTER,Open,"670 COLTON AVENUE COLTON, CA 92324",,COLTON,CA,92324,9095806650,,ERIC,ENCISO,9095806650,COLTON JOINT UNIFIED SCHOOL DISTRICT,2019-06-10T04:00:00.000Z,2019-07-19T04:00:00.000Z,"M,T,W,TH,F",,8:15 AM - 8:45 AM,11:30 AM - 12:00 PM,,,,,7,U,US,11161,,2019,San Bernardino
-119.0094744,35.37320849,93093,BEALE MEMORIAL LIBRARY,Open,"701 TRUXTUN AVENUE BAKERSFIELD, CA 93301",,BAKERSFIELD,CA,93301,6618525930,,RA,JUAREZ,6618525930,KERN CO SUPT OF SCHOOLS,2019-06-03T04:00:00.000Z,2019-07-26T04:00:00.000Z,"M,T,W,TH,F",,,11:30 AM - 12:30 PM,,,,,7,U,US,3255,,2019,Kern
-116.9327963,33.72952344,93094,HEMET HIGH,Open,"41701 STETSON AVE. HEMET, CA 92544",,HEMET,CA,92544,9517655100,5300,JANET,JUNGNICKEL,9517655100,HEMET UNIFIED SCHOOL DISTRICT,2019-06-06T04:00:00.000Z,2019-07-03T04:00:00.000Z,"M,T,W,TH,F",,7:00 AM - 7:45 AM,11:00 AM - 11:45 AM,,,,,7,U,US,73849,,2019,Riverside
-121.8290516,38.00535451,93095,LIFESTEPS,Open,"2200 SYCAMORE DR ANTIOCH, CA 94509",,ANTIOCH,CA,94509,9257797600,13397,CARRIE,DOWNEY,9257797600,ANTIOCH UNIFIED SCHOOL DISTRICT,2019-06-10T04:00:00.000Z,2019-08-02T04:00:00.000Z,"M,T,W,TH,F",,,12:00 PM - 1:00 PM,,,,,7,U,US,11466,,2019,Contra Costa
-116.7209816,33.73850833,93096,IDYLLWILD ELEMENTARY,Open,"26700 STATE HIGHWAY 243 IDYLLWILD, CA 92549",,IDYLLWILD,CA,92549,9517655100,5300,JANET,JUNGNICKEL,9517655100,HEMET UNIFIED SCHOOL DISTRICT,2019-06-06T04:00:00.000Z,2019-06-28T04:00:00.000Z,"M,T,W,TH,F",,,11:00 AM - 11:30 AM,,,,,7,U,US,126383,,2019,Riverside
-121.086432,37.704888,93097,SALIDA PARK,Open,"1 BROADWAY AVE. BETWEEN MORGAN AND SEQUOIA SALIDA, CA 95368",,SALIDA,CA,95368,2095450339,3143,JAIME,TOWE,2095450339,SALIDA UNION ELEMENTARY SCHOOL DISTRICT,2019-06-03T04:00:00.000Z,2019-08-02T04:00:00.000Z,"M,T,W,TH,F",,,10:00 AM - 10:30 AM,,,,,7,U,US,140893,,2019,Stanislaus
-119.7716442,36.80664361,93098,IMC ADULT TRANSISTION PROGRAM,Open,"3132 E. FAIRMONT ANE FRESNO, CA 93726",,FRESNO,CA,93726,5594576250,6263,VICKI,DAY,5594576250,FRESNO UNIFIED SCHOOL DISTRICT,2019-06-11T04:00:00.000Z,2019-07-11T04:00:00.000Z,"M,T,W,TH,F",,,10:00 AM - 11:00 AM,,,,,7,U,US,139844,,2019,Fresno
-122.0077452,38.24785686,93099,KROC CENTER,Open,"586 E WIGEON WAY SUISUN CITY, CA 94585",,SUISUN CITY,CA,94585,7073995046,,BRIANNA,ARMSTRONG,7073995046,FAIRFIELD-SUISUN UNIFIED SCHOOL DISTRICT,2019-06-10T04:00:00.000Z,2019-08-16T04:00:00.000Z,"M,T,W,TH,F",,8:00 AM - 8:30 AM,11:30 AM - 12:00 PM,,,,,7,U,US,9055,,2019,Solano
-124.1697016,40.79732188,93100,JEFFERSON COMMUNITY CENTER,Open,"1000 B STREET EUREKA, CA 95501",,EUREKA,CA,95501,7074985764,,HEIDI,BENZONELLI,7074985764,WESTSIDE COMMUNITY IMPROVEMENT ASSN.,2019-06-24T04:00:00.000Z,2019-08-15T04:00:00.000Z,"M,T,W,TH",,,12:30 PM - 1:00 PM,,3:30 PM - 4:00 PM,,,7,U,US,11348,,2019,Humboldt
-116.9446784,33.73673311,93101,RAMONA ELEMENTARY,Open,"41051 WHITTIER AVE. HEMET, CA 92544",,HEMET,CA,92544,9517655100,5300,JANET,JUNGNICKEL,9517655100,HEMET UNIFIED SCHOOL DISTRICT,2019-06-06T04:00:00.000Z,2019-06-28T04:00:00.000Z,"M,T,W,TH,F",,8:30 AM - 9:15 AM,11:30 AM - 12:30 PM,,,,,7,U,US,101169,,2019,Riverside
-117.0079122,33.72070826,93102,WEST VALLEY HIGH,Open,"3401 MUSTANG WAY HEMET, CA 92545",,HEMET,CA,92545,9517655100,5300,JANET,JUNGNICKEL,9517655100,HEMET UNIFIED SCHOOL DISTRICT,2019-06-06T04:00:00.000Z,2019-07-03T04:00:00.000Z,"M,T,W,TH,F",,7:00 AM - 8:15 AM,10:40 AM - 11:45 AM,,,,,7,U,US,74895,,2019,Riverside
-116.9749054,33.73669699,93103,WHITTIER ELEMENTARY,Open,"400 WEST WHITTIER AVE. HEMET, CA 92543",,HEMET,CA,92543,9517655100,5300,JANET,JUNGNICKEL,9517655100,HEMET UNIFIED SCHOOL DISTRICT,2019-06-06T04:00:00.000Z,2019-06-28T04:00:00.000Z,"M,T,W,TH,F",,8:30 AM - 9:15 AM,11:30 AM - 12:30 PM,,,,,7,U,US,132178,,2019,Riverside
-121.4173485,38.499273,93104,KENNEDY PARK,Open,"7037 BRIGGS DRIVE SACRAMENTO, CA 95828",,SACRAMENTO,CA,95828,9166867735,78061,MICHELLE,DRAKE,9166867735,ELK GROVE UNIFIED SCHOOL DISTRICT,2019-06-17T04:00:00.000Z,2019-08-09T04:00:00.000Z,"M,T,W,TH,F",,,12:00 PM - 12:30 PM,,,,,7,U,US,52832,,2019,Sacramento
-120.8631008,37.59486256,93105,HUGHSON ELEMENTARY,Open,"7201 EAST WHITMORE AVE. HUGHSON, CA 95326",,HUGHSON,CA,95326,2098832219,,JONATHAN,KNIESS,2098832219,HUGHSON UNIFIED SCHOOL DISTRICT,2019-06-17T04:00:00.000Z,2019-06-28T04:00:00.000Z,"M,T,W,TH,F",,7:30 AM - 8:00 AM,11:00 AM - 11:25 AM,,,,,7,U,US,78472,,2019,Stanislaus
-120.8602721,37.60196949,93106,EMILIE J. ROSS MIDDLE,Open,"7448 FOX RD. HUGHSON, CA 95326",,HUGHSON,CA,95326,2098832219,,JONATHAN,KNEISS,2098832219,HUGHSON UNIFIED SCHOOL DISTRICT,2019-05-28T04:00:00.000Z,2019-06-21T04:00:00.000Z,"M,T,W,TH,F",,7:30 AM - 8:00 AM,11:00 AM - 11:25 AM,,,,,7,U,US,129415,,2019,Stanislaus
-121.4338998,38.49234611,93107,SOUTHGATE LIBRARY,Open,"6132 66TH AVENUE SACRAMENTO, CA 95823",,SACRAMENTO,CA,95823,9166867735,78081,MICHELLE,DRAKE,9166867735,ELK GROVE UNIFIED SCHOOL DISTRICT,2019-06-10T04:00:00.000Z,2019-08-03T04:00:00.000Z,"M,T,W,TH,F,SA",,,12:00 PM - 1:30 PM,,,,,7,U,US,55661,,2019,Sacramento
-116.9744466,33.93388013,93108,STEWART PARK SNACK BAR,Open,"895 ORANGE AVE. BEAUMONT, CA 92223",,BEAUMONT,CA,92223,9518450279,,LEE,DESMIDT,9518450279,BEAUMONT UNIFIED SCHOOL DISTRICT,2019-06-11T04:00:00.000Z,2019-07-26T04:00:00.000Z,"M,T,W,TH,F",,,11:45 AM - 12:15 PM,,,,,7,U,US,132027,,2019,Riverside
-117.6267359,34.06711157,93109,VETERAN'S PARK,Open,"1257 EAST D STREET ONTARIO, CA 91761",,ONTARIO,CA,91761,9099306360,229,SARA,MARAGNI,9099306360,ONTARIO-MONTCLAIR SCHOOL DISTRICT,2019-06-03T04:00:00.000Z,2019-07-26T04:00:00.000Z,"M,T,W,TH,F",,,12:30 PM - 2:30 PM,,,,,7,U,US,10197,,2019,San Bernardino
-121.4433045,38.482056,93110,NIELSEN PARK,Open,"7596 CENTER PARKWAY SACRAMENTO, CA 95823",,SACRAMENTO,CA,95823,9168899709,78081,MICHELLE,DRAKE,9168899709,ELK GROVE UNIFIED SCHOOL DISTRICT,2019-06-17T04:00:00.000Z,2019-08-09T04:00:00.000Z,"M,T,W,TH,F",,,11:10 AM - 11:40 AM,,,,,7,U,US,53983,,2019,Sacramento
-119.5629613,36.70591052,93111,SANGER BRANCH LIBRARY,Open,"1812 7TH STREET SANGER, CA 93657",,SANGER,CA,93657,5598752435,,LYDIA,MOLANO,5598752435,FRESNO COUNTY ECONOMIC OPPORTUNITIES COMMISSION,2019-06-06T04:00:00.000Z,2019-08-14T04:00:00.000Z,"M,T,W,TH,F",,,12:00 PM - 1:00 PM,,,,,7,U,US,38681,,2019,Fresno
-121.8916173,38.01827226,93112,PITTSBURG LIBRARY,Open,"80 POWER AVE. PITTSBURG, CA 94565",,PITTSBURG,CA,94565,9254732323,,ANGELIA,NAVA,9254732323,PITTSBURG UNIFIED SCHOOL DISTRICT,2019-06-11T04:00:00.000Z,2019-08-02T04:00:00.000Z,"T,W,TH,F",,,12:30 PM - 1:30 PM,,,,,7,U,US,6179,,2019,Contra Costa
-121.8837243,38.03190617,93113,"OLD TOWN PLAZA, DOWNTOWN PITTSBURG",Open,"500 E RAILROAD AVE PITTSBURG, CA 94565",,PITTSBURG,CA,94565,9254732323,,ANGELIA,NAVA,9254732323,PITTSBURG UNIFIED SCHOOL DISTRICT,2019-06-17T04:00:00.000Z,2019-06-28T04:00:00.000Z,"M,T,W,TH,F",,8:45 AM - 9:15 AM,12:00 PM - 12:30 PM,,,,,7,U,US,5999,,2019,Contra Costa
-121.020746,37.31952576,93114,MUSTANG PEAK VILLAGE APARTMENTS,Open,"1118 M ST NEWMAN, CA 95360",,NEWMAN,CA,95360,2098622158,,ALEX,PINEDA,2098622158,NEWMAN-CROWS LANDING UNIFIED SCHOOL DISTRICT,2019-06-03T04:00:00.000Z,2019-08-02T04:00:00.000Z,"M,T,W,TH,F",,,11:15 AM - 11:45 AM,,,,,7,U,US,108104,,2019,Stanislaus
-117.9579695,33.7724665,93115,BOYS AND GIRLS CLUB MAIN BRANCH,Open,"9860 LARSON AVE GARDEN GROVE, CA 92844",,GARDEN GROVE,CA,92844,7146636155,,LEO,BAS,7146636155,GARDEN GROVE UNIFIED SCHOOL DISTRICT,2019-06-17T04:00:00.000Z,2019-08-16T04:00:00.000Z,"M,T,W,TH,F",,,12:00 PM - 1:00 PM,,3:00 PM - 3:30 PM,,,7,U,US,3456,,2019,Orange
-121.0220188,37.65949445,93116,ARCHWAY COMMONS APTS.,Open,"1101 CARVER RD MODESTO, CA 95350",,MODESTO,CA,95350,2095741619,,MELISSA,MACHUCA-ZEOLI,2095741619,MODESTO CITY ELEMENTARY SCHOOL DISTRICT,2019-06-04T04:00:00.000Z,2019-08-02T04:00:00.000Z,"M,T,W,TH,F",,,11:15 AM - 11:30 AM,,,,,7,U,US,3065,,2019,Stanislaus
-117.4904282,34.02004436,93117,GRANITE HILL ELEMENTARY,Open,"9371 GRANITE HILL JURUPA VALLEY, CA 92509",,JURUPA VALLEY,CA,92509,9513602766,,MIKE,BYNUM,9513602766,JURUPA UNIFIED SCHOOL DISTRICT,2019-06-03T04:00:00.000Z,2019-06-28T04:00:00.000Z,"M,T,W,TH,F",,7:30 AM - 9:00 AM,11:00 AM - 1:00 PM,,,,,7,U,US,4597,,2019,Riverside
-117.4038355,33.99801007,93118,INA ARBUCKLE ELEMENTARY,Open,"3600 PACKARD ST. JURUPA VALLEY, CA 92509",,JURUPA VALLEY,CA,92509,9513602766,,MIKE,BYNUM,9513602766,JURUPA UNIFIED SCHOOL DISTRICT,2019-06-03T04:00:00.000Z,2019-06-28T04:00:00.000Z,"M,T,W,TH,F",,7:30 AM - 9:00 AM,11:00 AM - 1:00 PM,,,,,7,U,US,4919,,2019,Riverside
-117.4519986,33.9753679,93119,INDIAN HILLS ELEMENTARY,Open,"7750 LINARES AVE. JURUPA VALLEY, CA 92509",,JURUPA VALLEY,CA,92509,9513602766,,MIKE,BYNUM,9513602766,JURUPA UNIFIED SCHOOL DISTRICT,2019-06-03T04:00:00.000Z,2019-06-28T04:00:00.000Z,"M,T,W,TH,F",,7:30 AM - 9:00 AM,11:00 AM - 1:00 PM,,,,,7,U,US,4928,,2019,Riverside
-117.8745756,33.88652487,93120,GARNET NEIGHBORHOOD CENTER,Open,"3012 GARNET LANE APT A & B FULLERTON, CA 92832",,FULLERTON,CA,92832,7147385360,,COURTNEY,WYSOCKI,7147385360,"SECOND HARVEST FOOD BANK OF ORANGE COUNTY, INC",2019-06-17T04:00:00.000Z,2019-08-09T04:00:00.000Z,"M,T,W,TH,F",,,1:00 PM - 1:30 PM,,,,,7,U,US,75827,,2019,Orange
-117.8204485,33.76234265,93121,YMCA - LOMA VISTA ELEMENTARY,Open,"13822 PROSPECT AVENUE SANTA ANA, CA 92705",,SANTA ANA,CA,92705,7147300541,,ISABEL,CASTANEDA,7147300541,"SECOND HARVEST FOOD BANK OF ORANGE COUNTY, INC",2019-06-03T04:00:00.000Z,2019-08-08T04:00:00.000Z,"M,T,W,TH,F",,,11:30 AM - 12:30 PM,,3:00 PM - 3:30 PM,,,7,U,US,32094,,2019,Orange
-120.8501917,37.36205588,93122,HAGAMAN PARK,Open,"19914 W RIVER RD STEVINSON, CA 95374",,STEVINSON,CA,95374,2096677819,,LETTIE,PACHECO,2096677819,HILMAR UNIFIED SCHOOL DISTRICT,2019-06-17T04:00:00.000Z,2019-07-25T04:00:00.000Z,"M,T,W,TH,F",,,12:45 PM - 1:15 PM,,,,,7,U,US,52202,,2019,Merced
-120.9699898,37.67259622,93123,CF BROWN PARK,Open,"1601 CELESTE DRIVE MODESTO, CA, CA 95355",,"MODESTO, CA",CA,95355,2095745607,203,ANGELA,DE LA CRUZ,2095745607,SYLVAN UNION ELEMENTARY SCHOOL DISTRICT,2019-05-28T04:00:00.000Z,2019-07-31T04:00:00.000Z,"M,T,W,TH,F",,,11:10 AM - 11:30 AM,,,,,7,U,US,129279,,2019,Stanislaus
-120.9481178,37.67440054,93124,ORCHARD PARK,Open,"2200 LINCOLN OAK DR. MODESTO, CA 95355",,MODESTO,CA,95355,2095745607,203,ANGELA,DE LA CRUZ,2095745607,SYLVAN UNION ELEMENTARY SCHOOL DISTRICT,2019-05-28T04:00:00.000Z,2019-07-31T04:00:00.000Z,"M,T,W,TH,F",,,1:00 PM - 1:20 PM,,,,,7,U,US,6021,,2019,Stanislaus
-120.9718609,37.6797634,93125,SYLVAN PARK,Open,"2801 NIABELL PLACE MODESTO, CA 95355",,MODESTO,CA,95355,2095745607,203,ANGELA,DE LA CRUZ,2095745607,SYLVAN UNION ELEMENTARY SCHOOL DISTRICT,2019-05-28T04:00:00.000Z,2019-07-31T04:00:00.000Z,"M,T,W,TH,F",,,12:50 PM - 1:10 PM,,,,,7,U,US,6924,,2019,Stanislaus
-120.9824348,37.35361596,93128,FISHERMAN'S BEND RIVER CAMPGROUND,Open,"26836 RIVER RD NEWMAN, CA 95360",,NEWMAN,CA,95360,2098622158,,ALEX,PINEDA,2098622158,NEWMAN-CROWS LANDING UNIFIED SCHOOL DISTRICT,2019-06-03T04:00:00.000Z,2019-08-02T04:00:00.000Z,"M,T,W,TH,F",,7:30 AM - 8:00 AM,10:15 AM - 10:45 AM,,,,,7,U,US,126343,,2019,Stanislaus
-117.4276542,34.00387351,93129,RUSTIC LANE ELEMENTARY,Open,"6420 RUSTIC LN. JURUPA VALLEY, CA 92509",,JURUPA VALLEY,CA,92509,9513602766,,MIKE,BYNUM,9513602766,JURUPA UNIFIED SCHOOL DISTRICT,2019-06-03T04:00:00.000Z,2019-06-28T04:00:00.000Z,"M,T,W,TH,F",,7:30 AM - 9:00 AM,11:00 AM - 1:00 PM,,,,,7,U,US,6495,,2019,Riverside
-117.5291743,33.98812448,93130,SKY COUNTRY ELEMENTARY,Open,"5520 LUCRETIA AVE. JURUPA VALLEY, CA 91752",,JURUPA VALLEY,CA,91752,9513602766,,MIKE,BYNUM,9513602766,JURUPA UNIFIED SCHOOL DISTRICT,2019-06-03T04:00:00.000Z,2019-06-28T04:00:00.000Z,"M,T,W,TH,F",,7:30 AM - 9:00 AM,11:00 AM - 1:00 PM,,,,,7,U,US,131992,,2019,Riverside
-121.435416,38.471931,93131,ST. ANDREW LUTHERAN CHURCH,Open,"7839 CENTER PARKWAY SACRAMENTO, CA 95823",,SACRAMENTO,CA,95823,9166867735,78081,MICHELLE,DRAKE,9166867735,ELK GROVE UNIFIED SCHOOL DISTRICT,2019-06-07T04:00:00.000Z,2019-08-10T04:00:00.000Z,"F,SA",,,,,,7:00 PM - 8:30 PM,,7,U,US,55762,,2019,Sacramento
-117.4393907,34.01667335,93132,SUNNYSLOPE ELEMENTARY,Open,"7050 38TH ST. JURUPA VALLEY, CA 92509",,JURUPA VALLEY,CA,92509,9513602766,,MIKE,BYNUM,9513602766,JURUPA UNIFIED SCHOOL DISTRICT,2019-06-03T04:00:00.000Z,2019-06-28T04:00:00.000Z,"M,T,W,TH,F",,7:30 AM - 9:00 AM,11:00 AM - 1:00 PM,,,,,7,U,US,6893,,2019,Riverside
-121.2677058,38.11945103,93134,LODI BOYS & GIRLS,Open,"275 POPLAR STREET LODI, CA 95240",,LODI,CA,95240,2093317155,,NANCY,ROSTOMILY,2093317155,LODI UNIFIED SCHOOL DISTRICT,2019-06-03T04:00:00.000Z,2019-07-19T04:00:00.000Z,"M,T,W,TH,F",,8:00 AM - 8:30 AM,11:30 AM - 12:00 PM,,,,,7,U,US,140110,,2019,San Joaquin
-116.0615575,33.58171463,93135,NORTH SHORE BEACH & YACHT CLUB,Open,"65-705 JOHNSON ST. MECCA, CA 92254",,MECCA,CA,92254,7608481078,,MARCUS,ALONZO,7608481078,COACHELLA VALLEY UNIFIED SCHOOL DISTRICT,2019-06-10T04:00:00.000Z,2019-06-28T04:00:00.000Z,"M,T,W,TH,F",,8:30 AM - 9:00 AM,11:30 AM - 12:00 PM,,,,,7,U,US,87594,,2019,Riverside
-116.1881792,33.67265627,93136,BAGDUMA PARK COMMUNITY CENTER,Open,"51-251 DOUMA ST COACHELLA, CA 92236",,COACHELLA,CA,92236,7608481078,,MARCUS,ALONZO,7608481078,COACHELLA VALLEY UNIFIED SCHOOL DISTRICT,2019-06-10T04:00:00.000Z,2019-06-28T04:00:00.000Z,"M,T,W,TH,F",,8:30 AM - 9:00 AM,12:00 PM - 12:30 PM,,,,,7,U,US,22461,,2019,Riverside
-119.7794427,36.29827654,93137,LEMOORE HIGH,Open,"101 EAST BUSH ST. LEMOORE, CA 93245",,LEMOORE,CA,93245,5599246646,,DEBRA,WENZEL,5599246646,LEMOORE UNION HIGH SCHOOL DISTRICT,2019-06-10T04:00:00.000Z,2019-06-28T04:00:00.000Z,"M,T,W,TH,F",,9:00 AM - 9:30 AM,11:00 AM - 12:00 PM,,,,,7,U,US,72531,,2019,Kings
-117.3690138,34.07777746,93138,RIALTO PARK,Open,"130 E SAN BERNARDINO AVE COLTON, CA 92324",,COLTON,CA,92324,9098207761,103,MONICA,NEVAREZ,9098207761,RIALTO UNIFIED SCHOOL DISTRICT,2019-06-04T04:00:00.000Z,2019-07-26T04:00:00.000Z,"M,T,W,TH,F",,,11:15 AM - 12:15 PM,,,,,7,U,US,140788,,2019,San Bernardino
-117.3728779,34.10270474,93139,CARL JOHNSON COMMUNITY CENTER,Open,"214 N PALM AVE RIALTO, CA 92376",,RIALTO,CA,92376,9098207761,103,TIFFANI,CHAPPARO,9098207761,RIALTO UNIFIED SCHOOL DISTRICT,2019-06-04T04:00:00.000Z,2019-07-26T04:00:00.000Z,"M,T,W,TH,F",,7:00 AM - 7:30 AM,11:15 AM - 12:15 PM,,,,,7,U,US,138963,,2019,San Bernardino
-119.143148,36.08288945,93140,WOODVILLE LABOR CAMP,Open,"16153 RD 192 PORTERVILLE, CA 93257",,PORTERVILLE,CA,93257,5597827062,4861,CLINT,LARA,5597827062,PORTERVILLE UNIFIED SCHOOL DISTRICT,2019-06-06T04:00:00.000Z,2019-07-31T04:00:00.000Z,"M,T,W,TH,F",,7:00 AM - 8:00 AM,11:00 AM - 12:00 PM,,,,,7,U,US,105825,,2019,Tulare
-117.1671671,33.14047792,93141,SAN MARCOS ELEMENTARY,Open,"1 TIGER WAY SAN MARCOS, CA 92069",,SAN MARCOS,CA,92069,7607521250,,DENA,ENGLAND,7607521250,SAN MARCOS UNIFIED SCHOOL DISTRICT,2019-06-17T04:00:00.000Z,2019-08-02T04:00:00.000Z,"M,T,W,TH,F",,8:00 AM - 9:00 AM,11:00 AM - 12:30 PM,,,,,7,U,US,23932,,2019,San Diego
-118.3469334,33.90183312,93142,LEUZINGER HIGH SCHOOL,Open,"4118 W. ROSECRANS BLVD LAWNDALE, CA 90260",,LAWNDALE,CA,90260,3102432872,,AMEL,KHAN,3102432872,"J-TECH INSTITUTE, INC",2019-06-13T04:00:00.000Z,2019-08-19T04:00:00.000Z,"M,T,W,TH,F",,,12:30 PM - 1:15 PM,,3:30 PM - 4:00 PM,,,7,U,US,44820,,2019,Los Angeles
-117.3238816,34.01564849,93143,HIGHGROVE LIBRARY,Open,"530 CENTER ST RIVERSIDE, CA 92507",,RIVERSIDE,CA,92507,9513526740,82801,ADLEIT,ASI,9513526740,RIVERSIDE UNIFIED SCHOOL DISTRICT,2019-06-03T04:00:00.000Z,2019-08-02T04:00:00.000Z,"M,T,W,TH,F",,,11:30 AM - 1:00 PM,,,,,7,U,US,139764,,2019,Riverside
-117.3723859,33.98234392,93144,RIVERSIDE PUBLIC LIBRARY,Open,"3581 MISSON INN AVE RIVERSIDE, CA 92501",,RIVERSIDE,CA,92501,9513526740,82805,ADLEIT,ASI,9513526740,RIVERSIDE UNIFIED SCHOOL DISTRICT,2019-06-03T04:00:00.000Z,2019-08-02T04:00:00.000Z,"M,T,W,TH,F",,,11:30 AM - 1:00 PM,,,,,7,U,US,130043,,2019,Riverside
-117.3631895,33.97084177,93145,COMMUNITY SETTLEMENT ASSOCIATION,Open,"4366 BERMUDA AVE RIVERSIDE, CA 92507",,RIVERSIDE,CA,92507,9513526740,82805,ADLEIT,ASI,9513526740,RIVERSIDE UNIFIED SCHOOL DISTRICT,2019-06-03T04:00:00.000Z,2019-08-02T04:00:00.000Z,"M,T,W,TH,F",,,12:00 PM - 1:30 PM,,,,,7,U,US,120803,,2019,Riverside
-117.857493,33.73955053,93146,WALKER ELEMENTARY,Open,"811 EAST BISHOP ST. SANTA ANA, CA 92701",,SANTA ANA,CA,92701,7144311900,,EDWARD,GARCIA,7144311900,SANTA ANA UNIFIED SCHOOL DISTRICT,2019-06-04T04:00:00.000Z,2019-07-11T04:00:00.000Z,"M,T,W,TH,F",,7:30 AM - 8:30 AM,11:00 AM - 12:00 PM,,,,,7,U,US,39661,,2019,Orange
-119.1390405,34.22579997,93149,NYELAND ACRES COMMUNITY CENTER,Open,"3334 SANTA CLARA AVENUE OXNARD, CA 93036",,OXNARD,CA,93036,8054853111,2111,LACEY,PIPER,8054853111,RIO ELEMENTARY SCHOOL DISTRICT,2019-06-14T04:00:00.000Z,2019-08-27T04:00:00.000Z,"M,T,W,TH,F,SA",,11:00 AM - 11:30 AM,1:15 PM - 1:45 PM,,,,,7,U,US,5951,,2019,Ventura
-117.8666751,33.71858961,93150,CESAR E. CHAVEZ HIGH,Open,"2128 SOUTH CYPRESS SANTA ANA, CA 92707",,SANTA ANA,CA,92707,7144311900,,JOSEFINA,MEJIA,7144311900,SANTA ANA UNIFIED SCHOOL DISTRICT,2019-06-04T04:00:00.000Z,2019-07-11T04:00:00.000Z,"M,T,W,TH,F",,7:15 AM - 7:45 AM,10:00 AM - 10:45 AM,,,,,7,U,US,92979,,2019,Orange
-117.898186,33.72788628,93151,DIAMOND ELEMENTARY,Open,"1450 SOUTH CENTER ST. SANTA ANA, CA 92704",,SANTA ANA,CA,92704,7144311900,,JOSEFINA,MEJIA,7144311900,SANTA ANA UNIFIED SCHOOL DISTRICT,2019-06-04T04:00:00.000Z,2019-07-11T04:00:00.000Z,"M,T,W,TH,F",,7:30 AM - 8:30 AM,11:00 AM - 12:00 PM,,,,,7,U,US,35251,,2019,Orange
-117.8692435,33.73574948,93153,FRANKLIN ELEMENTARY,Open,"210 WEST CUBBON SANTA ANA, CA 92701",,SANTA ANA,CA,92701,7144311900,,EDWARD,GARCIA,7144311900,SANTA ANA UNIFIED SCHOOL DISTRICT,2019-06-04T04:00:00.000Z,2019-07-11T04:00:00.000Z,"M,T,W,TH,F",,7:30 AM - 8:30 AM,11:00 AM - 12:00 PM,,,,,7,U,US,35795,,2019,Orange
-117.896501,33.7533555,93154,FREMONT ELEMENTARY,Open,"1930 WEST 10TH ST. SANTA ANA, CA 92703",,SANTA ANA,CA,92703,7144311900,,HECTOR,GUTIERREZ,7144311900,SANTA ANA UNIFIED SCHOOL DISTRICT,2019-06-04T04:00:00.000Z,2019-07-11T04:00:00.000Z,"M,T,W,TH,F",,7:30 AM - 8:30 AM,11:00 AM - 12:00 PM,,,,,7,U,US,35834,,2019,Orange
-117.8601488,33.74988929,93155,GARFIELD ELEMENTARY,Open,"850 EAST BROWN ST. SANTA ANA, CA 92701",,SANTA ANA,CA,92701,7144311900,,LISA,GAXIOLA,7144311900,SANTA ANA UNIFIED SCHOOL DISTRICT,2019-06-04T04:00:00.000Z,2019-07-11T04:00:00.000Z,"M,T,W,TH,F",,7:30 AM - 8:30 AM,11:00 AM - 12:00 PM,,,,,7,U,US,35903,,2019,Orange
-117.8981088,33.72525938,93157,CARL HARVEY ELEMENTARY,Open,"1635 SOUTH CENTER ST. SANTA ANA, CA 92704",,SANTA ANA,CA,92704,7144311900,,LISA,GAXIOLA,7144311900,SANTA ANA UNIFIED SCHOOL DISTRICT,2019-06-04T04:00:00.000Z,2019-07-11T04:00:00.000Z,"M,T,W,TH,F",,7:30 AM - 8:30 AM,11:00 AM - 12:00 PM,,,,,7,U,US,34612,,2019,Orange
-117.8631742,33.7665095,93159,HOOVER ELEMENTARY,Open,"408 EAST SANTA CLARA AVE. SANTA ANA, CA 92706",,SANTA ANA,CA,92706,7144311900,,HECTOR,GUTIERREZ,7144311900,SANTA ANA UNIFIED SCHOOL DISTRICT,2019-06-03T04:00:00.000Z,2019-07-11T04:00:00.000Z,"M,T,W,TH,F",,7:30 AM - 8:30 AM,11:00 AM - 12:00 PM,,,,,7,U,US,36365,,2019,Orange
-117.9098427,33.73258906,93160,ANDREW JACKSON ELEMENTARY,Open,"1143 SOUTH NAKOMA DR. SANTA ANA, CA 92704",,SANTA ANA,CA,92704,7144311900,,JOSEFINA,MEJIA,7144311900,SANTA ANA UNIFIED SCHOOL DISTRICT,2019-06-04T04:00:00.000Z,2019-07-11T04:00:00.000Z,"M,T,W,TH,F",,7:30 AM - 8:30 AM,11:00 AM - 12:00 PM,,,,,7,U,US,33864,,2019,Orange
-117.8961241,33.71747201,93162,ADAMS ELEMENTARY,Open,"2130 SOUTH RAITT ST. SANTA ANA, CA 92704",,SANTA ANA,CA,92704,7144311900,,LISA,GAXIOLA,7144311900,SANTA ANA UNIFIED SCHOOL DISTRICT,2019-06-04T04:00:00.000Z,2019-07-11T04:00:00.000Z,"M,T,W,TH,F",,7:30 AM - 8:30 AM,11:00 AM - 12:00 PM,,,,,7,U,US,33753,,2019,Orange
-117.8537415,33.73361151,93163,JOHN F. KENNEDY ELEMENTARY,Open,"1300 EAST MCFADDEN SANTA ANA, CA 92705",,SANTA ANA,CA,92705,7144311900,,EDWARD,GARCIA,7144311900,SANTA ANA UNIFIED SCHOOL DISTRICT,2019-06-04T04:00:00.000Z,2019-07-11T04:00:00.000Z,"M,T,W,TH,F",,7:30 AM - 9:00 AM,11:00 AM - 12:00 PM,,,,,7,U,US,36620,,2019,Orange
-118.2652279,33.917535,93165,ANIMO MAE JEMISON CHARTER MIDDLE,Open,"12700 AVALON BLVD. LOS ANGELES, CA 90061",,LOS ANGELES,CA,90061,2137039179,,DARREN,ALEXANDER,2137039179,GREEN DOT PUBLIC SCHOOLS,2019-07-15T04:00:00.000Z,2019-07-26T04:00:00.000Z,"M,T,W,TH,F",,7:00 AM - 8:00 AM,11:00 AM - 12:00 PM,,,,,7,U,US,25565,,2019,Los Angeles
-117.9025409,33.74084683,93166,ABRAHAM LINCOLN ELEMENTARY,Open,"425 SOUTH SULLIVAN SANTA ANA, CA 92704",,SANTA ANA,CA,92704,7144311900,,JOSEFINA,MEJIA,7144311900,SANTA ANA UNIFIED SCHOOL DISTRICT,2019-06-04T04:00:00.000Z,2019-07-11T04:00:00.000Z,"M,T,W,TH,F",,7:30 AM - 8:30 AM,10:45 AM - 12:00 PM,,,,,7,U,US,33736,,2019,Orange
-120.9571172,37.56669236,93167,PATRICIA KAY BEAVER ELEMENTARY,Open,"4927 CENTRAL AVE. CERES, CA 95307",,CERES,CA,95307,2095561580,1582,RHONDA,WHITEHEAD,2095561580,CERES UNIFIED SCHOOL DISTRICT,2019-06-10T04:00:00.000Z,2019-07-03T04:00:00.000Z,"M,T,W,TH,F",,8:00 AM - 8:30 AM,10:45 AM - 12:00 PM,,,,,7,U,US,6102,,2019,Stanislaus
-117.8764999,33.73828756,93168,LOWELL ELEMENTARY,Open,"700 SOUTH FLOWER ST. SANTA ANA, CA 92703",,SANTA ANA,CA,92703,7144311900,,JOSEFINA,MEJIA,7144311900,SANTA ANA UNIFIED SCHOOL DISTRICT,2019-06-04T04:00:00.000Z,2019-07-11T04:00:00.000Z,"M,T,W,TH,F",,7:30 AM - 8:30 AM,11:00 AM - 12:00 PM,,,,,7,U,US,37105,,2019,Orange
-117.8868895,33.73533797,93172,MARTIN LUTHER KING JR. ELEMENTARY,Open,"1001 SOUTH GRAHAM LN. SANTA ANA, CA 92703",,SANTA ANA,CA,92703,7144311900,,JOSEFINA,MEJIA,7144311900,SANTA ANA UNIFIED SCHOOL DISTRICT,2019-06-04T04:00:00.000Z,2019-07-11T04:00:00.000Z,"M,T,W,TH,F",,7:30 AM - 8:30 AM,10:30 AM - 12:00 PM,,,,,7,U,US,37229,,2019,Orange
-119.798703,36.71410747,93173,RUTHERFORD B. GASTON SR. MIDDLE,Open,"1100 EAST CHURCH AVE. FRESNO, CA 93706",,FRESNO,CA,93706,5594576250,6263,VICKI,DAY,5594576250,FRESNO UNIFIED SCHOOL DISTRICT,2019-06-11T04:00:00.000Z,2019-06-26T04:00:00.000Z,"M,T,W,TH,F",,7:30 AM - 8:00 AM,10:15 AM - 11:15 AM,,,,,7,U,US,46948,,2019,Fresno
-117.9098422,33.72026952,93175,MITCHELL CHILD DEVELOPMENT,Open,"3001 WEST HARVARD SANTA ANA, CA 92704",,SANTA ANA,CA,92704,7144311900,,JOSEFINA,MEJIA,7144311900,SANTA ANA UNIFIED SCHOOL DISTRICT,2019-06-10T04:00:00.000Z,2019-07-11T04:00:00.000Z,"M,T,W,TH",,8:00 AM - 10:00 AM,10:45 AM - 12:15 PM,,,,,7,U,US,95155,,2019,Orange
-117.8953335,33.73799725,93177,MONTE VISTA ELEMENTARY,Open,"2116 WEST MONTA VISTA AVE. SANTA ANA, CA 92704",,SANTA ANA,CA,92704,7144311900,,JOSEFINA,MEJIA,7144311900,SANTA ANA UNIFIED SCHOOL DISTRICT,2019-06-03T04:00:00.000Z,2019-07-11T04:00:00.000Z,"M,T,W,TH,F",,7:30 AM - 8:30 AM,11:00 AM - 12:00 PM,,,,,7,U,US,37439,,2019,Orange
-118.934263,35.3469275,93178,ZEPHYR LANE ELEMENTARY,Open,"6327 ZEPHYR LN. BAKERSFIELD, CA 93307",,BAKERSFIELD,CA,93307,6613667221,1202,RICHARD,ANDREWS,6613667221,FAIRFAX ELEMENTARY SCHOOL DISTRICT,2019-06-03T04:00:00.000Z,2019-07-31T04:00:00.000Z,"M,T,W,TH,F",,7:00 AM - 8:00 AM,11:00 AM - 1:00 PM,,,,,7,U,US,7567,,2019,Kern
-117.8944699,33.73452246,93179,LORIN GRISET ACADEMY,Open,"1915 WEST MCFADDEN SANTA ANA, CA 92704",,SANTA ANA,CA,92704,7144311900,1908,JOSEFINA,MEJIA,7144311900,SANTA ANA UNIFIED SCHOOL DISTRICT,2019-06-04T04:00:00.000Z,2019-07-11T04:00:00.000Z,"M,T,W,TH,F",,7:15 AM - 7:45 AM,10:00 AM - 10:30 AM,,,,,7,U,US,37093,,2019,Orange
-117.8440669,33.76350964,93180,JOHN MUIR FUNDAMENTAL ELEMENTARY,Open,"1951 NORTH MABURY SANTA ANA, CA 92705",,SANTA ANA,CA,92705,7144311900,,HECTOR,GUTIERREZ,7144311900,SANTA ANA UNIFIED SCHOOL DISTRICT,2019-06-03T04:00:00.000Z,2019-06-14T04:00:00.000Z,"M,T,W,TH,F",,8:00 AM - 8:30 AM,11:00 AM - 12:00 PM,,,,,7,U,US,36626,,2019,Orange
-117.8872549,33.72357871,93184,JOSE SEPULVEDA ELEMENTARY,Open,"1801 SOUTH POPLAR SANTA ANA, CA 92704",,SANTA ANA,CA,92704,7144311900,,JOSEFINA,MEJIA,7144311900,SANTA ANA UNIFIED SCHOOL DISTRICT,2019-06-04T04:00:00.000Z,2019-07-11T04:00:00.000Z,"M,T,W,TH,F",,7:30 AM - 8:30 AM,11:00 AM - 12:00 PM,,,,,7,U,US,36643,,2019,Orange
-117.859579,33.74140594,93185,THEODORE ROOSEVELT ELEMENTARY,Open,"501 SOUTH HALLADAY SANTA ANA, CA 92701",,SANTA ANA,CA,92701,7144311900,,EDWARD,GARCIA,7144311900,SANTA ANA UNIFIED SCHOOL DISTRICT,2019-06-04T04:00:00.000Z,2019-07-11T04:00:00.000Z,"M,T,W,TH,F",,7:30 AM - 8:30 AM,11:00 AM - 12:00 PM,,,,,7,U,US,39352,,2019,Orange
-117.8755233,33.69696249,93188,TAFT ELEMENTARY,Open,"500 WEST KELLER SANTA ANA, CA 92707",,SANTA ANA,CA,92707,7144311900,,LISA,GAXIOLA,7144311900,SANTA ANA UNIFIED SCHOOL DISTRICT,2019-06-03T04:00:00.000Z,2019-07-18T04:00:00.000Z,"M,T,W,TH,F",,7:30 AM - 9:00 AM,11:00 AM - 12:00 PM,,,,,7,U,US,39229,,2019,Orange
-117.8762204,33.71789751,93190,WASHINGTON ELEMENTARY,Open,"910 WEST ANAHURST PL. SANTA ANA, CA 92707",,SANTA ANA,CA,92707,7144311900,,EDWARD,GARCIA,7144311900,SANTA ANA UNIFIED SCHOOL DISTRICT,2019-06-04T04:00:00.000Z,2019-07-11T04:00:00.000Z,"M,T,W,TH,F",,7:30 AM - 9:00 AM,11:00 AM - 12:00 PM,,,,,7,U,US,39694,,2019,Orange
-118.2605806,33.93516304,93192,ANIMO JAMES B. TAYLOR CHARTER MIDDLE,Open,"810 EAST 111TH PL. LOS ANGELES, CA 90059",,LOS ANGELES,CA,90059,2137039179,,DARREN,ALEXANDER,2137039179,GREEN DOT PUBLIC SCHOOLS,2019-07-08T04:00:00.000Z,2019-07-17T04:00:00.000Z,"M,T,W,TH,F",,7:00 AM - 8:00 AM,11:00 AM - 12:00 PM,,,,,7,U,US,109622,,2019,Los Angeles
-117.8826899,33.75680358,93193,WILSON ELEMENTARY,Open,"1317 NORTH BAKER ST. SANTA ANA, CA 92706",,SANTA ANA,CA,92706,7144311900,,HECTOR,GUTIERREZ,7144311900,SANTA ANA UNIFIED SCHOOL DISTRICT,2019-06-04T04:00:00.000Z,2019-07-11T04:00:00.000Z,"M,T,W,TH,F",,7:30 AM - 8:30 AM,11:00 AM - 12:00 PM,,,,,7,U,US,39918,,2019,Orange
-122.1148171,37.69557105,93194,REACH ASHLAND YOUTH CENTER,Open,"16335 E 14TH STREET SAN LEANDRO, CA 94578",,SAN LEANDRO,CA,94578,5107233890,28110,ROBIN,GALLAGHER,5107233890,HAYWARD UNIFIED SCHOOL DISTRICT,2019-06-17T04:00:00.000Z,2019-08-02T04:00:00.000Z,"M,T,W,TH,F",,,11:00 AM - 12:30 PM,,,,,7,U,US,30385,,2019,Alameda
-122.0831794,37.67101639,93196,HAYWARD MAIN LIBRARY,Open,"888 C STREET HAYWARD, CA 94541",,HAYWARD,CA,94541,5107233890,28110,ROBIN,GALLAGHER,5107233890,HAYWARD UNIFIED SCHOOL DISTRICT,2019-06-17T04:00:00.000Z,2019-08-02T04:00:00.000Z,"M,T,W,TH,F",,,11:00 AM - 12:30 PM,,,,,7,U,US,139736,,2019,Alameda
-122.0793131,37.633482,93197,HAYWARD LIBRARY WEEKS BRANCH,Open,"27300 PATRICK AVE. HAYWARD, CA 94544",,HAYWARD,CA,94544,5107233890,28110,ROBIN,GALLAGHER,5107233890,HAYWARD UNIFIED SCHOOL DISTRICT,2019-06-17T04:00:00.000Z,2019-08-02T04:00:00.000Z,"M,T,W,TH,F",,,11:00 AM - 12:30 PM,,,,,7,U,US,28062,,2019,Alameda
-118.2532958,33.93089292,93204,NICK PLAY GROUND,Open,"11415 ALVARO STREET LOS ANGELES, CA 90059",,LOS ANGELES,CA,90059,4243293239,,ESTABAN,SILVA,4243293239,"J-TECH INSTITUTE, INC",2019-06-10T04:00:00.000Z,2019-08-19T04:00:00.000Z,"M,T,W,TH,F",,,12:00 PM - 1:00 PM,,4:00 PM - 5:00 PM,,,7,U,US,45880,,2019,Los Angeles
-117.4802319,33.908542,93205,LA SIERRA HIGH,Open,"4145 LA SIERRA AVE. RIVERSIDE, CA 92505",,RIVERSIDE,CA,92505,9513581725,1200,SUSAN,AGUIRRE,9513581725,ALVORD UNIFIED SCHOOL DISTRICT,2019-06-10T04:00:00.000Z,2019-07-09T04:00:00.000Z,"M,T,W,TH,F",,7:00 AM - 8:30 AM,10:00 AM - 11:00 AM,,,,,7,U,US,36819,,2019,Riverside
-117.4727194,33.9500873,93206,NORTE VISTA HIGH,Open,"6585 CREST AVE. RIVERSIDE, CA 92503",,RIVERSIDE,CA,92503,9513581740,1200,SYLVIA,GARCIA,9513581740,ALVORD UNIFIED SCHOOL DISTRICT,2019-06-10T04:00:00.000Z,2019-07-09T04:00:00.000Z,"M,T,W,TH,F",,7:00 AM - 8:30 AM,10:00 AM - 11:30 AM,,,,,7,U,US,37736,,2019,Riverside
-118.2992441,33.79826518,93212,RC HARBOR CITY,Open,"24901 FRAMPTON AVE LOS ANGELES, CA 90710",,LOS ANGELES,CA,90710,3105487729,,AARON,MITCHELL,3105487729,"J-TECH INSTITUTE, INC",2019-06-10T04:00:00.000Z,2019-08-19T04:00:00.000Z,"T,W,TH,F,SA",,,,,3:00 PM - 4:00 PM,,,7,U,US,93859,,2019,Los Angeles
-118.2489435,33.93679847,93215,RC 109TH STREET,Open,"1464 E. 109TH STREET LOS ANGELES, CA 90059",,LOS ANGELES,CA,90059,3235664561,,JEREMY,YORK,3235664561,"J-TECH INSTITUTE, INC",2019-06-10T04:00:00.000Z,2019-08-19T04:00:00.000Z,"M,T,W,TH,F,SA",,,,,7:00 PM - 9:00 PM,,,7,U,US,64821,,2019,Los Angeles
-117.4850309,33.90568405,93216,S. CHRISTA MCAULIFFE ELEMENTARY,Open,"4100 GOLDEN AVE. RIVERSIDE, CA 92505",,RIVERSIDE,CA,92505,9513581625,1200,ELISSA,ERICES,9513581625,ALVORD UNIFIED SCHOOL DISTRICT,2019-06-10T04:00:00.000Z,2019-07-03T04:00:00.000Z,"M,T,W,TH,F",,8:15 AM - 8:45 AM,11:15 AM - 11:45 AM,,,,,7,U,US,38604,,2019,Riverside
-117.4670822,33.95036287,93217,TERRACE ELEMENTARY,Open,"6601 RUTLAND ST. RIVERSIDE, CA 92503",,RIVERSIDE,CA,92503,9513581660,1200,DENISE,ARANGURE,9513581660,ALVORD UNIFIED SCHOOL DISTRICT,2019-06-10T04:00:00.000Z,2019-07-03T04:00:00.000Z,"M,T,W,TH,F",,8:15 AM - 8:45 AM,11:15 AM - 11:45 AM,,,,,7,U,US,39267,,2019,Riverside
-117.5045519,33.9230445,93218,VALLEY VIEW ELEMENTARY,Open,"11750 GRAMERCY PL. RIVERSIDE, CA 92505",,RIVERSIDE,CA,92505,9513581670,1200,ERICA,PELAYO,9513581670,ALVORD UNIFIED SCHOOL DISTRICT,2019-06-10T04:00:00.000Z,2019-07-03T04:00:00.000Z,"M,T,W,TH,F",,8:15 AM - 8:45 AM,11:15 AM - 11:45 AM,,,,,7,U,US,39566,,2019,Riverside
-118.2690461,34.00915497,93219,RC GILBERT LINDSAY,Open,"400 E. 41ST STREET LOS ANGELES, CA 90011",,LOS ANGELES,CA,90011,3238467585,,RUBY,THOMAS,3238467585,"J-TECH INSTITUTE, INC",2019-06-10T04:00:00.000Z,2019-08-19T04:00:00.000Z,"M,T,W,TH,F",,,,,3:00 PM - 4:00 PM,,,7,U,US,64823,,2019,Los Angeles
-117.6908537,33.52792748,93220,YMCA - HIDDEN HILLS ELEMENTARY,Open,"25142 HIDDEN HILLS ROAD LAGUNA NIGUEL, CA 92677",,LAGUNA NIGUEL,CA,92677,9492496110,,MARISSA,BELLON,9492496110,"SECOND HARVEST FOOD BANK OF ORANGE COUNTY, INC",2019-06-10T04:00:00.000Z,2019-08-16T04:00:00.000Z,"M,T,W,TH",,,12:00 PM - 12:30 PM,,3:00 PM - 3:30 PM,,,7,U,US,32092,,2019,Orange
-117.604623,33.85817265,93224,JOHN ADAMS ELEMENTARY,Open,"2350 BORDER AVE. CORONA, CA 92882",,CORONA,CA,92882,9517363256,,MEGAN,COOK,9517363256,CORONA-NORCO UNIFIED SCHOOL DISTRICT,2019-06-10T04:00:00.000Z,2019-06-21T04:00:00.000Z,"M,T,W,TH,F",,8:30 AM - 9:00 AM,1:30 PM - 2:00 PM,,,,,7,U,US,28493,,2019,Riverside
-118.295745,33.75109499,93225,LELAND RECREATION CENTER,Open,"863 SOUTH HERBERT AVENUE LOS ANGELES, CA 90731",,LOS ANGELES,CA,90731,3105487706,,DOLPHIN,TILLMAN,3105487706,"LOS ANGELES, CITY OF DEPT OF REC & PARKS",2019-06-10T04:00:00.000Z,2019-08-09T04:00:00.000Z,"M,T,W,TH,F",,,12:00 PM - 12:30 PM,,,,,7,U,US,23370,,2019,Los Angeles
-117.6030217,33.87262561,93226,CORONITA ELEMENTARY,Open,"1757 VIA DEL RIO CORONA, CA 92882",,CORONA,CA,92882,9517367118,,MEGAN,COOK,9517367118,CORONA-NORCO UNIFIED SCHOOL DISTRICT,2019-06-10T04:00:00.000Z,2019-06-21T04:00:00.000Z,"M,T,W,TH,F",,7:00 AM - 7:30 AM,1:00 PM - 1:40 PM,,,,,7,U,US,26809,,2019,Riverside
-117.5615933,33.86360821,93227,GARRETSON ELEMENTARY,Open,"1650 GARRETSON AVE. CORONA, CA 92879",,CORONA,CA,92879,9517363256,,MEGAN,COOK,9517363256,CORONA-NORCO UNIFIED SCHOOL DISTRICT,2019-06-10T04:00:00.000Z,2019-07-19T04:00:00.000Z,"M,T,W,TH,F",,8:00 AM - 8:30 AM,11:15 AM - 12:15 PM,,,,,7,U,US,27709,,2019,Riverside
-121.8797049,37.3220654,93228,BIBLIOTECA LATINOAMERICA LIBRARY,Open,"921 S FIRST STREET SAN JOSE, CA 95110",,SAN JOSE,CA,95110,4082781116,,OSCAR,HERNANDEZ,4082781116,YMCA OF SILICON VALLEY,2019-06-10T04:00:00.000Z,2019-08-09T04:00:00.000Z,"M,T,W,TH,F",,,12:00 PM - 1:00 PM,,,,,7,U,US,3329,,2019,Santa Clara
-121.8318718,37.33782635,93229,HILLVIEW BRANCH LIBRARY,Open,"1600 HOPKINS DRIVE SAN JOSE, CA 95122",,SAN JOSE,CA,95122,4087299516,,KYLE,BURNETT,4087299516,YMCA OF SILICON VALLEY,2019-06-10T04:00:00.000Z,2019-08-09T04:00:00.000Z,"M,T,W,TH,F",,,12:00 PM - 1:00 PM,,,,,7,U,US,4817,,2019,Santa Clara
-121.8409947,37.31215937,93230,TULLY COMMUNITY BRANCH LIBRARY,Open,"880 TULLY ROAD SAN JOSE, CA 95111",,SAN JOSE,CA,95111,4089771441,,CHIEU,NGUYEN,4089771441,YMCA OF SILICON VALLEY,2019-06-10T04:00:00.000Z,2019-08-09T04:00:00.000Z,"M,T,W,TH,F",,,1:00 PM - 2:00 PM,,,,,7,U,US,7094,,2019,Santa Clara
-117.576048,33.87179474,93231,JEFFERSON ELEMENTARY,Open,"1040 SOUTH VICENTIA AVE. CORONA, CA 92882",,CORONA,CA,92882,9517363256,,MEGAN,COOK,9517363256,CORONA-NORCO UNIFIED SCHOOL DISTRICT,2019-06-10T04:00:00.000Z,2019-06-21T04:00:00.000Z,"M,T,W,TH,F",,7:00 AM - 7:30 AM,1:00 PM - 1:30 PM,,,,,7,U,US,28461,,2019,Riverside
-116.9694359,33.74941291,93232,HEMET PUBLIC LIBRARY,Open,"300 E. LATHAM AVE. HEMET, CA 92543",,HEMET,CA,92543,9517655100,5300,JANET,JUNGNICKEL,9517655100,HEMET UNIFIED SCHOOL DISTRICT,2019-06-05T04:00:00.000Z,2019-07-19T04:00:00.000Z,"W,TH,F",,,11:30 AM - 12:30 PM,,,,,7,U,US,100615,,2019,Riverside
-117.5316826,33.90345102,93234,WILLIAM MCKINLEY ELEMENTARY,Open,"2050 AZTEC LN. CORONA, CA 92879",,CORONA,CA,92879,9517363256,,MEGAN,COOK,9517363256,CORONA-NORCO UNIFIED SCHOOL DISTRICT,2019-06-12T04:00:00.000Z,2019-07-10T04:00:00.000Z,"M,T,W,TH,F",,7:30 AM - 8:00 AM,1:00 PM - 1:30 PM,,,,,7,U,US,31955,,2019,Riverside
-118.8484612,34.17829646,93235,AREA HOUSING- LEGGETT COURT,Open,"1860 LOS FELIZ DRIVE #23 THOUSAND OAKS, CA 91362",,THOUSAND OAKS,CA,91362,8054979511,256,VIRGINIA,BECK,8054979511,CONEJO VALLEY UNIFIED SCHOOL DISTRICT,2019-06-10T04:00:00.000Z,2019-08-15T04:00:00.000Z,"M,T,W,TH",,,12:00 PM - 1:00 PM,,,,,7,U,US,130922,,2019,Ventura
-118.8473823,34.17787249,93236,AREA HOUSING- GARDEN VIEW TERRACE,Open,"1972 LOS FELIZ DRIVE THOUSAND OAKS, CA 93012",,THOUSAND OAKS,CA,93012,8054979511,256,VIRGINIA,BECK,8054979511,CONEJO VALLEY UNIFIED SCHOOL DISTRICT,2019-06-10T04:00:00.000Z,2019-08-15T04:00:00.000Z,"M,T,W,TH",,,12:00 PM - 1:30 PM,,,,,7,U,US,130921,,2019,Ventura
-118.8372805,34.17494315,93237,AREA HOUSING- FIORE GARDENS,Open,"2672 HLLCREST DRIVE THOUSAND OAKS, CA 91362",,THOUSAND OAKS,CA,91362,8054979511,256,VIRGINIA,BECK,8054979511,CONEJO VALLEY UNIFIED SCHOOL DISTRICT,2019-06-10T04:00:00.000Z,2019-08-15T04:00:00.000Z,"M,T,W,TH",,,11:30 AM - 12:30 PM,,,,,7,U,US,130920,,2019,Ventura
-118.87622,34.2864115,93238,AREA HOUSING- CHARLES STREET TERRACE,Open,"396 CHARLES STREET MOORPARK, CA 93021",,MOORPARK,CA,93021,8054979511,256,VIRGINIA,BECK,8054979511,CONEJO VALLEY UNIFIED SCHOOL DISTRICT,2019-06-10T04:00:00.000Z,2019-08-15T04:00:00.000Z,"M,T,W,TH",,,12:00 PM - 1:30 PM,,,,,7,U,US,130919,,2019,Ventura
-118.8622863,34.2156101,93239,AREA HOUSING- LOS ARBOLES,Open,"801 CALLE HAYA THOUSAND OAKS, CA 91360",,THOUSAND OAKS,CA,91360,8054979511,256,VIRGINIA,BECK,8054979511,CONEJO VALLEY UNIFIED SCHOOL DISTRICT,2019-06-10T04:00:00.000Z,2019-08-15T04:00:00.000Z,"M,T,W,TH",,,11:30 AM - 12:30 PM,,,,,7,U,US,130923,,2019,Ventura
-117.5584586,33.89222753,93240,PARKRIDGE ELEMENTARY,Open,"750 CORONA AVE. CORONA, CA 92879",,CORONA,CA,92879,9517367118,,MEGAN,COOK,9517367118,CORONA-NORCO UNIFIED SCHOOL DISTRICT,2019-07-08T04:00:00.000Z,2019-07-26T04:00:00.000Z,"M,T,W,TH,F",,7:45 AM - 8:15 AM,11:45 AM - 12:15 PM,,,,,7,U,US,30048,,2019,Riverside
-116.9408594,32.7360447,93242,YMCA - MCGRATH,Open,"12006 CAMPO RD SPRING VALLEY, CA 91978",,SPRING VALLEY,CA,91978,6196448183,,VINCE,SCIMONE,6196448183,GROSSMONT UNION HIGH SCHOOL DISTRICT,2019-06-17T04:00:00.000Z,2019-08-16T04:00:00.000Z,"M,T,W,TH,F",,8:00 AM - 9:00 AM,1:30 PM - 2:30 PM,,,,,7,U,US,60800,,2019,San Diego
-117.9137807,34.126638,93243,MEMORIAL PARK,Open,"320 N ORANGE PLACE AZUSA, CA 91702",,AZUSA,CA,91702,6267328057,,MARIA,BARRIOS,6267328057,AZUSA UNIFIED SCHOOL DISTRICT,2019-06-10T04:00:00.000Z,2019-07-26T04:00:00.000Z,"M,T,W,TH,F",,7:30 AM - 8:00 AM,11:30 AM - 12:30 PM,,,,,7,U,US,5646,,2019,Los Angeles
-117.4852623,34.0044342,93244,GLEN AVON LIBRARY,Open,"9244 GALENA JURUPA VALLEY, CA 92509",,JURUPA VALLEY,CA,92509,9513602766,,MIKE,BYNUM,9513602766,JURUPA UNIFIED SCHOOL DISTRICT,2019-06-03T04:00:00.000Z,2019-07-11T04:00:00.000Z,"M,T,W,TH",,,11:00 AM - 1:00 PM,,,,,7,U,US,4553,,2019,Riverside
-121.6493819,36.68038699,93245,HACIENDA HEIGHTS,Open,"245 CALLE CEBU SALINAS, CA 93901",,SALINAS,CA,93901,8317535618,,CARLOS,MURTA,8317535618,SALINAS CITY ELEMENTARY SCHOOL DISTRICT,2019-06-10T04:00:00.000Z,2019-07-26T04:00:00.000Z,"M,T,W,TH,F",,,11:30 AM - 12:00 PM,,,,,7,U,US,4657,,2019,Monterey
-117.5503984,33.85556656,93246,JOHN STALLINGS ELEMENTARY,Open,"1980 FULLERTON AVE. CORONA, CA 92881",,CORONA,CA,92881,9517363256,,MEGAN,COOK,9517363256,CORONA-NORCO UNIFIED SCHOOL DISTRICT,2019-06-06T04:00:00.000Z,2019-06-26T04:00:00.000Z,"M,T,W,TH,F",,8:00 AM - 8:45 AM,12:45 PM - 1:15 PM,,,,,7,U,US,28511,,2019,Riverside
-117.9199371,33.86378756,93247,MAPLE NEIGHBORHOOD CENTER,Open,"701 S. LEMON STREET FULLERTON, CA 92832",,FULLERTON,CA,92832,7147386581,,COURTNEY,WYSOCKI,7147386581,"SECOND HARVEST FOOD BANK OF ORANGE COUNTY, INC",2019-06-03T04:00:00.000Z,2019-07-26T04:00:00.000Z,"M,T,W,TH,F",,,1:30 PM - 2:00 PM,,,,,7,U,US,29156,,2019,Orange
-117.9592256,33.85686944,93248,ORANGETHORPE NEIGHBORHOOD CENTER,Open,"1414 S. BROOKHURST STREET FULLERTON, CA 92833",,FULLERTON,CA,92833,7147731304,,COURTNEY,WYSOCKI,7147731304,"SECOND HARVEST FOOD BANK OF ORANGE COUNTY, INC",2019-06-03T04:00:00.000Z,2019-07-26T04:00:00.000Z,"M,T,W,TH,F",,,2:00 PM - 2:30 PM,,,,,7,U,US,29935,,2019,Orange
-118.2535223,34.14438953,93250,GLENDALE CENTRAL LIBRARY,Open,"222 E. HARVARD STREET GLENDALE, CA 91205",,GLENDALE,CA,91205,8185522677,,JENNIFER,GONZALES,8185522677,GLENDALE UNIFIED SCHOOL DISTRICT,2019-06-17T04:00:00.000Z,2019-08-09T04:00:00.000Z,"M,T,W,TH,F",,,11:30 AM - 12:30 PM,,,,,7,U,US,103736,,2019,Los Angeles
-118.0688506,33.91705149,93251,NORWALK LIBRARY,Open,"12350 IMPERIAL HIGHWAY NORWALK, CA 90650",,NORWALK,CA,90650,5628680775,,AMY,DANG,5628680775,LOS ANGELES COUNTY DEPT OF PARKS & RECREATION,2019-06-10T04:00:00.000Z,2019-08-02T04:00:00.000Z,"M,T,W,TH,F",,,12:00 PM - 1:00 PM,,,,,7,U,US,23649,,2019,Los Angeles
-118.4343137,34.28122254,93252,RECREATION PARK,Open,"208 PARK AVE SAN FERNANDO, CA 91340",,SAN FERNANDO,CA,91340,8188981290,,VIRGINIA,UFANO,8188981290,LOS ANGELES COUNTY DEPT OF PARKS & RECREATION,2019-06-10T04:00:00.000Z,2019-08-02T04:00:00.000Z,"M,T,W,TH,F",,,11:30 AM - 12:30 PM,,,,,7,U,US,23830,,2019,Los Angeles
-117.577348,33.85958153,93253,VICENTIA ELEMENTARY,Open,"2005 SOUTH VICENTIA AVE. CORONA, CA 92882",,CORONA,CA,92882,9517363256,,MEGAN,COOK,9517363256,CORONA-NORCO UNIFIED SCHOOL DISTRICT,2019-06-10T04:00:00.000Z,2019-06-21T04:00:00.000Z,"M,T,W,TH,F",,7:00 AM - 7:30 AM,1:15 PM - 1:45 PM,,,,,7,U,US,31658,,2019,Riverside
-119.0303348,34.227756,93254,AREA HOUSING- ELLIS TERRACE,Open,"1021 TEMPLE AVENUE CAMARILLO, CA 93010",,CAMARILLO,CA,93010,8054979511,79511,VIRGINIA,BECK,8054979511,CONEJO VALLEY UNIFIED SCHOOL DISTRICT,2019-06-10T04:00:00.000Z,2019-08-15T04:00:00.000Z,"M,T,W,TH",,,12:00 PM - 1:30 PM,,,,,7,U,US,3067,,2019,Ventura
-117.5706434,33.90088321,93255,GEORGE WASHINGTON ELEMENTARY,Open,"1220 WEST PARKRIDGE AVE. NORCO, CA 92860",,NORCO,CA,92860,9517363256,,MEGAN,COOK,9517363256,CORONA-NORCO UNIFIED SCHOOL DISTRICT,2019-07-15T04:00:00.000Z,2019-07-26T04:00:00.000Z,"M,T,W,TH,F",,7:30 AM - 8:00 AM,12:30 PM - 1:00 PM,,,,,7,U,US,27739,,2019,Riverside
-120.6068781,37.35025634,93256,RALSTON PARK,Open,"1550 THIRD STREET ATWATER, CA 95301",,ATWATER,CA,95301,2093576115,120,LISA,LUDWIG,2093576115,ATWATER ELEMENTARY SCHOOL DISTRICT,2019-06-17T04:00:00.000Z,2019-08-02T04:00:00.000Z,"M,T,W,TH,F",,,11:00 AM - 11:40 AM,,,,,7,U,US,140745,,2019,Merced
-119.5744343,36.70004313,93257,SANGER HIGH,Open,"1045 BETHEL AVE SANGER, CA 93657",,SANGER,CA,93657,5595247295,,ROXANNE,GONZALES,5595247295,SANGER UNIFIED SCHOOL DISTRICT,2019-06-10T04:00:00.000Z,2019-07-05T04:00:00.000Z,"M,T,W,TH,F",,7:10 AM - 7:45 AM,11:45 AM - 12:45 PM,,,,,7,U,US,38683,,2019,Fresno
-122.0479836,38.25149049,93258,FAIRFIELD CIVIC CENTER LIBRARY,Open,"1150 KENTUCKY STREET FAIRFIELD, CA 94533",,FAIRFIELD,CA,94533,7073995046,,BRIANNA,ARMSTRONG,7073995046,FAIRFIELD-SUISUN UNIFIED SCHOOL DISTRICT,2019-06-10T04:00:00.000Z,2019-08-02T04:00:00.000Z,"M,T,W,TH,F",,,11:45 AM - 12:30 PM,,,,,7,U,US,8584,,2019,Solano
-121.434831,38.472552,93262,MACK ROAD COMMUNITY CENTER,Open,"7833 CENTER PARKWAY SACRAMENTO, CA 95823",,SACRAMENTO,CA,95823,9166867735,78081,MICHELLE,DRAKE,9166867735,ELK GROVE UNIFIED SCHOOL DISTRICT,2019-06-17T04:00:00.000Z,2019-08-09T04:00:00.000Z,"M,T,W,TH,F",,,11:00 AM - 2:00 PM,,,,,7,U,US,53309,,2019,Sacramento
-121.4175645,38.477601,93263,ACACIA APARTMENTS,Open,"7735 STOCKTON BLVD. SACRAMENTO, CA 95828",,SACRAMENTO,CA,95828,9166867735,78081,MICHELLE,DRAKE,9166867735,ELK GROVE UNIFIED SCHOOL DISTRICT,2019-06-17T04:00:00.000Z,2019-08-09T04:00:00.000Z,"M,T,W,TH,F",,9:30 AM - 10:00 AM,12:00 PM - 1:00 PM,,,,,7,U,US,49606,,2019,Sacramento
-121.409235,38.462814,93264,AUBERRY PARK APARTMENTS,Open,"8120 POWER INN ROAD SACRAMENTO, CA 95828",,SACRAMENTO,CA,95828,9166867735,78081,MICHELLE,DRAKE,9166867735,ELK GROVE UNIFIED SCHOOL DISTRICT,2019-07-01T04:00:00.000Z,2019-08-17T04:00:00.000Z,"M,T,W,TH,F",,,12:00 PM - 12:30 PM,,,,,7,U,US,49841,,2019,Sacramento
-118.2355935,34.10027045,93265,RIO DE LOS ANGELES,Open,"1900 N. FERNANDO ROAD LOS ANGELES, CA 90065",,LOS ANGELES,CA,90065,3232763015,,RAMON,BERNAL,3232763015,"LOS ANGELES, CITY OF DEPT OF REC & PARKS",2019-06-10T04:00:00.000Z,2019-08-09T04:00:00.000Z,"M,T,W,TH,F",,,12:00 PM - 12:30 PM,,,,,7,U,US,23860,,2019,Los Angeles
-117.6062239,34.01945025,93266,WESTWIND COMMUNITY CENTER,Open,"2455 E. RIVERSIDE DRIVE ONTARIO, CA 91761",,ONTARIO,CA,91761,9099306360,229,SARA,MARAGNI,9099306360,ONTARIO-MONTCLAIR SCHOOL DISTRICT,2019-06-03T04:00:00.000Z,2019-07-26T04:00:00.000Z,"M,T,W,TH,F",,,12:00 PM - 2:00 PM,,,,,7,U,US,10281,,2019,San Bernardino
-117.6493539,34.06584302,93267,OVITT FAMILY COMMUNITY LIBRARY,Open,"215 EAST C STREET ONTARIO, CA 91764",,ONTARIO,CA,91764,9099306360,229,SARA,MARAGNI,9099306360,ONTARIO-MONTCLAIR SCHOOL DISTRICT,2019-06-03T04:00:00.000Z,2019-07-26T04:00:00.000Z,"M,T,W,TH,F",,,11:30 AM - 1:30 PM,,,,,7,U,US,9542,,2019,San Bernardino
-117.3485689,33.97300232,93268,RIVERSIDE EASTSIDE PUBLIC LIBRARY,Open,"4033-C CHICAGO AVE RIVERSIDE, CA 92507",,RIVERSIDE,CA,92507,9513526740,82805,ADLEIT,ASI,9513526740,RIVERSIDE UNIFIED SCHOOL DISTRICT,2019-06-03T04:00:00.000Z,2019-08-02T04:00:00.000Z,"M,T,W,TH,F",,,12:00 PM - 1:30 PM,,,,,7,U,US,130042,,2019,Riverside
-119.0448751,35.89162344,93269,DUCOR SCHOOL,Open,"23761 AVENUE 56 DUCOR, CA 93218",,DUCOR,CA,93218,5597827062,4861,CLINT,LARA,5597827062,PORTERVILLE UNIFIED SCHOOL DISTRICT,2019-06-10T04:00:00.000Z,2019-06-28T04:00:00.000Z,"M,T,W,TH,F",,8:00 AM - 9:00 AM,11:00 AM - 12:00 PM,,,,,7,U,US,22867,,2019,Tulare
-121.8284602,37.36551731,93270,DR ROBERTO CRUZ - ALUM ROCK BRANCH LIBRARY,Open,"3090 ALUM ROCK AVE SAN JOSE, CA 95127",,SAN JOSE,CA,95127,4089290131,,KYLE,BURNETT,4089290131,YMCA OF SILICON VALLEY,2019-06-10T04:00:00.000Z,2019-08-09T04:00:00.000Z,"M,T,W,TH,F",,,12:00 PM - 1:00 PM,,,,,7,U,US,4151,,2019,Santa Clara
-121.6578594,36.70033285,93271,KAMMANN,Open,"521 ROCHEX AVE. SALINAS, CA 93906",,SALINAS,CA,93906,8317535618,,CARLOS,MURTA,8317535618,SALINAS CITY ELEMENTARY SCHOOL DISTRICT,2019-06-10T04:00:00.000Z,2019-07-26T04:00:00.000Z,"M,T,W,TH,F",,,12:00 PM - 12:30 PM,,,,,7,U,US,5093,,2019,Monterey
-116.1867095,33.6709137,93272,COACHELLA COMMUNITY HOMES,Open,"84720 AVE. 52 COACHELLA, CA 92236",,COACHELLA,CA,92236,7608481078,,MARCUS,ALONZO,7608481078,COACHELLA VALLEY UNIFIED SCHOOL DISTRICT,2019-06-10T04:00:00.000Z,2019-06-28T04:00:00.000Z,"M,T,W,TH,F",,9:00 AM - 9:30 AM,12:00 PM - 12:30 PM,,,,,7,U,US,22760,,2019,Riverside
-118.2644539,34.0639862,93273,UNIDAD PARK,Open,"1644 BEVERLY BLVD LOS ANGELES, CA 90026",,LOS ANGELES,CA,90026,2138474970,,GUS,SEDANO,2138474970,"LOS ANGELES, CITY OF DEPT OF REC & PARKS",2019-06-18T04:00:00.000Z,2019-08-09T04:00:00.000Z,"T,W",,,12:00 PM - 12:30 PM,,,,,7,U,US,24185,,2019,Los Angeles
-121.4391195,38.501289,93274,MUTUAL HOUSING AT SKY PARK,Open,"5500 SKY PARKWAY SACRAMENTO, CA 95823",,SACRAMENTO,CA,95823,9166867735,78081,MICHELLE,DRAKE,9166867735,ELK GROVE UNIFIED SCHOOL DISTRICT,2019-06-17T04:00:00.000Z,2019-08-09T04:00:00.000Z,"M,T,W,TH,F",,,12:00 PM - 1:00 PM,,,,,7,U,US,53834,,2019,Sacramento
-120.3846616,36.74924452,93276,MENDOTA LIBRARY,Open,"1246 BELMONT AVE. MENDOTA, CA 93640",,MENDOTA,CA,93640,5596009291,,SONIA,BAUTISTA,5596009291,FRESNO COUNTY ECONOMIC OPPORTUNITIES COMMISSION,2019-06-07T04:00:00.000Z,2019-08-08T04:00:00.000Z,"M,T,W,TH",,,12:00 PM - 1:00 PM,,,,,7,U,US,37327,,2019,Fresno
-119.3154935,36.62444012,93277,ORANGE COVE LIBRARY,Open,"815 PARK BLVD. ORANGE COVE, CA 93646",,ORANGE COVE,CA,93646,5596009292,,WENDY,KLEMIN,5596009292,FRESNO COUNTY ECONOMIC OPPORTUNITIES COMMISSION,2019-06-10T04:00:00.000Z,2019-08-09T04:00:00.000Z,"M,T,W,TH,F",,,1:00 PM - 2:00 PM,,,,,7,U,US,101063,,2019,Fresno
-119.4442369,36.58630491,93278,REEDLEY FAMILY APARTMENTS,Open,"1110 SOUTH I STREET REEDLEY, CA 93654",,REEDLEY,CA,93654,5596384591,,JULIA,HERINGER,5596384591,FRESNO COUNTY ECONOMIC OPPORTUNITIES COMMISSION,2019-06-10T04:00:00.000Z,2019-08-09T04:00:00.000Z,"M,T,W,TH,F",,,12:00 PM - 1:00 PM,,,,,7,U,US,38345,,2019,Fresno
-119.619351,36.55645145,93279,VALLEY VIEW VILLAGE,Open,"2446 MAGNOLIA STREET SELMA, CA 93662",,SELMA,CA,93662,5598917544,,LINDA,TORRES,5598917544,FRESNO COUNTY ECONOMIC OPPORTUNITIES COMMISSION,2019-06-06T04:00:00.000Z,2019-08-12T04:00:00.000Z,"M,T,W,TH,F",,,,,,3:00 PM - 4:00 PM,,7,U,US,39567,,2019,Fresno
-119.2940444,36.33189353,93280,VISALIA BRANCH LIBRARY,Open,"200 WEST OAK AVENUE VISALIA, CA 93291",,VISALIA,CA,93291,5597132731,,RUTH,TOLMACHOFF,5597132731,FRESNO COUNTY ECONOMIC OPPORTUNITIES COMMISSION,2019-06-11T04:00:00.000Z,2019-08-09T04:00:00.000Z,"T,W,TH,F",,,12:30 PM - 1:30 PM,,,,,7,U,US,84193,,2019,Tulare
-118.2566243,34.02606627,93281,ALL PEOPLES COMMUNITY CENTER,Open,"822 E. 20TH STREET LOS ANGELES, CA 90011",,LOS ANGELES,CA,90011,2137476357,137,DEISY,HUERTA,2137476357,"J-TECH INSTITUTE, INC",2019-06-10T04:00:00.000Z,2019-08-19T04:00:00.000Z,"M,T,W,TH,F",,,,,3:30 PM - 4:00 PM,,,7,U,US,63285,,2019,Los Angeles
-120.9924637,37.61217949,93283,SHACKELFORD ELEMENTARY,Open,"100 SCHOOL AVE. MODESTO, CA 95351",,MODESTO,CA,95351,2095741619,,MELISSA,MACHUCA-ZEOLI,2095741619,MODESTO CITY ELEMENTARY SCHOOL DISTRICT,2019-06-04T04:00:00.000Z,2019-08-02T04:00:00.000Z,"M,T,W,TH,F",,,12:50 PM - 1:10 PM,,,,,7,U,US,6615,,2019,Stanislaus
-122.2741036,37.77133252,93286,ALAMEDA RECREATION AND PARKS WASHINGTON PARK,Open,"740 CENTRAL AVENUE ALAMEDA, CA 94501",,ALAMEDA,CA,94501,5103377079,,JAMES,ASSIA,5103377079,ALAMEDA UNIFIED SCHOOL DISTRICT,2019-06-24T04:00:00.000Z,2019-08-09T04:00:00.000Z,"M,T,W,TH,F",,,12:00 PM - 1:00 PM,,,,,7,U,US,57264,,2019,Alameda
-118.0742632,33.84594451,93287,ARTESIA HIGH,Open,"12108 EAST DEL AMO BLVD. LAKEWOOD, CA 90715",,LAKEWOOD,CA,90715,5629265566,21275,MAUREEN,CONKLIN,5629265566,ABC UNIFIED SCHOOL DISTRICT,2019-06-17T04:00:00.000Z,2019-07-23T04:00:00.000Z,"M,T,W,TH,F",,9:45 AM - 10:35 AM,,,,,,7,U,US,33926,,2019,Los Angeles
-116.1830025,33.67454451,93288,NEW LIFE CHURCH VBS,Open,"84947 BAGDAD AVENUE COACHELLA, CA 92236",,COACHELLA,CA,92236,7607718559,,DANIEL,CAPPELLO,7607718559,DESERT SANDS UNIFIED SCHOOL DISTRICT,2019-06-24T04:00:00.000Z,2019-06-28T04:00:00.000Z,"M,T,W,TH,F",,,,,,5:30 PM - 6:00 PM,,7,U,US,121716,,2019,Riverside
-117.8644711,33.74446822,93292,ADVANCED LEARNING ACADEMY,Open,"335 EAST WALNUT AVE. SANTA ANA, CA 92701",,SANTA ANA,CA,92701,7144311900,,LISA,GAXIOLA,7144311900,SANTA ANA UNIFIED SCHOOL DISTRICT,2019-06-04T04:00:00.000Z,2019-07-11T04:00:00.000Z,"M,T,W,TH,F",,7:30 AM - 8:30 AM,11:00 AM - 12:00 PM,,,,,7,U,US,92746,,2019,Orange
-121.76777,36.94619286,93293,AMESTI ELEMENTARY,Open,"25 AMESTI RD. WATSONVILLE, CA 95076",,WATSONVILLE,CA,95076,8317862100,2633,LINDA,LIU,8317862100,PAJARO VALLEY UNIFIED SCHOOL DISTRICT,2019-06-17T04:00:00.000Z,2019-07-12T04:00:00.000Z,"M,T,W,TH,F",,7:00 AM - 7:30 AM,10:30 AM - 11:00 AM,,,,,7,U,US,132424,,2019,Santa Cruz
-118.3089879,33.92051319,93294,ANIMO WESTERN CHARTER MIDDLE,Open,"12226 SOUTH WESTERN AVE. LOS ANGELES, CA 90047",,LOS ANGELES,CA,90047,2137039179,,DARREN,ALEXANDER,2137039179,GREEN DOT PUBLIC SCHOOLS,2019-07-08T04:00:00.000Z,2019-07-26T04:00:00.000Z,"M,T,W,TH,F",,7:00 AM - 8:00 AM,11:00 AM - 12:00 PM,,,,,7,U,US,92771,,2019,Los Angeles
-116.8702067,33.93142112,93295,FLORIDA STREET DISCOVERY CENTER,Open,"671 NORTH FLORIDA ST. BANNING, CA 92220",,BANNING,CA,92220,9519220217,,KAREN,SANCHEZ-WRIGHT,9519220217,BANNING UNIFIED SCHOOL DISTRICT,2019-06-03T04:00:00.000Z,2019-08-02T04:00:00.000Z,"M,T,W,TH,F",,8:00 AM - 8:30 AM,11:30 AM - 12:00 PM,,,,,7,U,US,4398,,2019,Riverside
-121.8063783,36.97594644,93296,BRADLEY ELEMENTARY,Open,"321 CORRALITOS RD. WATSONVILLE, CA 95076",,WATSONVILLE,CA,95076,8317862100,2633,LINDA,LIU,8317862100,PAJARO VALLEY UNIFIED SCHOOL DISTRICT,2019-06-17T04:00:00.000Z,2019-07-12T04:00:00.000Z,"M,T,W,TH,F",,7:30 AM - 8:00 AM,10:30 AM - 11:00 AM,,,,,7,U,US,41621,,2019,Santa Cruz
-121.7520659,36.91903853,93297,E. A. HALL MIDDLE,Open,"201 BREWINGTON AVE. WATSONVILLE, CA 95076",,WATSONVILLE,CA,95076,8317862100,2633,LINDA,LIU,8317862100,PAJARO VALLEY UNIFIED SCHOOL DISTRICT,2019-06-17T04:00:00.000Z,2019-07-12T04:00:00.000Z,"M,T,W,TH,F",,7:30 AM - 8:00 AM,10:30 AM - 11:00 AM,,,,,7,U,US,90463,,2019,Santa Cruz
-121.7693755,36.92607154,93298,H. A. HYDE ELEMENTARY,Open,"125 ALTA VISTA ST. WATSONVILLE, CA 95076",,WATSONVILLE,CA,95076,8317862100,2633,LINDA,LIU,8317862100,PAJARO VALLEY UNIFIED SCHOOL DISTRICT,2019-06-17T04:00:00.000Z,2019-07-12T04:00:00.000Z,"M,T,W,TH,F",,8:00 AM - 8:30 AM,11:30 AM - 12:00 PM,,,,,7,U,US,111131,,2019,Santa Cruz
-121.7225947,36.86612499,93299,HALL DISTRICT ELEMENTARY,Open,"300 SILL RD. WATSONVILLE, CA 95076",,WATSONVILLE,CA,95076,8317862100,2633,LINDA,LIU,8317862100,PAJARO VALLEY UNIFIED SCHOOL DISTRICT,2019-06-17T04:00:00.000Z,2019-07-12T04:00:00.000Z,"M,T,W,TH,F",,8:00 AM - 8:30 AM,11:30 AM - 12:00 PM,,,,,7,U,US,115033,,2019,Monterey
-121.753836,36.91923015,93300,MINTIE WHITE ELEMENTARY,Open,"515 PALM AVE. WATSONVILLE, CA 95076",,WATSONVILLE,CA,95076,8317862100,2633,LINDA,LIU,8317862100,PAJARO VALLEY UNIFIED SCHOOL DISTRICT,2019-06-17T04:00:00.000Z,2019-07-12T04:00:00.000Z,"M,T,W,TH,F",,7:00 AM - 7:30 AM,10:30 AM - 11:00 AM,,,,,7,U,US,133024,,2019,Santa Cruz
-121.7525642,36.91338647,93301,WATSONVILLE HIGH,Open,"250 EAST BEACH ST. WATSONVILLE, CA 95076",,WATSONVILLE,CA,95076,8317862100,2633,LINDA,LIU,8317862100,PAJARO VALLEY UNIFIED SCHOOL DISTRICT,2019-06-17T04:00:00.000Z,2019-07-23T04:00:00.000Z,"M,T,W,TH,F",,7:30 AM - 8:00 AM,11:30 AM - 12:00 PM,,,,,7,U,US,133371,,2019,Santa Cruz
-117.9859815,33.75927849,93303,PROJECT S.H.U.E. (WESTMINSTER CITY SENIOR CTR.),Open,"8200 WESTMINSTER BLVD WESTMINSTER, CA 92683",,WESTMINSTER,CA,92683,7142091435,,XENIA,ORTEGA,7142091435,"SECOND HARVEST FOOD BANK OF ORANGE COUNTY, INC",2019-06-24T04:00:00.000Z,2019-08-16T04:00:00.000Z,"M,T,W,TH,F",,,12:30 PM - 1:00 PM,,,,,7,U,US,140726,,2019,Orange
-118.2462446,33.943554,93304,OPERATION PROGRESS,Open,"10221 COMPTON AVE SUITE 102 LOS ANGELES, CA 90002",,LOS ANGELES,CA,90002,3239194209,,SASHA,SPEAKMAN,3239194209,"J-TECH INSTITUTE, INC",2019-06-10T04:00:00.000Z,2019-08-19T04:00:00.000Z,"M,T,W,TH,F",,,,,3:00 PM - 3:30 PM,,,7,U,US,83103,,2019,Los Angeles
-121.7541632,36.76290579,93305,CASTROVILLE ELEMENTARY,Open,"11161 MERRITT ST. CASTROVILLE, CA 95012",,CASTROVILLE,CA,95012,8316320290,,SARAH,DOHERTY,8316320290,NORTH MONTEREY COUNTY UNIFIED SCHOOL DISTRICT,2019-06-10T04:00:00.000Z,2019-08-09T04:00:00.000Z,"M,T,W,TH,F",,7:30 AM - 8:00 AM,11:15 AM - 11:45 AM,,,,,7,U,US,3673,,2019,Monterey
-121.7205063,36.79772288,93307,ELKHORN ELEMENTARY,Open,"2235 ELKHORN RD. CASTROVILLE, CA 95012",,CASTROVILLE,CA,95012,8316320290,,SARAH,DOHERTY,8316320290,NORTH MONTEREY COUNTY UNIFIED SCHOOL DISTRICT,2019-06-11T04:00:00.000Z,2019-07-09T04:00:00.000Z,"M,T,W,TH,F",,7:45 AM - 8:15 AM,11:15 AM - 11:45 AM,,,,,7,U,US,4282,,2019,Monterey
-117.0630454,32.75324738,93310,UMI LEARNING CENTER,Open,"6157 UNIVERSITY AVENUE SAN DIEGO, CA 92115",,SAN DIEGO,CA,92115,6193096362,,MOHAMED,ALMAKAWI,6193096362,HEAVEN'S WINDOWS,2019-06-11T04:00:00.000Z,2019-08-28T04:00:00.000Z,"S,M,T,W,SA",,,1:30 PM - 2:30 PM,,5:30 PM - 6:00 PM,,,7,U,US,65266,,2019,San Diego
-118.0083757,33.82772798,93311,DANBROOK ELEMENTARY,Open,"320 DANBROOK ST. ANAHEIM, CA 92804",,ANAHEIM,CA,92804,7142283134,,PAUL,NGO,7142283134,CENTRALIA ELEMENTARY SCHOOL DISTRICT,2019-06-03T04:00:00.000Z,2019-07-26T04:00:00.000Z,"M,T,W,TH,F",,,11:00 AM - 12:00 PM,,,,,7,U,US,4039,,2019,Orange
-118.005661,33.84657249,93312,WALTER KNOTT ELEMENTARY,Open,"7300 LA PALMA AVE. BUENA PARK, CA 90620",,BUENA PARK,CA,90620,7142283134,,PAUL,NGO,7142283134,CENTRALIA ELEMENTARY SCHOOL DISTRICT,2019-06-03T04:00:00.000Z,2019-07-26T04:00:00.000Z,"M,T,W,TH,F",,8:00 AM - 8:30 AM,11:00 AM - 12:00 PM,,,,,7,U,US,7245,,2019,Orange
-118.0263942,33.83680039,93314,SAN MARINO ELEMENTARY,Open,"6215 SAN ROLANDO WAY BUENA PARK, CA 90620",,BUENA PARK,CA,90620,7142283134,,PAUL,NGO,7142283134,CENTRALIA ELEMENTARY SCHOOL DISTRICT,2019-06-03T04:00:00.000Z,2019-07-26T04:00:00.000Z,"M,T,W,TH,F",,,11:00 AM - 12:00 PM,,,,,7,U,US,130075,,2019,Orange
-117.9049894,34.13409787,93317,AZUSA CITY LIBRARY,Open,"729 NORTH DALTON AVENUE AZUSA, CA 91702",,AZUSA,CA,91702,6267328057,4338,ADRIANNE,GARZA,6267328057,AZUSA UNIFIED SCHOOL DISTRICT,2019-06-10T04:00:00.000Z,2019-07-26T04:00:00.000Z,"M,T,W,TH,F",,,11:30 AM - 12:30 PM,,,,,7,U,US,3129,,2019,Los Angeles
-121.8123898,38.00494651,93318,ANTIOCH LIBRARY,Open,"501 W 18TH ST ANTIOCH, CA 94509",,ANTIOCH,CA,94509,9257797600,13397,CARRIE,DOWNEY,9257797600,ANTIOCH UNIFIED SCHOOL DISTRICT,2019-06-10T04:00:00.000Z,2019-07-25T04:00:00.000Z,"M,T,W,TH",,,12:00 PM - 1:00 PM,,,,,7,U,US,22432,,2019,Contra Costa
-121.8865944,37.34978085,93319,JOYCE ELLINGTON - EMPIRE BRANCH,Open,"491 E EMPIRE ST SAN JOSE, CA 95112",,SAN JOSE,CA,95112,4089988054,,TOMIKA,PRICE,4089988054,YMCA OF SILICON VALLEY,2019-06-10T04:00:00.000Z,2019-08-09T04:00:00.000Z,"M,T,W,TH,F",,,12:00 PM - 1:00 PM,,,,,7,U,US,5073,,2019,Santa Clara
-121.8582296,37.36578339,93320,EDUCATIONAL PARK LIBRARY,Open,"1772 EDUCATIONAL PARK DR SAN JOSE, CA 95133",,SAN JOSE,CA,95133,4089371861,,MARK,GIANNUZZI,4089371861,YMCA OF SILICON VALLEY,2019-06-10T04:00:00.000Z,2019-08-09T04:00:00.000Z,"M,T,W,TH,F",,,12:00 PM - 1:00 PM,,,,,7,U,US,4251,,2019,Santa Clara
-117.9721437,33.78845651,93321,CHAPMAN LIBRARY AT GARDEN GROVE,Open,"9182 CHAPMAN AVE GARDEN GROVE, CA 92841",,GARDEN GROVE,CA,92841,7146636155,,LEO,BAS,7146636155,GARDEN GROVE UNIFIED SCHOOL DISTRICT,2019-06-17T04:00:00.000Z,2019-07-25T04:00:00.000Z,"M,T,W,TH",,,12:00 PM - 1:00 PM,,,,,7,U,US,3735,,2019,Orange
-117.9033249,33.7960562,93322,PONDEROSA PARK FAMILY RESOURCE CENTER,Open,"320 E ORANGEWOOD AVE. ANAHEIM, CA 92802",,ANAHEIM,CA,92802,7147655404,,NUBIA,MACIAS,7147655404,"SECOND HARVEST FOOD BANK OF ORANGE COUNTY, INC",2019-07-01T04:00:00.000Z,2019-08-07T04:00:00.000Z,"M,T,W,TH,F",,,2:00 PM - 2:30 PM,,,,,7,U,US,119338,,2019,Orange
-117.878013,33.85359953,93323,MIRALOMA PARK FAMILY RESOURCE CENTER,Open,"2600 E. MIRALOMA WAY ANAHEIM, CA 92806",,ANAHEIM,CA,92806,7147656494,,JAIME,GARCIA,7147656494,"SECOND HARVEST FOOD BANK OF ORANGE COUNTY, INC",2019-06-14T04:00:00.000Z,2019-08-27T04:00:00.000Z,"M,T,W,TH,F",,,3:00 PM - 3:30 PM,,6:00 PM - 6:30 PM,,,7,U,US,29449,,2019,Orange
-117.0649269,34.026984,93324,7TH STREET PARK,Open,"12385 7TH ST. YUCAIPA, CA 92399",,YUCAIPA,CA,92399,9097970174,5857,ANN,VAN DAMME,9097970174,YUCAIPA-CALIMESA JOINT UNIFIED SCHOOL DISTRICT,2019-06-10T04:00:00.000Z,2019-07-26T04:00:00.000Z,"M,T,W,TH,F",,,11:45 AM - 12:15 PM,,,,,7,U,US,2915,,2019,San Bernardino
-117.043104,34.048482,93325,YUCAIPA COMMUNITY PARK,Open,"34900 OAK GLEN RD. YUCAIPA, CA 92399",,YUCAIPA,CA,92399,9097970174,5857,ANN,VAN DAMME,9097970174,YUCAIPA-CALIMESA JOINT UNIFIED SCHOOL DISTRICT,2019-06-10T04:00:00.000Z,2019-07-26T04:00:00.000Z,"M,T,W,TH,F",,,12:45 PM - 1:15 PM,,,,,7,U,US,7554,,2019,San Bernardino
-116.9792116,33.743909,93326,RIVER SPRINGS CHARTER - HEMET ACACIA-ANNEX,Open,"790 WEST ACACIA AVENUE HEMET, CA 92544",,HEMET,CA,92544,7602088306,,HOLLY,HUNGERFORD COCKING,7602088306,"RIVER SPRINGS CHARTER SCHOOL, INC.",2019-06-17T04:00:00.000Z,2019-08-14T04:00:00.000Z,"M,T,W,TH,F",,,11:30 AM - 12:30 PM,,3:00 PM - 3:30 PM,,,7,U,US,130038,,2019,Riverside
-121.4169996,36.85334442,93327,SAN BENITO HEALTH FOUNDATION,Open,"351 FELICE DRIVE HOLLISTER, CA 95023",,HOLLISTER,CA,95023,8316306387,,ANN,PENNINGTON,8316306387,HOLLISTER SCHOOL DISTRICT,2019-06-10T04:00:00.000Z,2019-07-26T04:00:00.000Z,"M,T,W,TH,F,SA",,,10:30 AM - 1:00 PM,,,,,7,U,US,23927,,2019,San Benito
-121.4057294,36.85045255,93328,DUNN PARK-RECREATION IN THE PARK,Open,"600 WEST STREET HOLLISTER, CA 95023",,HOLLISTER,CA,95023,8316306387,,ANN,PENNINGTON,8316306387,HOLLISTER SCHOOL DISTRICT,2019-06-10T04:00:00.000Z,2019-07-26T04:00:00.000Z,"M,T,W,TH,F,SA",,,10:45 AM - 12:00 PM,,,,,7,U,US,22871,,2019,San Benito
-116.9195225,32.80012598,93329,JF KENNEDY PARK,Open,"1675 MADISON AVE EL CAJON, CA 92020",,EL CAJON,CA,92020,6195883111,,MARK,MENDOZA,6195883111,CAJON VALLEY UNION SCHOOL DISTRICT,2019-06-24T04:00:00.000Z,2019-08-02T04:00:00.000Z,"M,T,W,TH,F",,8:00 AM - 8:30 AM,12:00 PM - 1:00 PM,,,,,7,U,US,100708,,2019,San Diego
-122.5139341,37.96957737,93330,SAN RAFAEL HIGH SCHOOL,Open,"150 THIRD STREET SAN RAFAEL, CA 94901",,SAN RAFAEL,CA,94901,4154916499,,ALAN,DOWNING,4154916499,SAN RAFAEL CITY ELEMENTARY SCHOOL DISTRICT,2019-06-17T04:00:00.000Z,2019-08-01T04:00:00.000Z,"M,T,W,TH,F",,,10:10 AM - 10:40 AM,,,,,7,U,US,140904,,2019,Marin
-117.2716945,34.10657019,93331,CENTER FOR INDIVIDUAL DEVELOPMENT,Open,"8088 PALM LANE SAN BERNARDINO, CA 92410",,SAN BERNARDINO,CA,92410,9098818000,,MARK,HOKANSON,9098818000,SAN BERNARDINO CITY UNIFIED SCHOOL DISTRICT,2019-06-07T04:00:00.000Z,2019-08-02T04:00:00.000Z,"M,T,W,TH,F",,,12:00 PM - 1:00 PM,,,,,7,U,US,10781,,2019,San Bernardino
-121.480956,38.491209,93333,MARTIN LUTHER KING PUBLIC LIBRARY,Open,"7340 24TH STREET SACRAMENTO, CA 95822",,SACRAMENTO,CA,95822,9166867735,78081,MICHELLE,DRAKE,9166867735,ELK GROVE UNIFIED SCHOOL DISTRICT,2019-06-10T04:00:00.000Z,2019-08-03T04:00:00.000Z,"M,T,W,TH,F,SA",,,12:00 PM - 1:30 PM,,,,,7,U,US,53411,,2019,Sacramento
-117.2273625,33.7823395,93334,ROTARY PARK,Open,"155 E 4TH STREET PERRIS, CA 92570",,PERRIS,CA,92570,9519436369,80241,AUDREY,MITCHELL,9519436369,PERRIS UNION HIGH SCHOOL DISTRICT,2019-06-17T04:00:00.000Z,2019-07-19T04:00:00.000Z,"M,T,W,TH,F",,,11:00 AM - 12:00 PM,,,,,7,U,US,93912,,2019,Riverside
-121.758609,36.77153206,93335,NORTH MONTEREY COUNTY MIDDLE SCHOOL,Open,"10301 SEYMOUR STREEET CASTROVILLE, CA 95012",,CASTROVILLE,CA,95012,8316320290,,SARAH,DOHERTY,8316320290,NORTH MONTEREY COUNTY UNIFIED SCHOOL DISTRICT,2019-06-10T04:00:00.000Z,2019-07-19T04:00:00.000Z,"M,T,W,TH,F",,8:00 AM - 8:30 AM,11:00 AM - 11:30 AM,,,,,7,U,US,5901,,2019,Monterey
-118.1396203,34.69822057,93336,LANCASTER LIBRARY,Open,"601 WEST LANCASTER BLVD LANCASTER, CA 93534",,LANCASTER,CA,93534,6619485029,,JADON,KNIGHT,6619485029,LOS ANGELES COUNTY DEPT OF PARKS & RECREATION,2019-06-10T04:00:00.000Z,2019-08-02T04:00:00.000Z,"M,T,W,TH,F",,,12:00 PM - 1:00 PM,,,,,7,U,US,23354,,2019,Los Angeles
-118.2190879,33.98033784,93337,HUNGTINGTON PARK LIBRARY,Open,"6518 MILES AVE HUNTINGTON PARK, CA 90255",,HUNTINGTON PARK,CA,90255,3235831461,,CATHERINE,BUENO-GRANADOS,3235831461,LOS ANGELES COUNTY DEPT OF PARKS & RECREATION,2019-06-10T04:00:00.000Z,2019-08-02T04:00:00.000Z,"M,T,W,TH,F",,,12:00 PM - 1:00 PM,,,,,7,U,US,23214,,2019,Los Angeles
-117.9507165,34.01944165,93338,LA PUENTE LIBRARY,Open,"15920 E. CENTRAL AVE LA PUENTE, CA 91744",,LA PUENTE,CA,91744,6269684613,,JEANETTE,FREELS,6269684613,LOS ANGELES COUNTY DEPT OF PARKS & RECREATION,2019-06-10T04:00:00.000Z,2019-08-02T04:00:00.000Z,"M,T,W,TH,F",,,12:00 PM - 1:00 PM,,,,,7,U,US,23339,,2019,Los Angeles
-118.4385496,34.28533061,93339,SAN FERNANDO LIBRARY,Open,"217 N. MACLAY AVE. SAN FERNANDO, CA 91340",,SAN FERNANDO,CA,91340,8183656928,,LIANA,STEPANYAN,8183656928,LOS ANGELES COUNTY DEPT OF PARKS & RECREATION,2019-06-10T04:00:00.000Z,2019-08-02T04:00:00.000Z,"M,T,W,TH,F",,,12:00 PM - 1:00 PM,,,,,7,U,US,23928,,2019,Los Angeles
-118.2915574,33.98464244,93340,PEACEFUL WALLS MISSIONARY BAPTIST CHURCH,Open,"6059 S VERMONT AVE LOS ANGELES, CA 90044",,LOS ANGELES,CA,90044,3105289701,,TERRY,GIPSON-HILL,3105289701,CHRIST FIRST BAPTIST MISSIONARY BAPTIST CHURCH,2019-06-10T04:00:00.000Z,2019-08-16T04:00:00.000Z,"M,T,W,TH,F",,9:00 AM - 10:00 AM,12:00 PM - 2:00 PM,,,,,7,U,US,23731,,2019,Los Angeles
-120.4515529,36.85824872,93341,FIREBAUGH COMMUNITY CENTER AND PARK,Open,"1655 13TH STREET FIREBAUGH, CA 93622",,FIREBAUGH,CA,93622,5596591476,4401,DEBBY,ANDERSON,5596591476,FIREBAUGH-LAS DELTAS UNIFIED SCHOOL DISTRICT,2019-06-24T04:00:00.000Z,2019-08-09T04:00:00.000Z,"M,T,W,TH,F",,,12:00 PM - 12:30 PM,,,,,7,U,US,22972,,2019,Fresno
-117.9078435,33.6728835,93342,GIRLS INC. EUREKA! - ORANGE COAST COLLEGE,Open,"2701 FAIRVIEW ROAD COSTA MESA, CA 92626",,COSTA MESA,CA,92626,7145047483,,SASHA,MORALES,7145047483,"SECOND HARVEST FOOD BANK OF ORANGE COUNTY, INC",2019-07-08T04:00:00.000Z,2019-08-01T04:00:00.000Z,"M,T,W,TH",,,11:30 AM - 12:30 PM,,3:30 PM - 3:50 PM,,,7,U,US,27763,,2019,Orange
-121.4259501,38.22405633,93344,MOKELUMNE MANOR,Open,"26188 N MANOR DR THORNTON, CA 95686",,THORNTON,CA,95686,2097444545,320,NICK,SVOBODA,2097444545,GALT JOINT UNION ELEMENTARY SCHOOL DISTRICT,2019-06-18T04:00:00.000Z,2019-07-11T04:00:00.000Z,"T,W,TH",,,12:00 PM - 1:00 PM,,,,,7,U,US,140282,,2019,San Joaquin
-117.4473682,33.92122487,93345,ARLINGTON PARK,Open,"3860 VAN BUREN BLVD RIVERSIDE, CA 92503",,RIVERSIDE,CA,92503,9513526740,82805,ADLEIT,ASI,9513526740,RIVERSIDE UNIFIED SCHOOL DISTRICT,2019-06-03T04:00:00.000Z,2019-08-02T04:00:00.000Z,"M,T,W,TH,F",,,11:30 AM - 1:00 PM,,,,,7,U,US,129139,,2019,Riverside
-117.4192856,33.94025318,93346,DON JONES PARK,Open,"3995 JEFFERSON ST RIVERSIDE, CA 92504",,RIVERSIDE,CA,92504,9513526740,82805,ADLEIT,ASI,9513526740,RIVERSIDE UNIFIED SCHOOL DISTRICT,2019-06-03T04:00:00.000Z,2019-08-02T04:00:00.000Z,"M,T,W,TH,F",,,11:00 AM - 12:30 PM,,,,,7,U,US,129374,,2019,Riverside
-117.4450756,33.93171569,93347,DON LORENZI PARK,Open,"4230 JACKSON ST RIVERSIDE, CA 92503",,RIVERSIDE,CA,92503,9513526740,82805,ADLEIT,ASI,9513526740,RIVERSIDE UNIFIED SCHOOL DISTRICT,2019-06-03T04:00:00.000Z,2019-08-02T04:00:00.000Z,"M,T,W,TH,F",,,11:00 AM - 12:30 PM,,,,,7,U,US,129375,,2019,Riverside
-119.1917302,34.19912813,93348,OXNARD PAL,Open,"350 S. K STREET OXNARD, CA 93030",,OXNARD,CA,93030,8053858230,,SUSAN,MARQUEZ,8053858230,HUENEME ELEMENTARY SCHOOL DISTRICT,2019-06-24T04:00:00.000Z,2019-08-16T04:00:00.000Z,"M,T,W,TH,F",,,11:00 AM - 1:00 PM,,,,,7,U,US,140498,,2019,Ventura
-119.1663405,34.20449022,93349,LA COLONIA RECREATION CENTER,Open,"5195 N MARQUITA OXNARD, CA 93030",,OXNARD,CA,93030,8053858230,,SUSAN,MARQUEZ,8053858230,HUENEME ELEMENTARY SCHOOL DISTRICT,2019-07-08T04:00:00.000Z,2019-08-16T04:00:00.000Z,"M,T,W,TH,F",,,11:00 AM - 12:30 PM,,,,,7,U,US,136979,,2019,Ventura
-117.3864501,33.93330859,93350,WASHINGTON PARK,Open,"2769 MARY ST RIVERSIDE, CA 92506",,RIVERSIDE,CA,92506,9513526740,82805,ADLEIT,ASI,9513526740,RIVERSIDE UNIFIED SCHOOL DISTRICT,2019-06-03T04:00:00.000Z,2019-08-02T04:00:00.000Z,"M,T,W,TH,F",,,11:30 AM - 1:00 PM,,,,,7,U,US,130336,,2019,Riverside
-121.692004,38.156265,93351,RIO VISTA LIBRARY,Open,"44 SO. 2ND STREET RIO VISTA, CA 94571",,RIO VISTA,CA,94571,7075741700,,ELIZABETH,KEEM-ASTON,7075741700,RIVER DELTA JOINT UNIFIED SCHOOL DISTRICT,2019-06-10T04:00:00.000Z,2019-07-31T04:00:00.000Z,"M,T,W,TH,F",,,12:00 PM - 12:30 PM,,,,,7,U,US,130036,,2019,Solano
-121.2693075,38.13608475,93352,HALE PARK,Open,"165 NORTH STOCKTON STREET LODI, CA 95240",,LODI,CA,95240,2093317155,,NANCY,ROSTOMILY,2093317155,LODI UNIFIED SCHOOL DISTRICT,2019-06-03T04:00:00.000Z,2019-07-26T04:00:00.000Z,"M,T,W,TH,F",,,11:15 AM - 12:00 PM,,,,,7,U,US,100571,,2019,San Joaquin
-121.3641964,38.03515905,93353,EMERALD POINTE TOWNHOMES,Open,"9537 KELLEY DRIVE STOCKTON, CA 95209",,STOCKTON,CA,95209,2093317155,,NANCY,ROSTOMILY,2093317155,LODI UNIFIED SCHOOL DISTRICT,2019-06-03T04:00:00.000Z,2019-07-19T04:00:00.000Z,"M,T,W,TH,F",,,11:30 AM - 12:00 PM,,,,,7,U,US,11006,,2019,San Joaquin
-118.2710834,33.93831545,93354,PENUEL MISSIONARY BAPTIST CHURCH,Open,"215 E 108TH ST LOS ANGELES, CA 90061",,LOS ANGELES,CA,90061,2135078840,,DELORIS,JORDAN,2135078840,CHRIST FIRST BAPTIST MISSIONARY BAPTIST CHURCH,2019-06-10T04:00:00.000Z,2019-08-16T04:00:00.000Z,"M,T,W,TH,F",,9:00 AM - 10:00 AM,12:00 PM - 2:00 PM,,,,,7,U,US,23740,,2019,Los Angeles
-119.0399861,35.95967643,93355,TERRA BELLA ELELMENTARY SCHOOL,Open,"9364 ROAD 238 TERRA BELLA, CA 93270",,TERRA BELLA,CA,93270,5597827062,4861,CLINT,LARA,5597827062,PORTERVILLE UNIFIED SCHOOL DISTRICT,2019-06-10T04:00:00.000Z,2019-06-28T04:00:00.000Z,"M,T,W,TH,F",,7:30 AM - 8:30 AM,12:00 PM - 1:00 PM,,,,,7,U,US,122281,,2019,Tulare
-119.0170496,36.07130828,93356,PORTERVILLE PUBLIC LIBRARY,Open,"41 W. THURMAN AVE. PORTERVILLE, CA 93257",,PORTERVILLE,CA,93257,5597827062,4861,CLINT,LARA,5597827062,PORTERVILLE UNIFIED SCHOOL DISTRICT,2019-06-03T04:00:00.000Z,2019-08-03T04:00:00.000Z,"M,T,W,TH,F",,,11:00 AM - 12:00 PM,,,,,7,U,US,104975,,2019,Tulare
-118.7861034,35.2383965,93358,DI GIORGIO SCHOOL,Open,"19405 BUENA VISTA BLVD ARVIN, CA 93203",,ARVIN,CA,93203,6618525930,,RAFAEL,JUAREZ,6618525930,KERN CO SUPT OF SCHOOLS,2019-06-04T04:00:00.000Z,2019-07-05T04:00:00.000Z,"M,T,W,TH,F",,8:00 AM - 8:30 AM,11:30 AM - 12:30 PM,,,,,7,U,US,136443,,2019,Kern
-120.8772123,37.053135,93360,CREEKSIDE JUNIOR HIGH,Open,"1401 PRAIRIE SPRINGS DR. LOS BANOS, CA 93635",,LOS BANOS,CA,93635,2098263077,,STEVEN,BAUGHMAN,2098263077,LOS BANOS UNIFIED SCHOOL DISTRICT,2019-06-10T04:00:00.000Z,2019-06-28T04:00:00.000Z,"M,T,W,TH,F",,7:30 AM - 11:00 AM,,,,,,7,U,US,100334,,2019,Merced
-118.3519831,33.96094239,93362,GENERATION X GROUP,Open,"241 S. MARKET STREET INGLEWOOD, CA 90301",,INGLEWOOD,CA,90301,3104245855,,PHIL,MORRIS,3104245855,"J-TECH INSTITUTE, INC",2019-06-10T04:00:00.000Z,2019-08-19T04:00:00.000Z,"M,T,W,TH,F",,,12:30 PM - 1:00 PM,,4:30 PM - 5:00 PM,,,7,U,US,43475,,2019,Los Angeles
