long,lat,objectID,siteName,siteStatus,siteAddress,siteAddress2,siteCity,siteState,siteZip,sitePhone,ext,contactFirstName,contactLastName,contactPhone,sponsoringOrganization,startDate,endDate,daysofOperation,comments,breakfastTime,lunchTime,snackTimeAM,snackTimePM,dinnerSupperTime,mealTypesServed,cycleNumber,recordStatus,country,fnsid,created,season,county
-86.068674,39.81105652,41901,Jewel Christian Academy,Open,"5750 E 30th Street Indianapolis, IN 46218",,Indianapolis,IN,46218,,,,,,Jewel Educational Services,2019-06-10T04:00:00.000Z,2019-08-02T04:00:00.000Z,"M, T, W, R, F",,07:00 AM to 08:00 AM,10:50 AM to 12:50 PM,,,,"B, L",1,N,US,28485,,2019,Marion
-86.69626254,41.48192442,41902,Kingsford Heights Elementary,Open,"460 Evanston Road Kingsford Heights, IN 46346",,Kingsford Heights,IN,46346,,,,,,La Porte Community School Corp,2019-06-10T04:00:00.000Z,2019-07-25T04:00:00.000Z,"M, T, W, R, F",,,11:30 AM to 12:00 PM,,,,L,1,N,US,9046,,2019,LaPorte
-87.50898786,41.60725019,41903,Hammond Boys & Girls Club,Open,"5840 Calumet Ave Hammond, IN 46320",,Hammond,IN,46320,,,,,,School City of Hammond,2019-06-10T04:00:00.000Z,2019-08-02T04:00:00.000Z,"M, T, W, R, F",,,12:00 PM to 01:30 PM,,,,L,1,N,US,27972,,2019,Lake
-86.270751,41.65038,41904,Walker Field Park,Open,"Walnut at West Ewing South Bend, IN 46615",,South Bend,IN,46615,,,,,,South Bend Community School Corp,2019-06-17T04:00:00.000Z,2019-08-02T04:00:00.000Z,"M, T, W, R, F",,,11:00 AM to 12:00 PM,,,,L,1,N,US,31731,,2019,St. Joseph
-87.51137576,41.58607556,42011,Edison Elementary School,Open,"7025 Madison Hammond, IN 46323",,Hammond,IN,46323,,,,,,School City of Hammond,2019-06-10T04:00:00.000Z,2019-08-02T04:00:00.000Z,"M, T, W, R, F",,08:15 AM to 09:15 AM,11:45 AM to 01:00 PM,,,,"B, L",1,N,US,27243,,2019,Lake
-87.48739404,41.58068567,42012,YMCA,Open,"7322 Southeastern Hammond, IN 46324",,Hammond,IN,46324,,,,,,School City of Hammond,2019-06-10T04:00:00.000Z,2019-08-02T04:00:00.000Z,"M, T, W, R, F",,08:30 AM to 09:30 AM,12:00 PM to 01:00 PM,,,,"B, L",1,N,US,32087,,2019,Lake
-86.3122635,41.66172,42013,Belleville Park,Open,"Lombardy & Meadow Lane South Bend, IN 46619",,South Bend,IN,46619,,,,,,South Bend Community School Corp,2019-06-17T04:00:00.000Z,2019-08-02T04:00:00.000Z,"M, T, W, R, F",,,11:00 AM to 12:00 PM,,,,L,1,N,US,25817,,2019,St. Joseph
-86.244471,41.662557,42014,South East Park,Open,"Fellows & Wenger South Bend, IN 46601",,South Bend,IN,46601,,,,,,South Bend Community School Corp,2019-06-17T04:00:00.000Z,2019-08-02T04:00:00.000Z,"M, T, W, R, F",,,11:20 AM to 12:20 PM,,,,L,1,N,US,30932,,2019,St. Joseph
-86.06337281,39.49001553,42015,Northwood Elementary School,Open,"965 Grizzly Cub Drive Franklin, IN 46131",,Franklin,IN,46131,,,,,,Franklin Community School Corp,2019-06-03T04:00:00.000Z,2019-07-26T04:00:00.000Z,"M, T, W, R, F",,08:15 AM to 09:15 AM,11:15 AM to 01:00 PM,,,,"B, L",1,N,US,29815,,2019,Johnson
-87.2455092,41.57609517,42016,Edison Jr-Sr High School,Open,"3304 Parkside Ave Lake Station, IN 46405",,Lake Station,IN,46405,,,,,,Lake Station Community Schools,2019-06-10T04:00:00.000Z,2019-08-02T04:00:00.000Z,"M, T, W, R, F",,07:45 AM to 08:45 AM,11:15 AM to 01:15 PM,,,,"B, L",1,N,US,27244,,2019,Lake
-86.24889832,39.7431245,42017,Legore Boys & Girls Club,Open,"5228 Minnesota St Indianapolis, IN 46241",,Indianapolis,IN,46241,,,,,,Boys And Girls Clubs of Indianapolis,2018-10-15T04:00:00.000Z,2019-09-30T04:00:00.000Z,"M, T, W, R, F",,,11:30 AM to 01:00 PM,,04:00 PM to 05:00 PM,,"L, A",1,N,US,28866,,2019,Marion
-87.23989598,41.56984969,42018,Riverview Park,Open,"2701 Ripley Street Lake Station, IN 46405",,Lake Station,IN,46405,,,,,,Lake Station Community Schools,2019-06-10T04:00:00.000Z,2019-08-02T04:00:00.000Z,"M, T, W, R, F",,,11:30 AM to 01:00 PM,,,,L,1,N,US,30521,,2019,Lake
-86.2477318,41.63099347,42019,O'Brien Rec. Center,Open,"321 East Walter Street South Bend, IN 46614",,South Bend,IN,46614,,,,,,South Bend Community School Corp,2019-06-17T04:00:00.000Z,2019-08-02T04:00:00.000Z,"M, T, W, R, F",,,12:00 PM to 01:00 PM,,,,L,1,N,US,29873,,2019,St. Joseph
-86.2404842,39.71972277,42020,Troy Manor Apartments,Open,"4562 West Perry Street Indianapolis, IN 46241",,Indianapolis,IN,46241,,,,,,MSD of Decatur Twp,2019-06-03T04:00:00.000Z,2019-07-19T04:00:00.000Z,"M, T, W, R, F",,,11:00 AM to 11:45 AM,,,,L,1,N,US,31518,,2019,Marion
-86.72544967,41.6003484,42021,LaPorte High School,Open,"602 F St. LaPorte, IN 46350",,LaPorte,IN,46350,,,,,,La Porte Community School Corp,2019-06-10T04:00:00.000Z,2019-07-05T04:00:00.000Z,"M, T, W, R, F",,07:30 AM to 08:30 AM,11:30 AM to 12:30 PM,,,,"B, L",1,N,US,9091,,2019,LaPorte
-86.21907537,41.69447522,42022,Boehm Park,Open,"Edison Rd. & Rose St. South Bend, IN 46635",,South Bend,IN,46635,,,,,,South Bend Community School Corp,2019-06-17T04:00:00.000Z,2019-08-02T04:00:00.000Z,"M, T, W, R, F",,,10:55 AM to 11:55 AM,,,,L,1,N,US,25934,,2019,St. Joseph
-87.38944439,39.46398317,42023,Davis Park Elementary School,Open,"310 South 18th Street Terre Haute, IN 47803",,Terre Haute,IN,47803,,,,,,Vigo County School Corp,2019-07-22T04:00:00.000Z,2019-08-02T04:00:00.000Z,"M, T, W, R, F",,08:00 AM to 08:30 AM,11:30 AM to 12:00 PM,,,,"B, L",1,N,US,26975,,2019,Vigo
-87.40979746,39.44655925,42024,Farrington Grove Elementary,Open,"1826 South 6th Street Terre Haute, IN 47802",,Terre Haute,IN,47802,,,,,,Vigo County School Corp,2019-07-22T04:00:00.000Z,2019-08-02T04:00:00.000Z,"M, T, W, R, F",,08:00 AM to 08:30 AM,11:30 AM to 12:00 PM,,,,"B, L",1,N,US,27463,,2019,Vigo
-87.3917573,39.4767155,42025,Franklin Elementary School,Open,"1600 Elm Street Terre Haute, IN 47807",,Terre Haute,IN,47807,,,,,,Vigo County School Corp,2019-07-22T04:00:00.000Z,2019-08-02T04:00:00.000Z,"M, T, W, R, F",,08:00 AM to 08:30 AM,11:30 AM to 12:00 PM,,,,"B, L",1,N,US,27620,,2019,Vigo
-86.29676169,41.68865165,42026,Beacon Heights,Open,"3401 Ardmore Trail South Bend, IN 46619",,South Bend,IN,46619,,,,,,South Bend Community School Corp,2019-06-17T04:00:00.000Z,2019-08-02T04:00:00.000Z,"M, T, W, R, F",,,11:25 AM to 12:25 PM,,,,L,1,N,US,25789,,2019,St. Joseph
-86.24435611,41.6651985,42027,Boys & Girls Club,Open,"502 East Sample ST South Bend, IN 46601",,South Bend,IN,46601,,,,,,South Bend Community School Corp,2019-06-17T04:00:00.000Z,2019-08-02T04:00:00.000Z,"M, T, W, R, F",,08:00 AM to 09:00 AM,11:30 AM to 12:30 PM,,,,"B, L",1,N,US,25984,,2019,St. Joseph
-86.235354,41.685939,42028,Coquillard Park,Open,"Eddy St at Campeau South Bend, IN 46617",,South Bend,IN,46617,,,,,,South Bend Community School Corp,2019-06-17T04:00:00.000Z,2019-08-02T04:00:00.000Z,"M, T, W, R, F",,,11:00 AM to 12:00 PM,,,,L,1,N,US,26789,,2019,St. Joseph
-86.29483176,41.6719385,42029,Harrison School Playgound,Open,"3302 Western Ave South Bend, IN 46619",,South Bend,IN,46619,,,,,,South Bend Community School Corp,2019-06-17T04:00:00.000Z,2019-08-02T04:00:00.000Z,"M, T, W, R, F",,,10:50 AM to 11:50 AM,,,,L,1,N,US,28031,,2019,St. Joseph
-86.29563599,41.67565651,42030,LaSalle Park,Open,"3419 W Washington St South Bend, IN 46619",,South Bend,IN,46619,,,,,,South Bend Community School Corp,2019-06-17T04:00:00.000Z,2019-08-02T04:00:00.000Z,"M, T, W, R, F",,,10:45 AM to 11:45 AM,,,,L,1,N,US,28817,,2019,St. Joseph
-86.27417038,41.6793795,42031,Martin Luther King Center,Open,"1522 Linden Ave South Bend, IN 46628",,South Bend,IN,46628,,,,,,South Bend Community School Corp,2019-06-17T04:00:00.000Z,2019-08-02T04:00:00.000Z,"M, T, W, R, F",,08:15 AM to 08:45 AM,11:20 AM to 12:20 PM,,,,"B, L",1,N,US,29194,,2019,St. Joseph
-85.911354,39.207753,42032,9th Street Park,Open,"Corner of 9th and Wilson Columbus, IN 47201",,Columbus,IN,47201,,,,,,Bartholomew Consolidated Schools,2019-06-10T04:00:00.000Z,2019-07-26T04:00:00.000Z,"M, T, W, R, F",,,01:30 PM to 02:00 PM,,,,L,1,N,US,25396,,2019,Bartholomew
-86.2526757,39.66945305,42033,Canterbury House Apartments,Open,"6505 Tanner Drive Indianapolis, IN 46221",,Indianapolis,IN,46221,,,,,,MSD of Decatur Twp,2019-06-03T04:00:00.000Z,2019-07-19T04:00:00.000Z,"M, T, W, R, F",,,11:00 AM to 11:30 AM,,,,L,1,N,US,26303,,2019,Marion
-86.2703505,41.672115,42034,Pulaski Park,Open,"Walnut at Western Ave. South Bend, IN 46601",,South Bend,IN,46601,,,,,,South Bend Community School Corp,2019-06-17T04:00:00.000Z,2019-08-02T04:00:00.000Z,"M, T, W, R, F",,,11:15 AM to 12:15 PM,,,,L,1,N,US,30317,,2019,St. Joseph
-86.22631172,41.65488546,42035,Lincoln Playground,Open,"1425 E. Calvert St. South Bend, IN 46613",,South Bend,IN,46613,,,,,,South Bend Community School Corp,2019-06-17T04:00:00.000Z,2019-08-02T04:00:00.000Z,"M, T, W, R, F",,,11:10 AM to 12:10 PM,,,,L,1,N,US,28956,,2019,St. Joseph
-86.19642075,41.65068558,42036,Marian High School,Open,"1311 S. Logan Mishawaka, IN 46544",,Mishawaka,IN,46544,,,,,,Marian High School,2019-06-10T04:00:00.000Z,2019-08-06T04:00:00.000Z,"M, T, W, R, F, S",,07:30 AM to 08:30 AM,11:00 AM to 12:30 PM,,,,"B, L",1,N,US,29168,,2019,St. Joseph
-85.49478288,40.87082962,42037,Drover Park,Open,"Drover Park Huntington, IN 46750",,Huntington,IN,46750,,,,,,Huntington County Community School Corporation,2019-06-05T04:00:00.000Z,2019-07-26T04:00:00.000Z,"M, T, W, R, F",,,12:10 PM to 12:35 PM,,,,L,1,N,US,8477,,2019,Huntington
-87.11920439,39.51634033,42038,Forest Park Elementary,Open,"800 S. Alabama St Brazil, IN 47834",,Brazil,IN,47834,,,,,,YMCA of Wabash Valley,2019-05-28T04:00:00.000Z,2019-07-12T04:00:00.000Z,"M, T, W, R, F, S",,07:30 AM to 08:30 AM,11:00 AM to 12:00 PM,,,,"B, L",1,N,US,27573,,2019,Clay
-86.061294,39.71957551,42039,Stratford Place Apartments,Open,"6050 Castleford Dr Indianapolis, IN 46203",,Indianapolis,IN,46203,,,,,,Franklin Twp Comm School Corp,2019-05-28T04:00:00.000Z,2019-07-12T04:00:00.000Z,"M, T, W, R, F",,,11:15 AM to 11:45 AM,,,,L,1,N,US,31218,,2019,Marion
-85.9219605,40.91076,42040,Roann UMC,Open,"Adams & Arnold Street Roann, IN 46974",,Roann,IN,46974,,,,,,Wabash City Schools,2019-06-03T04:00:00.000Z,2019-07-19T04:00:00.000Z,"M, T, W, R, F",,,11:30 AM to 12:30 PM,,,,L,1,N,US,30524,,2019,Wabash
-86.13975565,39.91826792,42041,Nora Pines,Open,"8921 Compton Street Indianapolis, IN 46240",,Indianapolis,IN,46240,,,,,,MSD of Washington Township,2019-06-03T04:00:00.000Z,2019-07-12T04:00:00.000Z,"M, T, W, R, F",,,11:30 AM to 12:15 PM,,,,L,1,N,US,29720,,2019,Marion
-86.15407905,39.63568906,42042,Stone Lake Lodge Apts,Open,"Stone Lake Lodge Indianapolis,, IN 46227",,"Indianapolis,",IN,46227,,,,,,Perry Township Schools,2019-05-28T04:00:00.000Z,2019-07-17T04:00:00.000Z,"M, T, W, R, F",,,10:45 AM to 12:00 PM,,,,L,1,N,US,31205,,2019,Marion
-86.06358668,39.683574,42043,Arlington Elementary School,Open,"5814 S. Arlington Ave Indianapolis, IN 46237",,Indianapolis,IN,46237,,,,,,Franklin Twp Comm School Corp,2019-05-28T04:00:00.000Z,2019-07-12T04:00:00.000Z,"M, T, W, R, F",,,11:00 AM to 11:30 AM,,,,L,1,N,US,25625,,2019,Marion
-86.016654,39.71308253,42044,Echo Ridge Apartments,Open,"8520 Sierra Ridge Dr Indianapolis, IN 46239",,Indianapolis,IN,46239,,,,,,Franklin Twp Comm School Corp,2019-05-28T04:00:00.000Z,2019-07-12T04:00:00.000Z,"M, T, W, R, F",,,11:30 AM to 12:00 PM,,,,L,1,N,US,27218,,2019,Marion
-85.8741119,39.18554661,42045,Pence Street Park,Open,"Pence Street South of State Street Columbus, IN 47201",,Columbus,IN,47201,,,,,,Bartholomew Consolidated Schools,2019-06-10T04:00:00.000Z,2019-07-26T04:00:00.000Z,"M, T, W, R, F",,,01:45 PM to 02:00 PM,,,,L,1,N,US,30100,,2019,Bartholomew
-85.34837491,40.34314817,42046,Eaton Elementary School,Open,"200 North East Union Street Eaton, IN 47338",,Eaton,IN,47338,,,,,,Delaware Community School Corp,2019-06-10T04:00:00.000Z,2019-07-31T04:00:00.000Z,"M, T, W, R, F",,08:45 AM to 09:30 AM,11:30 AM to 12:30 PM,,,,"B, L",1,N,US,27212,,2019,Delaware
-86.62491,41.28589351,42047,Knox Community Elementary School,Open,"2 Redskin Trail Knox, IN 46534",,Knox,IN,46534,,,,,,Knox Community School Corp,2019-06-03T04:00:00.000Z,2019-06-30T04:00:00.000Z,"M, T, W, R",,08:30 AM to 09:30 AM,10:30 AM to 12:00 PM,,,,"B, L",1,N,US,28702,,2019,Starke
-85.14502405,41.060952,42048,Boys & Girls Club/Fairfield,Open,"2609 Fairfiled Ave Fort Wayne, IN 46807",,Fort Wayne,IN,46807,,,,,,Boys and Girls Club of Fort Wayne,2019-06-10T04:00:00.000Z,2019-08-02T04:00:00.000Z,"M, T, W, R, F",,,12:00 PM to 01:30 PM,,,,L,1,N,US,26020,,2019,Allen
-86.28719128,41.71942447,42049,Indian Springs Apartments,Open,"2609 Bow Ct. South Bend, IN 46628",,South Bend,IN,46628,,,,,,South Bend Community School Corp,2019-06-17T04:00:00.000Z,2019-08-02T04:00:00.000Z,"M, T, W, R, F",,,12:00 PM to 01:00 PM,,,,L,1,N,US,28367,,2019,St. Joseph
-86.30917836,39.63262998,42050,Heartland Crossing - Central Park,Open,"8390 W. County Line Rd Camby, IN 46113",,Camby,IN,46113,,,,,,MSD of Decatur Twp,2019-06-03T04:00:00.000Z,2019-07-19T04:00:00.000Z,"M, T, W, R, F",,,11:00 AM to 11:45 AM,,,,L,1,N,US,28078,,2019,Marion
-86.25352067,39.68159464,42051,River Run Homes,Open,"5404 Powder River Ct Indianapolis, IN 46221",,Indianapolis,IN,46221,,,,,,MSD of Decatur Twp,2019-06-03T04:00:00.000Z,2019-07-19T04:00:00.000Z,"M, T, W, R, F",,,12:15 PM to 12:45 PM,,,,L,1,N,US,30493,,2019,Marion
-86.25391988,39.67231998,42052,River Run Villas,Open,"6300 Long River Ln Indianapolis, IN 46221",,Indianapolis,IN,46221,,,,,,MSD of Decatur Twp,2019-06-03T04:00:00.000Z,2019-07-19T04:00:00.000Z,"M, T, W, R, F",,,01:00 PM to 01:30 PM,,,,L,1,N,US,30494,,2019,Marion
-86.22967824,39.71219464,42053,Stephen Decatur Elementary School,Open,"3425 S. Foltz St Indianapolis, IN 46221",,Indianapolis,IN,46221,,,,,,MSD of Decatur Twp,2019-06-03T04:00:00.000Z,2019-07-19T04:00:00.000Z,"M, T, W, R, F",,08:00 AM to 08:30 AM,11:00 AM to 12:30 PM,,,,"B, L",1,N,US,31187,,2019,Marion
-86.26948572,39.69647975,42054,Valley Brook Park Clubhouse,Open,"4620 S. High School Rd Indianapolis, IN 46241",,Indianapolis,IN,46241,,,,,,MSD of Decatur Twp,2019-06-03T04:00:00.000Z,2019-07-19T04:00:00.000Z,"M, T, W, R, F",,,01:00 PM to 01:30 PM,,,,L,1,N,US,31620,,2019,Marion
-86.13060529,39.75567261,42055,Lilly Boys & Girls Club,Open,"801 S. State Avenue Indianapolis, IN 46203",,Indianapolis,IN,46203,,,,,,Boys And Girls Clubs of Indianapolis,2018-10-08T04:00:00.000Z,2019-09-30T04:00:00.000Z,"M, T, W, R, F",,,12:00 PM to 01:00 PM,,02:30 PM to 03:30 PM,,"L, A",1,N,US,28932,,2019,Marion
-86.12330037,39.81079752,42056,Wheeler Boys & Girls Club,Open,"2310 E. 30th Street Indianapolis, IN 46218",,Indianapolis,IN,46218,,,,,,Boys And Girls Clubs of Indianapolis,2018-10-08T04:00:00.000Z,2019-09-30T04:00:00.000Z,"M, T, W, R, F",,,01:00 PM to 02:00 PM,,04:00 PM to 05:00 PM,,"L, A",1,N,US,31910,,2019,Marion
-87.58098787,37.99701945,42057,Cedar Hall Community School,Open,"2100 N. Fulton Avenue Evansville, IN 47710",,Evansville,IN,47710,,,,,,Evansville-Vanderburgh Schools,2019-06-03T04:00:00.000Z,2019-06-28T04:00:00.000Z,"M, T, W, R, F",,,11:15 AM to 12:30 PM,,,,L,1,N,US,8202,,2019,Vanderburgh
-87.55077383,38.00603761,42058,Evans Ed Center,Open,"837 Tulip Ave Evansville, IN 47711",,Evansville,IN,47711,,,,,,Evansville-Vanderburgh Schools,2019-06-03T04:00:00.000Z,2019-06-28T04:00:00.000Z,"M, T, W, R, F",,08:00 AM to 09:00 AM,11:15 AM to 12:15 PM,,,,"B, L",1,N,US,129423,,2019,Vanderburgh
-87.53888764,37.94936406,42059,Lodge Elementary School,Open,"2000 Lodge Avenue Evansville, IN 47714",,Evansville,IN,47714,,,,,,Evansville-Vanderburgh Schools,2019-06-03T04:00:00.000Z,2019-06-28T04:00:00.000Z,"M, T, W, R, F",,,11:45 AM to 01:00 PM,,,,L,1,N,US,9176,,2019,Vanderburgh
-87.61882665,37.97960363,42060,Tekoppel Elementary School,Open,"111 N. Tekoppel Avenue Evansville, IN 47712",,Evansville,IN,47712,,,,,,Evansville-Vanderburgh Schools,2019-06-03T04:00:00.000Z,2019-06-28T04:00:00.000Z,"M, T, W, R, F",,,12:00 PM to 01:00 PM,,,,L,1,N,US,10076,,2019,Vanderburgh
-86.74466652,37.91086107,42061,Cannelton Elem. & High School,Open,"109 3rd Street Cannelton, IN 47520",,Cannelton,IN,47520,,,,,,Cannelton City Schools,2019-06-03T04:00:00.000Z,2019-07-19T04:00:00.000Z,"M, T, W, R, F",,07:30 AM to 08:00 AM,11:30 AM to 12:00 PM,,,,"B, L",1,N,US,26300,,2019,Perry
-85.849947,41.23809,42062,Center Lake Park,Open,"Bixler Park @ Center Lake Warsaw, IN 46580",,Warsaw,IN,46580,,,,,,Warsaw Community Schools,2019-06-03T04:00:00.000Z,2019-07-26T04:00:00.000Z,"M, T, W, R, F",,,11:30 AM to 12:30 PM,,,,L,1,N,US,26415,,2019,Kosciusko
-85.82091843,41.22238714,42063,Winona Lake Park,Open,"1590 Park Avenue Winona Lake, IN 46590",,Winona Lake,IN,46590,,,,,,Warsaw Community Schools,2019-06-03T04:00:00.000Z,2019-07-26T04:00:00.000Z,"M, T, W, R, F",,,11:30 AM to 12:30 PM,,,,L,1,N,US,31990,,2019,Kosciusko
-87.38236979,40.80767481,42064,South Newton Elementary,Open,"13102 S 50 E Kentland, IN 47951",,Kentland,IN,47951,,,,,,South Newton School Corp,2019-06-03T04:00:00.000Z,2019-06-28T04:00:00.000Z,"M, T, W, R, F",,07:30 AM to 08:05 AM,11:25 AM to 12:00 PM,,,,"B, L",1,N,US,30949,,2019,Newton
-85.97314116,39.78249747,42065,Eastridge Elementary School,Open,"10930 E. 10th Street Indianapolis, IN 46229",,Indianapolis,IN,46229,,,,,,MSD of Warren Township,2019-06-10T04:00:00.000Z,2019-07-19T04:00:00.000Z,"M, T, W, R, F",,,11:00 AM to 01:00 PM,,,,L,1,N,US,27198,,2019,Marion
-86.01852053,39.74009547,42066,Liberty Park Elementary,Open,"8425 E Raymond Street Indianapolis, IN 46239",,Indianapolis,IN,46239,,,,,,MSD of Warren Township,2019-06-04T04:00:00.000Z,2019-07-19T04:00:00.000Z,"M, T, W, R, F",,09:00 AM to 09:15 AM,12:15 PM to 01:00 PM,,,,"B, L",1,N,US,28903,,2019,Marion
-86.12801003,39.91240849,42067,North Central High School,Open,"1801 East 86th Street Indianapolis, IN 46240",,Indianapolis,IN,46240,,,,,,MSD of Washington Township,2019-06-10T04:00:00.000Z,2019-06-28T04:00:00.000Z,"M, T, W, R, F",,08:30 AM to 09:00 AM,10:30 AM to 11:15 AM,,,,"B, L",1,N,US,29736,,2019,Marion
-86.30333148,41.34677384,42068,Plymouth High School Athletics,Open,"1# Big Red Drive Plymouth, IN 46563",,Plymouth,IN,46563,,,,,,Plymouth Community School Corp,2019-06-05T04:00:00.000Z,2019-07-26T04:00:00.000Z,"M, W, F",,08:00 AM to 09:00 AM,11:00 AM to 01:00 PM,,,,"B, L",1,N,US,9649,,2019,Marshall
-85.70103587,41.31553231,42069,North Webster Elementary School,Open,"5475 N 750 E North Webster, IN 46555",,North Webster,IN,46555,,,,,,Wawasee Community School Corp,2019-06-03T04:00:00.000Z,2019-07-26T04:00:00.000Z,"M, T, W, R, F",,,11:30 AM to 12:15 PM,,,,L,1,N,US,29775,,2019,Kosciusko
-85.12994779,40.18394419,42070,Farmland Lions Club,Open,"301 Walnut St Farmland, IN 47340",,Farmland,IN,47340,,,,,,Monroe Central School Corp,2019-06-03T04:00:00.000Z,2019-07-26T04:00:00.000Z,"M, T, W, R, F",,,12:00 PM to 01:00 PM,,,,L,1,N,US,27461,,2019,Randolph
-87.12378394,39.52591748,42071,Clay County YMCA,Open,"225 E. Kruzan St Brazil, IN 47834",,Brazil,IN,47834,,,,,,YMCA of Wabash Valley,2019-07-15T04:00:00.000Z,2019-08-02T04:00:00.000Z,"M, T, W, R, F",,07:30 AM to 08:30 AM,11:00 AM to 12:00 PM,,,,"B, L",1,N,US,26609,,2019,Clay
-85.20386502,40.18809545,42072,Parker United Methodist Church,Open,"305 S Main St Parker City, IN 47368",,Parker City,IN,47368,,,,,,Monroe Central School Corp,2019-06-03T04:00:00.000Z,2019-07-26T04:00:00.000Z,"M, T, W, R, F",,,12:00 PM to 01:00 PM,,,,L,1,N,US,30046,,2019,Randolph
-86.12772339,39.65516155,42073,Bradford Lakes Apartments,Open,"7626 Portage Avenue Indianapolis, IN 46227",,Indianapolis,IN,46227,,,,,,Perry Township Schools,2019-05-28T04:00:00.000Z,2019-07-17T04:00:00.000Z,"M, T, W, R, F",,,10:45 AM to 12:00 PM,,,,L,1,N,US,26098,,2019,Marion
-85.09844466,41.09536717,42074,Baldwin Apartments,Open,"2020 Hobson Fort Wayne, IN 46805",,Fort Wayne,IN,46805,,,,,,Boys and Girls Club of Fort Wayne,2019-06-10T04:00:00.000Z,2019-08-02T04:00:00.000Z,"M, T, W, R, F",,,12:00 PM to 01:00 PM,,,,L,1,N,US,25705,,2019,Allen
-85.12841608,41.06561445,42075,Urban League,Open,"2135 South Hanna Street Fort Wayne, IN 46803",,Fort Wayne,IN,46803,,,,,,Emmanuel Missionary Baptist Church,2019-06-17T04:00:00.000Z,2019-08-12T04:00:00.000Z,"M, T, W, R, F",,08:45 AM to 09:15 AM,11:45 AM to 12:15 PM,,,,"B, L",1,N,US,31608,,2019,Allen
-86.85986479,39.63684536,42076,Martha Jane Ridpath Elem. School,Open,"711 South Central Street Greencastle, IN 46135",,Greencastle,IN,46135,,,,,,Greencastle Community School Corp,2019-05-28T04:00:00.000Z,2019-07-19T04:00:00.000Z,"M, T, W, R, F",,08:00 AM to 09:00 AM,11:00 AM to 12:45 PM,,,,"B, L",1,N,US,29189,,2019,Putnam
-85.87768926,38.96880065,42077,Seymour Middle School,Open,"920 N O'Brien Street Seymour, IN 47274",,Seymour,IN,47274,,,,,,Seymour Community Schools,2019-06-03T04:00:00.000Z,2019-07-26T04:00:00.000Z,"M, T, W, R, F",,08:00 AM to 09:00 AM,11:00 AM to 01:00 PM,,,,"B, L",1,N,US,9882,,2019,Jackson
-87.36952838,39.45648182,42078,DeVaney Elementary School,Open,"1011 South Brown Ave. Terre Haute, IN 47803",,Terre Haute,IN,47803,,,,,,Vigo County School Corp,2019-07-22T04:00:00.000Z,2019-08-02T04:00:00.000Z,"M, T, W, R, F",,08:00 AM to 08:30 AM,11:30 AM to 12:00 PM,,,,"B, L",1,N,US,27046,,2019,Vigo
-86.96878111,38.27660253,42079,Huntingburg Elementary School,Open,"501 W. Sunset Drive Huntingburg, IN 47542",,Huntingburg,IN,47542,,,,,,Southwest Dubois County Schools,2019-05-28T04:00:00.000Z,2019-08-06T04:00:00.000Z,"M, T, W, R, F",,,11:15 AM to 12:30 PM,09:15 AM to 10:00 AM,,to,"L, M",1,N,US,28290,,2019,Dubois
-86.37119291,40.76210251,42080,Columbia Elementary School,Open,"20 East Columbia Street Logansport, IN 46947",,Logansport,IN,46947,,,,,,Logansport Community School Corp,2019-06-03T04:00:00.000Z,2019-07-11T04:00:00.000Z,"M, T, W, R, F",,09:00 AM to 09:30 AM,11:30 AM to 12:15 PM,,,,"B, L",1,N,US,8312,,2019,Cass
-86.22967824,39.71219464,42081,Stephen Decatur Elementary - VBS,Open,"3425 S Foltz St Indianapolis, IN 46221",,Indianapolis,IN,46221,,,,,,MSD of Decatur Twp,2019-06-10T04:00:00.000Z,2019-06-14T04:00:00.000Z,"M, T, W, R, F",,,,,,,S,1,N,US,39096,,2019,Marion
-86.48028172,41.45821675,42082,John Glenn High School,Open,"201 John Glenn Dr Walkerton, IN 46574",,Walkerton,IN,46574,,,,,,John Glenn School Corporation,2019-06-04T04:00:00.000Z,2019-06-28T04:00:00.000Z,"M, T, W, R, F",,,12:00 PM to 12:30 PM,,,,L,1,N,US,28502,,2019,St. Joseph
-85.75005691,41.43106509,42083,Syracuse Lakeside Park,Open,"1013 N Long Drive Syracuse, IN 46567",,Syracuse,IN,46567,,,,,,Wawasee Community School Corp,2019-06-03T04:00:00.000Z,2019-07-26T04:00:00.000Z,"M, T, W, R, F",,,11:45 AM to 12:30 PM,,,,L,1,N,US,31280,,2019,Kosciusko
-86.20203914,39.90743136,42084,Spyglass Apts,Open,"8320 Spyglass Drive Indianapolis, IN 46260",,Indianapolis,IN,46260,,,,,,MSD of Washington Township,2019-06-03T04:00:00.000Z,2019-07-12T04:00:00.000Z,"M, T, W, R, F",,,11:00 AM to 11:30 AM,,,,L,1,N,US,31071,,2019,Marion
-87.39766957,39.4551,42085,Chances And Services for Youth,Open,"1101 South 13th Street Terre Haute, IN 47802",,Terre Haute,IN,47802,,,,,,Chances and Services for Youth,2019-06-03T04:00:00.000Z,2019-08-02T04:00:00.000Z,"M, T, W, R, F",,08:00 AM to 09:00 AM,12:00 PM to 12:30 PM,,,,"B, L",1,N,US,26463,,2019,Vigo
-85.0993143,41.06504546,42086,McCormick Apts,Open,"3005 McCormick Place Fort Wayne, IN 46803",,Fort Wayne,IN,46803,,,,,,Boys and Girls Club of Fort Wayne,2019-06-10T04:00:00.000Z,2019-08-02T04:00:00.000Z,"M, T, W, R, F",,,12:00 PM to 01:00 PM,,,,L,1,N,US,29305,,2019,Allen
-85.11020122,41.14865848,42087,River Cove Apts,Open,"2430 River Cove Trl Fort Wayne, IN 46825",,Fort Wayne,IN,46825,,,,,,Boys and Girls Club of Fort Wayne,2019-06-10T04:00:00.000Z,2019-08-02T04:00:00.000Z,"M, T, W, R, F",,,12:00 PM to 01:00 PM,,,,L,1,N,US,30487,,2019,Allen
-86.7644651,37.9538235,42088,Tell City Junior-Senior High School,Open,"900 12th St Tell City, IN 47586",,Tell City,IN,47586,,,,,,Tell City-Troy Township School Corporation,2019-05-28T04:00:00.000Z,2019-07-19T04:00:00.000Z,"M, T, W, R, F",,,11:00 AM to 01:00 PM,,,,L,1,N,US,10079,,2019,Perry
-86.26268251,41.67209249,42089,Kroc Center Playground,Open,"900 W. Western Ave South Bend, IN 46601",,South Bend,IN,46601,,,,,,South Bend Community School Corp,2019-06-17T04:00:00.000Z,2019-08-02T04:00:00.000Z,"M, T, W, R, F",,,12:10 PM to 01:10 PM,,,,L,1,N,US,28715,,2019,St. Joseph
-87.58098787,37.99701945,42090,Cedar Hall Community School Parks & Rec Program,Open,"2100 N Fulton Avenue Evansville, IN 47710",,Evansville,IN,47710,,,,,,Evansville-Vanderburgh Schools,2019-06-03T04:00:00.000Z,2019-06-28T04:00:00.000Z,"M, T, W, R, F",,,,,03:00 PM to 04:00 PM,,A,1,N,US,8203,,2019,Vanderburgh
-87.55001279,37.95189856,42091,Glenwood Leadership Academy Parks & Rec Program,Open,"901 Sweetser Avenue Evansville, IN 47714",,Evansville,IN,47714,,,,,,Evansville-Vanderburgh Schools,2019-06-03T04:00:00.000Z,2019-06-28T04:00:00.000Z,"M, T, W, R, F",,,,,03:00 PM to 03:15 PM,,A,1,N,US,8726,,2019,Vanderburgh
-87.53888764,37.94936406,42092,Lodge Community School Parks & Rec Program,Open,"2000 Lodge Avenue Evansville, IN 47714",,Evansville,IN,47714,,,,,,Evansville-Vanderburgh Schools,2019-06-03T04:00:00.000Z,2019-06-28T04:00:00.000Z,"M, T, W, R, F",,,,,03:00 PM to 03:15 PM,,A,1,N,US,9175,,2019,Vanderburgh
-86.13773106,39.69630453,42093,Long Acre Community,Open,"4701 Madison Ave Indianapolis, IN 46227",,Indianapolis,IN,46227,,,,,,Perry Township Schools,2019-05-28T04:00:00.000Z,2019-07-17T04:00:00.000Z,"M, T, W, R, F",,,12:10 PM to 12:30 PM,,,,L,1,N,US,29010,,2019,Marion
-86.28559419,41.66672386,42094,Lacasa Deamistad,Open,"746 S. Meade St. South Bend, IN 46619",,South Bend,IN,46619,,,,,,South Bend Community School Corp,2019-06-17T04:00:00.000Z,2019-08-02T04:00:00.000Z,"M, T, W, R",,,11:15 AM to 12:00 PM,,,,L,1,N,US,28744,,2019,St. Joseph
-85.51335491,40.87948951,42095,Parkview Apartments,Open,"1334 Memorial Lane Huntington, IN 46750",,Huntington,IN,46750,,,,,,Huntington County Community School Corporation,2019-06-05T04:00:00.000Z,2019-07-26T04:00:00.000Z,"M, T, W, R, F",,,12:10 PM to 12:30 PM,,,,L,1,N,US,9582,,2019,Huntington
-85.29327603,40.24737883,42096,Desoto UMC,Open,"6309 N CR 500 E Muncie, IN 47303",,Muncie,IN,47303,,,,,,Delaware Community School Corp,2019-06-10T04:00:00.000Z,2019-07-31T04:00:00.000Z,"M, T, W, R, F",,,11:30 AM to 12:30 PM,,,,L,1,N,US,27044,,2019,Delaware
-85.8340305,40.977135,42097,Manchester Intermediate,Open,"20 W Woodring Rd Laketon, IN 46943",,Laketon,IN,46943,,,,,,Manchester Community Schools,2019-05-29T04:00:00.000Z,2019-08-06T04:00:00.000Z,"M, T, W, R, F",,,11:00 AM to 11:45 AM,,,,L,1,N,US,9216,,2019,Wabash
-85.76228231,40.99677097,42098,Manchester Elementary School,Open,"301 River Rd North Manchester, IN 46962",,North Manchester,IN,46962,,,,,,Manchester Community Schools,2019-06-03T04:00:00.000Z,2019-07-15T04:00:00.000Z,"M, T, W, R, F",,08:00 AM to 08:30 AM,11:30 AM to 12:15 PM,,,,"B, L",1,N,US,9214,,2019,Wabash
-85.98358131,39.75524752,42099,Grassy Creek Elementary School,Open,"10330 E. Prospect Street Indianapolis, IN 46239",,Indianapolis,IN,46239,,,,,,MSD of Warren Township,2019-06-10T04:00:00.000Z,2019-07-19T04:00:00.000Z,"M, T, W, R, F",,,11:00 AM to 01:00 PM,,,,L,1,N,US,27870,,2019,Marion
-87.55077383,38.00603761,42100,Evans School Parks & Rec Program,Open,"837 Tulip Ave Evansville, IN 47711",,Evansville,IN,47711,,,,,,Evansville-Vanderburgh Schools,2019-06-03T04:00:00.000Z,2019-06-28T04:00:00.000Z,"M, T, W, R, F",,,,,03:00 PM to 03:15 PM,,A,1,N,US,8573,,2019,Vanderburgh
-85.49652609,40.31598679,42101,Wes-Del Elementary School,Open,"500 Jackson Street Gaston, IN 47342",,Gaston,IN,47342,,,,,,Wes-Del Community School Corporation,2019-06-10T04:00:00.000Z,2019-07-19T04:00:00.000Z,"M, T, W, R, F",,,12:00 PM to 12:30 PM,,,,L,1,N,US,31815,,2019,Delaware
-85.26566549,40.19197534,42102,Selma Elementary School,Open,"200 S. East St Selma, IN 47383",,Selma,IN,47383,,,,,,Liberty-Perry Community Schools,2019-06-03T04:00:00.000Z,2019-07-26T04:00:00.000Z,"M, T, W, R, F",,09:00 AM to 09:30 AM,11:00 AM to 12:15 PM,,,,"B, L",1,N,US,9877,,2019,Delaware
-85.83545919,40.81240624,42103,Wabash Alliance Church,Open,"1200 N. Cass St. Wabash, IN 46992",,Wabash,IN,46992,,,,,,Wabash City Schools,2019-06-10T04:00:00.000Z,2019-06-14T04:00:00.000Z,"M, T, W, R, F",,,,,,,S,1,N,US,31708,,2019,Wabash
-86.23244761,41.66297179,42104,YMCA of Michiana,Open,"1201 Northside South Bend,, IN 46617",,"South Bend,",IN,46617,,,,,,South Bend Community School Corp,2019-06-17T04:00:00.000Z,2019-08-02T04:00:00.000Z,"M, T, W, R, F",,08:00 AM to 09:00 AM,12:00 PM to 01:00 PM,,,,"B, L",1,N,US,32132,,2019,St. Joseph
-87.51848993,41.6182793,42105,473 E Sibley St - 3 year olds,Open,"473 Sibley Street Hammond, IN 46320",,Hammond,IN,46320,,,,,,First Baptist Church of Hammond,2019-05-29T04:00:00.000Z,2019-08-11T04:00:00.000Z,W,,,,,,,S,1,N,US,25384,,2019,Lake
-87.51848993,41.6182793,42106,473 E Sibley St A Beginner 2,Open,"473 Sibley Street Hammond, IN 46320",,Hammond,IN,46320,,,,,,First Baptist Church of Hammond,2019-05-29T04:00:00.000Z,2019-07-10T04:00:00.000Z,W,,,,,,,S,1,N,US,25387,,2019,Lake
-87.51848993,41.6182793,42107,473 E Sibley St Primary 1,Open,"473 Sibley Street Hammond, IN 46320",,Hammond,IN,46320,,,,,,First Baptist Church of Hammond,2019-05-29T04:00:00.000Z,2019-07-10T04:00:00.000Z,W,,,,,,,S,1,N,US,25388,,2019,Lake
-87.51848993,41.6182793,42108,473 E Sibley St Primary 2,Open,"473 Sibley Street Hammond, IN 46320",,Hammond,IN,46320,,,,,,First Baptist Church of Hammond,2019-05-29T04:00:00.000Z,2019-07-10T04:00:00.000Z,W,,,,,,,S,1,N,US,25389,,2019,Lake
-87.51751322,41.618909,42109,Bldg P Jr High,Open,"479-485 State Street Hammond, IN 46320",,Hammond,IN,46320,,,,,,First Baptist Church of Hammond,2019-05-29T04:00:00.000Z,2019-08-11T04:00:00.000Z,"M, W, F, S",,09:45 AM to 10:45 AM,,,,,"B, S",1,N,US,25919,,2019,Lake
-84.97316281,38.87219207,42110,Switzerland County Elem. School,Open,"12862 sr 250 Rising Sun, IN 47040",,Rising Sun,IN,47040,,,,,,Switzerland County School Corp,2019-06-10T04:00:00.000Z,2019-07-26T04:00:00.000Z,"M, T, W, R, F",,,11:00 AM to 12:00 PM,,,,L,1,N,US,10064,,2019,Switzerland
-87.25207757,41.59233505,42111,Mansard du Lac Trailer Park,Open,"7300 East 10th Ave. Lake Station, IN 46405",,Lake Station,IN,46405,,,,,,Lake Station Community Schools,2019-06-10T04:00:00.000Z,2019-08-02T04:00:00.000Z,"M, T, W, R, F",,,12:00 PM to 01:15 PM,,,,L,1,N,US,29142,,2019,Lake
-85.88894956,39.20303929,42112,Morningside Park,Open,"Morning Side Park Columbus, IN 47201",,Columbus,IN,47201,,,,,,Bartholomew Consolidated Schools,2019-06-10T04:00:00.000Z,2019-07-26T04:00:00.000Z,"M, T, W, R, F",,,02:00 PM to 02:15 PM,,,,L,1,N,US,29525,,2019,Bartholomew
-86.15369322,41.44554555,42113,Bremen Elementary & Middle School,Open,"700 West South St Bremen, IN 46506",,Bremen,IN,46506,,,,,,Bremen Public Schools,2019-06-04T04:00:00.000Z,2019-07-19T04:00:00.000Z,"M, T, W, R, F",,,11:00 AM to 12:30 PM,,,,L,1,N,US,26114,,2019,Marshall
-87.40817733,39.65880531,42114,Central Elementary School,Open,"208 S. 9th St Clinton, IN 47842",,Clinton,IN,47842,,,,,,South Vermillion Community School Corporation,2019-05-28T04:00:00.000Z,2019-07-19T04:00:00.000Z,"M, T, W, R, F",,,11:30 AM to 01:00 PM,,,,L,1,N,US,26431,,2019,Vermillion
-85.09665838,41.05063129,42115,McMillen Park Rec Center,Open,"3900 Hassen Cassel Rd Fott Wayne, IN 46806",,Fott Wayne,IN,46806,,,,,,Emmanuel Missionary Baptist Church,2019-07-29T04:00:00.000Z,2019-08-12T04:00:00.000Z,"M, T, W, R, F",,,02:15 PM to 03:00 PM,,,,L,1,N,US,29329,,2019,Allen
-85.90963207,39.2230255,42116,Columbus North High School,Open,"1400 25th Street Columbus, IN 47201",,Columbus,IN,47201,,,,,,Bartholomew Consolidated Schools,2019-06-17T04:00:00.000Z,2019-06-21T04:00:00.000Z,"M, T, W, R, F",,10:15 AM to 10:30 AM,11:30 AM to 12:00 PM,,,,"B, L",1,N,US,26722,,2019,Bartholomew
-85.99812003,39.7967705,42117,Lakeside Elementary School,Open,"9601 E. 21st Street Indianapolis, IN 46229",,Indianapolis,IN,46229,,,,,,MSD of Warren Township,2018-10-08T04:00:00.000Z,2019-07-19T04:00:00.000Z,"M, T, W, R, F",,,11:00 AM to 01:00 PM,,,,L,1,N,US,86847,,2019,Marion
-84.90055662,39.8229886,42118,Richmond Senior High School,Open,"380 Hub Etchison Parkway Richmond, IN 47374",,Richmond,IN,47374,,,,,,Richmond Community Schools,2019-06-03T04:00:00.000Z,2019-08-02T04:00:00.000Z,"M, T, W, R, F",,07:30 AM to 08:00 AM,11:00 AM to 12:15 PM,,,,"B, L",1,N,US,9730,,2019,Wayne
-86.544864,39.16865149,42119,Banneker Community Center,Open,"930 W 7th Street Bloomington, IN 47404",,Bloomington,IN,47404,,,,,,City of Bloomington Parks and Recreation Department,2019-06-03T04:00:00.000Z,2019-07-26T04:00:00.000Z,"M, T, W, R, F",,09:00 AM to 10:00 AM,12:00 PM to 01:00 PM,,,,"B, L",1,N,US,25711,,2019,Monroe
-86.1491758,39.726423,42120,Christel House Academy South,Open,"2717 South East St Indianapolis, IN 46225",,Indianapolis,IN,46225,,,,,,Christel House Academy,2019-06-03T04:00:00.000Z,2019-06-28T04:00:00.000Z,"M, T, W, R, F",,07:25 AM to 08:15 AM,11:00 AM to 01:00 PM,,,,"B, L",1,N,US,8264,,2019,Marion
-86.1554205,39.78845445,42121,Herron High School,Open,"110 E. 16th Street Indianapolis, IN 46202",,Indianapolis,IN,46202,,,,,,Herron High School,2019-06-11T04:00:00.000Z,2019-08-02T04:00:00.000Z,"M, T, W, R, F",,07:30 AM to 08:00 AM,11:00 AM to 01:00 PM,,,,"B, L",1,N,US,28118,,2019,Marion
-86.21285782,39.76560471,42122,Christel House Academy West,Open,"55 North Tibbs Avenue Indianapolis, IN 46222",,Indianapolis,IN,46222,,,,,,Christel House Academy,2019-06-03T04:00:00.000Z,2019-06-28T04:00:00.000Z,"M, T, W, R, F",,07:30 AM to 08:00 AM,10:50 AM to 12:50 PM,,,,"B, L",1,N,US,8265,,2019,Marion
-85.1358865,41.07708997,42123,YMCA Central Branch,Open,"1020 Barr Street Fort Wayne, IN 46802",,Fort Wayne,IN,46802,,,,,,Emmanuel Missionary Baptist Church,2019-06-10T04:00:00.000Z,2019-08-12T04:00:00.000Z,"M, T, W, R, F",,07:30 AM to 08:00 AM,,,,,B,1,N,US,32105,,2019,Allen
-85.34347662,40.16845826,42124,Glad Tidings,Open,"3001 S. Burlington Dr. Muncie, IN 47302",,Muncie,IN,47302,,,,,,Glad Tidings Church,2019-06-24T04:00:00.000Z,2019-06-28T04:00:00.000Z,"M, T, W, R, F",,,11:40 AM to 12:00 PM,,,,L,1,N,US,8716,,2019,Delaware
-86.54021603,39.16946154,42125,Fairview Elementary School,Open,"627 W 8th Street Bloomington, IN 47404",,Bloomington,IN,47404,,,,,,Monroe Co Community School Corp,2019-06-03T04:00:00.000Z,2019-07-03T04:00:00.000Z,"M, T, W, R",,08:30 AM to 09:15 AM,11:15 AM to 01:00 PM,,,,"B, L",1,N,US,8592,,2019,Monroe
-85.08466301,41.09049441,42126,Concordia Lutheran Grade School,Open,"4245 Lake Ave Fort Wayne, IN 46815",,Fort Wayne,IN,46815,,,,,,Concordia Lutheran Grade School,2019-06-10T04:00:00.000Z,2019-08-02T04:00:00.000Z,"M, T, W, R, F",,07:45 AM to 08:30 AM,11:30 AM to 12:15 PM,,,,"B, L",1,N,US,26760,,2019,Allen
-86.76058422,40.7311643,42127,Area IV Agency Monticello Summer Program,Open,"904 City Park Loop Monticello, IN 47960",,Monticello,IN,47960,,,,,,Area IV Agency On Aging And Community Action Programs,2019-06-10T04:00:00.000Z,2019-07-19T04:00:00.000Z,"M, T, W, R, F",,09:30 AM to 10:00 AM,11:30 AM to 12:30 PM,,,,"B, L",1,N,US,7874,,2019,White
-86.36002777,39.60421022,42128,Neil Armstrong Elementary School,Open,"1000 St Rd 144 Mooresville, IN 46158",,Mooresville,IN,46158,,,,,,Mooresville Consolidated Schools,2019-05-28T04:00:00.000Z,2019-07-26T04:00:00.000Z,"M, T, W, R, F",,08:30 AM to 09:00 AM,11:00 AM to 11:45 AM,,,,"B, L",1,N,US,29625,,2019,Morgan
-86.38040478,39.61518823,42129,Newby Memorial Elementary School,Open,"240 N Monroe Street Mooresville, IN 46158",,Mooresville,IN,46158,,,,,,Mooresville Consolidated Schools,2019-05-28T04:00:00.000Z,2019-07-26T04:00:00.000Z,"M, T, W, R, F",,,11:00 AM to 11:45 AM,,,,L,1,N,US,29693,,2019,Morgan
-87.49435614,41.68026809,42130,Whiting High School,Open,"1831 Oliver Street Whiting, IN 46394",,Whiting,IN,46394,,,,,,School City of Whiting,2019-06-03T04:00:00.000Z,2019-08-02T04:00:00.000Z,"M, T, W, R, F",,,10:30 AM to 12:30 PM,,,,L,1,N,US,10296,,2019,Lake
-86.20218,39.7680555,42131,"Hawthorne Social Service Association, Inc.",Open,"2440 W Ohio Street Indianapolis, IN 46222",,Indianapolis,IN,46222,,,,,,"Hawthorne Social Service Association, Inc.",2019-06-03T04:00:00.000Z,2019-08-02T04:00:00.000Z,"M, T, W, R, F",,08:30 AM to 09:00 AM,11:45 AM to 12:15 PM,,,,"B, L",1,N,US,28056,,2019,Marion
-86.17365117,41.65229374,42132,Barbee Creek,Open,"601 E 11th Street Mishawaka, IN 46544",,Mishawaka,IN,46544,,,,,,Penn-Harris-Madison School Corp,2019-06-10T04:00:00.000Z,2019-08-09T04:00:00.000Z,"M, T, W, R, F",,,12:30 PM to 01:15 PM,,,,L,1,N,US,7928,,2019,St. Joseph
-86.16802633,41.69588366,42133,Disney Playground,Open,"4015 N. Filbert Road Mishawaka, IN 46545",,Mishawaka,IN,46545,,,,,,Penn-Harris-Madison School Corp,2019-06-10T04:00:00.000Z,2019-06-28T04:00:00.000Z,"M, T, W, R, F",,07:15 AM to 07:40 AM,10:45 AM to 11:15 AM,,,,"B, L",1,N,US,8451,,2019,St. Joseph
-86.18329173,41.60785348,42134,Meadow's Edge Playground,Open,"16333 Kern Road Mishawaka, IN 46544",,Mishawaka,IN,46544,,,,,,Penn-Harris-Madison School Corp,2019-06-10T04:00:00.000Z,2019-06-28T04:00:00.000Z,"M, T, W, R, F",,07:15 AM to 07:45 AM,10:45 AM to 11:15 AM,,,,"B, L",1,N,US,9287,,2019,St. Joseph
-86.15233333,41.65130247,42135,Village Green Mobile Home Park,Open,"1727 E 12th Street Mishawaka, IN 46544",,Mishawaka,IN,46544,,,,,,Penn-Harris-Madison School Corp,2019-06-10T04:00:00.000Z,2019-08-09T04:00:00.000Z,"M, T, W, R, F",,,11:30 AM to 12:15 PM,,,,L,1,N,US,10206,,2019,St. Joseph
-85.76228231,40.99677097,42136,SPARK Program,Open,"301 River Road North Manchester, IN 46962",,North Manchester,IN,46962,,,,,,Manchester Community Schools,2019-06-03T04:00:00.000Z,2019-07-15T04:00:00.000Z,"M, T, W, R",,08:00 AM to 08:30 AM,11:30 AM to 12:15 PM,,,,"B, L",1,N,US,9976,,2019,Wabash
-84.99455575,41.64398028,42137,Carlin Park Elementary,Open,"800 North Williams Angola, IN 46703",,Angola,IN,46703,,,,,,MSD of Steuben County,2019-06-10T04:00:00.000Z,2019-07-26T04:00:00.000Z,"M, T, W, R, F",,07:45 AM to 08:10 AM,11:00 AM to 12:00 PM,,,,"B, L",1,N,US,8170,,2019,Steuben
-84.99673557,41.62884518,42138,Hendry Park Elementary,Open,"805 South Washington Angola, IN 46703",,Angola,IN,46703,,,,,,MSD of Steuben County,2019-06-10T04:00:00.000Z,2019-06-21T04:00:00.000Z,"M, T, W, R, F",,07:35 AM to 08:05 AM,,,,,B,1,N,US,8829,,2019,Steuben
-86.24964453,40.66370828,42139,Lewis Cass High School,Open,"6422 E ST RD 218 Walton, IN 46994",,Walton,IN,46994,,,,,,Lewis Cass Schools,2019-05-28T04:00:00.000Z,2019-07-26T04:00:00.000Z,"M, T, W, R, F",,09:30 AM to 10:30 AM,10:45 AM to 12:00 PM,,,,"B, L",1,N,US,111721,,2019,Cass
-86.11765549,41.66331548,42140,Twin Branch Park,Open,"3900 Lincolnway East Mishawaka, IN 46544",,Mishawaka,IN,46544,,,,,,Penn-Harris-Madison School Corp,2019-06-10T04:00:00.000Z,2019-08-09T04:00:00.000Z,"M, T, W, R, F",,,11:15 AM to 12:00 PM,,,,L,1,N,US,10155,,2019,St. Joseph
-85.81996794,40.81528597,42141,O.J. Neighbours Elementary School,Open,"1545 N. Wabash St. Wabash, IN 46992",,Wabash,IN,46992,,,,,,Wabash City Schools,2019-06-03T04:00:00.000Z,2019-07-19T04:00:00.000Z,"M, T, W, R, F",,08:00 AM to 09:00 AM,11:00 AM to 12:00 PM,,,,"B, L",1,N,US,29841,,2019,Wabash
-85.83098168,40.80766434,42142,Wabash Middle School,Open,"150 Colerain St. Wabash, IN 46992",,Wabash,IN,46992,,,,,,Wabash City Schools,2019-06-03T04:00:00.000Z,2019-07-19T04:00:00.000Z,"M, T, W, R, F",,07:45 AM to 08:45 AM,11:00 AM to 01:00 PM,,,,"B, L",1,N,US,31709,,2019,Wabash
-85.81996794,40.81528597,42143,O.J. Neighbours Sparks Program,Open,"1545 N. Wabash St. Wabash, IN 46992",,Wabash,IN,46992,,,,,,Wabash City Schools,2019-06-03T04:00:00.000Z,2019-07-19T04:00:00.000Z,"M, T, W, R, F",,08:00 AM to 09:00 AM,11:00 AM to 12:00 PM,,,,"B, L",1,N,US,29842,,2019,Wabash
-85.07833535,38.74090788,42144,Switzerland County Jr.-Sr. H.S.,Open,"1020 West Main ST. Vevay, IN 47043",,Vevay,IN,47043,,,,,,Switzerland County School Corp,2019-06-10T04:00:00.000Z,2019-07-26T04:00:00.000Z,"M, T, W, R, F",,08:00 AM to 09:00 AM,10:30 AM to 12:00 PM,,,,"B, L",1,N,US,10065,,2019,Switzerland
-86.1244144,40.49530175,42145,Carver Community Center,Open,"1030 N Purdum St Kokomo, IN 46901",,Kokomo,IN,46901,,,,,,Kokomo School Corporation,2019-06-10T04:00:00.000Z,2019-07-12T04:00:00.000Z,"M, T, W, R, F",,,11:00 AM to 01:00 PM,,,,L,1,N,US,26348,,2019,Howard
-86.12202738,40.46624412,42146,Garden Square Apartments,Open,"800 E Hoffer St Kokomo, IN 46902",,Kokomo,IN,46902,,,,,,Kokomo School Corporation,2019-06-10T04:00:00.000Z,2019-07-12T04:00:00.000Z,"M, T, W, R, F",,,11:00 AM to 01:00 PM,,,,L,1,N,US,27699,,2019,Howard
-85.59335675,41.45943126,42147,West Noble Primary,Open,"500 W Union Ligonier, IN 46767",,Ligonier,IN,46767,,,,,,West Noble School Corporation,2019-06-03T04:00:00.000Z,2019-07-25T04:00:00.000Z,"M, T, W, R",,07:45 AM to 08:30 AM,11:15 AM to 12:00 PM,,,,"B, L",1,N,US,39794,,2019,Noble
-85.07690303,38.74160153,42148,Jefferson-Craig Elem. School,Open,"1002 W. Main Street Vevay, IN 47043",,Vevay,IN,47043,,,,,,Switzerland County School Corp,2019-07-22T04:00:00.000Z,2019-07-26T04:00:00.000Z,"M, T, W, R, F",,,11:00 AM to 12:00 PM,,,,L,1,N,US,8978,,2019,Switzerland
-87.14752181,40.76229945,42149,Tri-County Primary School,Open,"300 E Michigan Remington, IN 47997",,Remington,IN,47997,,,,,,Tri-County School Corporation,2019-06-03T04:00:00.000Z,2019-07-25T04:00:00.000Z,"M, T, W, R",,07:30 AM to 08:30 AM,11:00 AM to 01:00 PM,,,,"B, L",1,N,US,31491,,2019,Jasper
-85.76139927,39.78915274,42150,Boys and Girls Club of Hancock County,Open,"715 East Lincoln Street Greenfield, IN 46140",,Greenfield,IN,46140,,,,,,Greenfield Central Community School Corporation,2019-06-03T04:00:00.000Z,2019-07-26T04:00:00.000Z,"M, T, W, R, F",,07:30 AM to 08:30 AM,11:30 AM to 12:30 PM,,,,"B, L",1,N,US,26070,,2019,Hancock
-86.54813889,39.17513764,42151,Crestmont,Open,"1007 N. Summitt Bloomington, IN 47404",,Bloomington,IN,47404,,,,,,Community Kitchen of Monroe County,2019-05-28T04:00:00.000Z,2019-08-06T04:00:00.000Z,"M, T, W, R, F",,,11:35 AM to 12:10 PM,,,,L,1,N,US,26857,,2019,Monroe
-85.78463764,39.51756293,42152,Boys Club,Open,"710 S. Miller St. Shelbyville, IN 46176",,Shelbyville,IN,46176,,,,,,Shelbyville Central Schools,2019-05-28T04:00:00.000Z,2019-07-19T04:00:00.000Z,"M, T, W, R, F",,,11:00 AM to 12:30 PM,,,,L,1,N,US,26092,,2019,Shelby
-85.76202904,39.52567014,42153,Kennedy Park,Open,"200 Minster Dr Shelbyville, IN 46176",,Shelbyville,IN,46176,,,,,,Shelbyville Central Schools,2019-05-28T04:00:00.000Z,2019-07-19T04:00:00.000Z,"M, T, W, R, F",,,11:00 AM to 12:30 PM,,,,L,1,N,US,28612,,2019,Shelby
-86.2237128,41.05511147,42154,Rochester Middle School,Open,"650 Zebra Lane Rochester, IN 46975",,Rochester,IN,46975,,,,,,Rochester Community School Corp,2019-03-25T04:00:00.000Z,2019-07-26T04:00:00.000Z,"M, T, W, R, F",,07:15 AM to 08:00 AM,11:15 AM to 12:00 PM,,,,"B, L",1,N,US,55175,,2019,Fulton
-85.6920371,40.0658592,42155,Anderson High School,Open,"4610 S. Madison Avenue Anderson, IN 46013",,Anderson,IN,46013,,,,,,Anderson Community School Corp,2019-06-05T04:00:00.000Z,2019-07-19T04:00:00.000Z,"M, T, W, R, F",,07:45 AM to 08:15 AM,11:30 AM to 01:00 PM,,,,"B, L",1,N,US,25551,,2019,Madison
-87.05272735,37.88109059,42156,Rockport Elementary,Open,"200 S 6th Street Rockport, IN 47635",,Rockport,IN,47635,,,,,,South Spencer Co School Corp,2019-05-20T04:00:00.000Z,2019-08-09T04:00:00.000Z,"M, T, W, R, F",,,11:00 AM to 12:00 PM,,,,L,1,N,US,9766,,2019,Spencer
-85.04267655,41.37210069,42157,J. R. Watson Elementary School,Open,"901 Eckhart Ave Auburn, IN 46706",,Auburn,IN,46706,,,,,,DeKalb Co Central United Schools,2019-07-24T04:00:00.000Z,2019-07-25T04:00:00.000Z,"W, R",,08:00 AM to 09:00 AM,12:00 PM to 02:00 PM,,,,"B, L",1,N,US,28414,,2019,DeKalb
-87.03783812,41.49541803,42158,Jamestown Apartments,Open,"2917 Virginia Park Drive Valparaiso, IN 46383",,Valparaiso,IN,46383,,,,,,Valparaiso Community Schools,2019-06-10T04:00:00.000Z,2019-07-26T04:00:00.000Z,"M, T, W, R, F",,,11:30 AM to 12:00 PM,,,,L,1,N,US,28438,,2019,Porter
-85.83706278,41.23454748,42159,Baker Youth Club,Open,"1401 E. Smith St. Warsaw, IN 46580",,Warsaw,IN,46580,,,,,,Warsaw Community Schools,2019-06-03T04:00:00.000Z,2019-07-26T04:00:00.000Z,"M, T, W, R, F",,,01:15 PM to 01:45 PM,,,,L,1,N,US,25704,,2019,Kosciusko
-85.8286197,41.25504097,42160,Kosciusko Community YMCA,Open,"1305 Mariners Drive Warsaw, IN 46582",,Warsaw,IN,46582,,,,,,Warsaw Community Schools,2019-06-03T04:00:00.000Z,2019-07-26T04:00:00.000Z,"M, T, W, R, F",,,11:45 AM to 12:30 PM,,,,L,1,N,US,28711,,2019,Kosciusko
-86.33294263,40.75133183,42161,Logansport High School,Open,"One Berry Lane Logansport, IN 46947",,Logansport,IN,46947,,,,,,Logansport Community School Corp,2019-06-03T04:00:00.000Z,2019-06-28T04:00:00.000Z,"M, T, W, R, F",,07:40 AM to 08:00 AM,11:30 AM to 12:00 PM,,,,"B, L",1,N,US,9177,,2019,Cass
-87.51322481,41.62264812,42162,City Baptist,Open,"4925 Sohl Ave Hammond, IN 46320",,Hammond,IN,46320,,,,,,First Baptist Church of Hammond,2019-06-04T04:00:00.000Z,2019-08-11T04:00:00.000Z,"M, T, W, R, F, S",,09:15 AM to 10:15 AM,12:00 PM to 02:00 PM,,,,"B, L",1,N,US,26574,,2019,Lake
-87.50625474,41.62770875,42163,Irving Elementary School,Open,"4727 Pine Ave Hammond, IN 46327",,Hammond,IN,46327,,,,,,School City of Hammond,2019-06-10T04:00:00.000Z,2019-08-02T04:00:00.000Z,"M, T, W, R, F",,09:00 AM to 10:00 AM,12:00 PM to 01:00 PM,,,,"B, L",1,N,US,28399,,2019,Lake
-86.26105261,41.69994349,42164,Keller Park,Open,"737 West Beale St. South Bend, IN 46616",,South Bend,IN,46616,,,,,,South Bend Community School Corp,2019-06-17T04:00:00.000Z,2019-08-02T04:00:00.000Z,"M, T, W, R, F",,,11:00 AM to 12:00 PM,,,,L,1,N,US,28602,,2019,St. Joseph
-86.28669941,41.64716765,42165,Prairie Apartments,Open,"2630 Prairie Ave South Bend, IN 46614",,South Bend,IN,46614,,,,,,South Bend Community School Corp,2019-06-17T04:00:00.000Z,2019-08-02T04:00:00.000Z,"M, T, W, R, F",,,10:55 AM to 11:55 AM,,,,L,1,N,US,30246,,2019,St. Joseph
-86.20930903,41.71137349,42166,Emerald Pointe Apartments,Open,"53880 Generations Drive South Bend, IN 46635",,South Bend,IN,46635,,,,,,South Bend Community School Corp,2019-06-17T04:00:00.000Z,2019-08-02T04:00:00.000Z,"M, T, W, R, F",,,10:45 AM to 11:45 AM,,,,L,1,N,US,117973,,2019,St. Joseph
-84.87275127,39.83023525,42167,Glen Miller Park Playground,Open,"2200 E Main Street Richmond, IN 47374",,Richmond,IN,47374,,,,,,Richmond Community Schools,2019-06-03T04:00:00.000Z,2019-08-02T04:00:00.000Z,"M, T, W, R, F",,,10:30 AM to 11:30 AM,,,,L,1,N,US,129508,,2019,Wayne
-85.89966029,39.20319159,42168,Foundation for Youth,Open,"405 hope ave Columbus, IN 47201",,Columbus,IN,47201,,,,,,Bartholomew Consolidated Schools,2019-06-03T04:00:00.000Z,2019-08-02T04:00:00.000Z,"M, T, W, R, F",,07:30 AM to 08:00 AM,11:00 AM to 12:30 PM,,,,"B, L",1,N,US,110917,,2019,Bartholomew
-84.9384195,41.73065657,42169,Fremont Elementary School,Open,"501 West Toledo St. Fremont, IN 46737",,Fremont,IN,46737,,,,,,Fremont Community Schools,2019-06-12T04:00:00.000Z,2019-07-03T04:00:00.000Z,"M, T, W, R, F",,07:45 AM to 08:15 AM,11:30 AM to 12:00 PM,,,,"B, L",1,N,US,27640,,2019,Steuben
-87.50732617,41.677875,42170,Clark Middle/High School,Open,"1921 Davis Ave Whiting, IN 46394",,Whiting,IN,46394,,,,,,School City of Hammond,2019-06-12T04:00:00.000Z,2019-08-07T04:00:00.000Z,"M, T, W, R, F",,08:00 AM to 08:30 AM,11:00 AM to 11:30 AM,,,,"B, L",1,N,US,129302,,2019,Lake
-87.51596723,41.63657456,42171,Lincoln Elementary School,Open,"4221 Towel Hammond, IN 46327",,Hammond,IN,46327,,,,,,School City of Hammond,2019-06-10T04:00:00.000Z,2019-07-03T04:00:00.000Z,"M, T, W, R, F",,08:30 AM to 09:30 AM,11:30 AM to 12:30 PM,,,,"B, L",1,N,US,129757,,2019,Lake
-85.81710519,39.1380986,42172,Elizabethtown Library,Open,"100 West Street Elizabethtown, IN 47201",,Elizabethtown,IN,47201,,,,,,Bartholomew Consolidated Schools,2019-06-03T04:00:00.000Z,2019-07-26T04:00:00.000Z,"M, T, W, R, F",,,11:00 AM to 12:00 PM,,,,L,1,N,US,129412,,2019,Bartholomew
-84.90174823,39.84236122,42173,Lions Park West,Open,"1201 Ridge Street Richmond, IN 47374",,Richmond,IN,47374,,,,,,Richmond Community Schools,2019-06-03T04:00:00.000Z,2019-08-02T04:00:00.000Z,T,,,12:00 PM to 01:00 PM,,,,L,1,N,US,129762,,2019,Wayne
-84.88162821,39.83296522,42174,Starr Park,Open,"311 N. 15th Street Richmond, IN 47374",,Richmond,IN,47374,,,,,,Richmond Community Schools,2019-06-03T04:00:00.000Z,2019-08-02T04:00:00.000Z,R,,,12:00 PM to 01:00 PM,,,,L,1,N,US,130176,,2019,Wayne
-85.77278003,39.79940952,42175,Faith Lutheran Church,Open,"200 West McKenzie Road Greenfield, IN 46140",,Greenfield,IN,46140,,,,,,Greenfield Central Community School Corporation,2019-06-03T04:00:00.000Z,2019-07-26T04:00:00.000Z,"M, T, W, R, F",,,12:00 PM to 12:45 PM,,,,L,1,N,US,129433,,2019,Hancock
-85.12036664,41.06354462,42176,Renaissance Pointe YMCA,Open,"2323 Bowser Avenue Fort Wayne, IN 46803",,Fort Wayne,IN,46803,,,,,,Emmanuel Missionary Baptist Church,2019-06-10T04:00:00.000Z,2019-08-12T04:00:00.000Z,"M, T, W, R, F",,09:30 AM to 10:00 AM,12:00 PM to 12:45 PM,,,,"B, L",1,N,US,130027,,2019,Allen
-87.22383565,41.61683485,42177,Park Shore Commons Apts,Open,"880 North Wells Street Gary, IN 46403",,Gary,IN,46403,,,,,,Emmanuel Missionary Baptist Church,2019-06-24T04:00:00.000Z,2019-08-12T04:00:00.000Z,"M, T, W, R, F",,,01:15 PM to 01:30 PM,,,,L,1,N,US,129970,,2019,Lake
-85.64223231,40.56721646,42178,Allen Elementary School,Open,"1115 E Bradford Street Marion, IN 46953",,Marion,IN,46953,,,,,,Marion Community Schools,2019-06-03T04:00:00.000Z,2019-06-14T04:00:00.000Z,"M, T, W, R, F",,07:30 AM to 08:00 AM,11:30 AM to 12:00 PM,,,,"B, L",1,N,US,129123,,2019,Grant
-85.68973273,40.57444749,42179,Kendall Elementary School,Open,"2009 W. Kem Road Marion, IN 46952",,Marion,IN,46952,,,,,,Marion Community Schools,2019-06-03T04:00:00.000Z,2019-06-14T04:00:00.000Z,"M, T, W, R, F",,07:30 AM to 08:00 AM,11:30 AM to 12:00 PM,,,,"B, L",1,N,US,28609,,2019,Grant
-85.6643794,40.57140866,42180,Riverview Elementary School,Open,"513 W. Buckingham Rd Marion, IN 46952",,Marion,IN,46952,,,,,,Marion Community Schools,2019-06-03T04:00:00.000Z,2019-06-14T04:00:00.000Z,"M, T, W, R, F",,07:30 AM to 08:00 AM,11:30 AM to 12:00 PM,,,,"B, L",1,N,US,130044,,2019,Grant
-84.87267622,39.82875849,42181,YMCA Day Camp,Open,"33 S 22nd St Richmond, IN 47374",,Richmond,IN,47374,,,,,,Richmond Family YMCA,2019-06-03T04:00:00.000Z,2019-08-02T04:00:00.000Z,"M, T, W, R, F",,08:00 AM to 08:30 AM,11:30 AM to 12:15 PM,,,,"B, L",1,N,US,130421,,2019,Wayne
-86.10773614,38.61524336,42182,Bradie Shrum Elementary,Open,"1103 N Shelby St Salem, IN 47167",,Salem,IN,47167,,,,,,Washington County YMCA,2019-06-03T04:00:00.000Z,2019-08-02T04:00:00.000Z,"M, T, W, R, F",,,11:30 AM to 12:30 PM,,03:30 PM to 04:15 PM,,"L, A",1,N,US,129208,,2019,Washington
-85.78468436,39.515706,42183,Girls Inc.,Open,"904 South Miller Street Shelbyville, IN 46176",,Shelbyville,IN,46176,,,,,,Shelbyville Central Schools,2019-05-28T04:00:00.000Z,2019-07-19T04:00:00.000Z,"M, T, W, R, F",,07:30 AM to 08:00 AM,11:00 AM to 12:30 PM,,,,"B, L",1,N,US,27761,,2019,Shelby
-86.10551155,39.61566648,42184,Isom Central School,Open,"50 E. Broadway Street Greenwood, IN 46143",,Greenwood,IN,46143,,,,,,Greenwood Community School Corp,2019-05-28T04:00:00.000Z,2019-07-19T04:00:00.000Z,"M, T, W, R, F",,,11:00 AM to 12:00 PM,,,,L,1,N,US,8948,,2019,Johnson
-85.571154,40.410144,42185,Fowlerton Community Park,Open,"2nd & Harriosn Fowlerton, IN 46930",,Fowlerton,IN,46930,,,,,,Madison-Grant United School Corp,2019-05-28T04:00:00.000Z,2019-07-03T04:00:00.000Z,"M, T, W, R, F",,,10:45 AM to 11:00 AM,,,,L,1,N,US,27591,,2019,Grant
-85.64218443,40.42055603,42186,Fairview Apts,Open,"600 N Barclay Street Fairmount, IN 46928",,Fairmount,IN,46928,,,,,,Madison-Grant United School Corp,2019-05-28T04:00:00.000Z,2019-07-03T04:00:00.000Z,"M, T, W, R, F",,,12:00 PM to 12:15 PM,,,,L,1,N,US,35596,,2019,Grant
-86.21138635,41.05739415,43336,Columbia Elementary School,Open,"1502 Elm Street Rochester, IN 46975",,Rochester,IN,46975,,,,,,Rochester Community School Corp,2019-03-18T04:00:00.000Z,2019-07-26T04:00:00.000Z,"M, T, W, R, F",,,11:00 AM to 12:00 PM,,,,L,1,N,US,50934,,2019,Fulton
-86.52419678,39.13771629,43337,Henderson Court Apts.,Open,"2475 S. Winslow Rd Bloomington, IN 47401",,Bloomington,IN,47401,,,,,,Community Kitchen of Monroe County,2019-05-28T04:00:00.000Z,2019-08-06T04:00:00.000Z,"M, T, W, R, F",,,10:30 AM to 10:45 AM,,,,L,1,N,US,28090,,2019,Monroe
-86.55406651,39.18004301,43338,The Reserve- Chandler's Glenn,Open,"1320 N. Arlington Park Dr. Bloomington, IN 47404",,Bloomington,IN,47404,,,,,,Community Kitchen of Monroe County,2019-05-28T04:00:00.000Z,2019-08-06T04:00:00.000Z,"M, T, W, R, F",,,12:15 PM to 12:30 PM,,,,L,1,N,US,31378,,2019,Monroe
-86.30333148,41.34677384,43339,Plymouth High School,Open,"1 Big Red Drive Plymouth, IN 46563",,Plymouth,IN,46563,,,,,,Plymouth Community School Corp,2019-06-05T04:00:00.000Z,2019-07-26T04:00:00.000Z,"M, T, W, R, F",,07:30 AM to 08:15 AM,11:00 AM to 12:30 PM,,,,"B, L",1,N,US,9648,,2019,Marshall
-86.14337111,39.91980949,43340,Nora Elementary School,Open,"1000 East 91st Street Indianapolis, IN 46240",,Indianapolis,IN,46240,,,,,,MSD of Washington Township,2019-05-30T04:00:00.000Z,2019-07-12T04:00:00.000Z,"M, T, W, R, F",,08:30 AM to 09:00 AM,10:30 AM to 11:15 AM,,,,"B, L",1,N,US,29719,,2019,Marion
-86.5446732,39.14050418,43341,Countryview Apartments,Open,"2500 S. Rockport Road Bloomington, IN 47403",,Bloomington,IN,47403,,,,,,Community Kitchen of Monroe County,2019-05-28T04:00:00.000Z,2019-08-06T04:00:00.000Z,"M, T, W, R, F",,,12:30 PM to 12:45 PM,,,,L,1,N,US,26829,,2019,Monroe
-85.82164414,40.7959124,43342,The Access,Open,"74 W. Canal St. Wabash, IN 46992",,Wabash,IN,46992,,,,,,Wabash City Schools,2019-06-03T04:00:00.000Z,2019-07-19T04:00:00.000Z,"M, T, W, R, F",,,,,,,S,1,N,US,31345,,2019,Wabash
-85.82368866,40.79392878,43343,YMCA,Open,"500 S. Cass St. Wabash, IN 46992",,Wabash,IN,46992,,,,,,Wabash City Schools,2019-06-03T04:00:00.000Z,2019-07-19T04:00:00.000Z,"M, T, W, R, F",,09:00 AM to 10:00 AM,11:00 AM to 12:30 PM,,,,"B, L",1,N,US,32085,,2019,Wabash
-86.36920635,39.54229081,43344,Brooklyn Elementary School,Open,"251 N Church St Brooklyn, IN 46111",,Brooklyn,IN,46111,,,,,,MSD of Martinsville,2019-06-03T04:00:00.000Z,2019-08-02T04:00:00.000Z,"S, M, T, W, R, F, S",,09:00 AM to 09:15 AM,12:15 PM to 12:40 PM,,,,"B, L",1,N,US,8081,,2019,Morgan
-85.47886417,41.15815956,43345,Mary Raber School,Open,"700 E. Jackson Street Columbia City, IN 46725",,Columbia City,IN,46725,,,,,,Whitley County Cons Schools,2019-07-22T04:00:00.000Z,2019-08-09T04:00:00.000Z,"M, T, W, R, F",,,11:15 AM to 12:15 PM,,,,L,1,N,US,9252,,2019,Whitley
-85.01686158,41.4288895,43346,Waterloo Elem. School,Open,"300 East Douglas Street Waterloo, IN 46793",,Waterloo,IN,46793,,,,,,DeKalb Co Central United Schools,2019-06-03T04:00:00.000Z,2019-07-25T04:00:00.000Z,"M, T, W, R, F",,08:00 AM to 09:00 AM,10:30 AM to 12:30 PM,,,,"B, L",1,N,US,31787,,2019,DeKalb
-86.55326641,41.38642935,43347,Oregon-Davis Elementary,Open,"5860 N 750 E Hamlet, IN 46532",,Hamlet,IN,46532,,,,,,Oregon-Davis School Corp,2019-06-03T04:00:00.000Z,2019-08-02T04:00:00.000Z,"M, T, W, R, F",,07:45 AM to 08:15 AM,11:00 AM to 11:30 AM,,,,"B, L",1,N,US,83115,,2019,Starke
-86.11874462,40.42667318,43348,Taylor Elementary,Open,"5500 Wea Dr Kokomo, IN 46902",,Kokomo,IN,46902,,,,,,Taylor Community School Corp,2019-06-03T04:00:00.000Z,2019-08-09T04:00:00.000Z,"M, T, W, R, F",,,11:30 AM to 12:30 PM,,,,L,1,N,US,10072,,2019,Howard
-86.03238464,41.17441151,43349,Mentone School,Open,"301 E Jackson Street Mentone, IN 46539",,Mentone,IN,46539,,,,,,Tippecanoe Valley School Corp,2019-05-28T04:00:00.000Z,2019-07-26T04:00:00.000Z,"M, T, W, R, F",,07:30 AM to 08:30 AM,11:00 AM to 12:30 PM,,,,"B, L",1,N,US,29375,,2019,Kosciusko
-86.03809795,41.10968803,43350,Tippecanoe Valley High School,Open,"8345 South State Road 19 Akron, IN 46910",,Akron,IN,46910,,,,,,Tippecanoe Valley School Corp,2019-05-28T04:00:00.000Z,2019-07-15T04:00:00.000Z,"M, T, W, R, F",,07:30 AM to 08:30 AM,11:00 AM to 12:30 PM,,,,"B, L",1,N,US,31442,,2019,Kosciusko
-87.40098,39.43566752,43351,Fuqua Elementary School,Open,"1111 Wheeler Avenue Terre Haute, IN 47802",,Terre Haute,IN,47802,,,,,,Vigo County School Corp,2019-07-22T04:00:00.000Z,2019-08-02T04:00:00.000Z,"M, T, W, R, F",,08:00 AM to 08:30 AM,11:30 AM to 12:00 PM,,,,"B, L",1,N,US,27677,,2019,Vigo
-87.36957958,39.46843719,43352,Meadows Elementary School,Open,"55 South Brown Avenue Terre Haute, IN 47803",,Terre Haute,IN,47803,,,,,,Vigo County School Corp,2019-07-22T04:00:00.000Z,2019-08-02T04:00:00.000Z,"M, T, W, R, F",,08:00 AM to 08:30 AM,11:30 AM to 12:00 PM,,,,"B, L",1,N,US,29350,,2019,Vigo
-87.41251046,39.4920125,43353,Quabache Elementary School,Open,"501 Maple Avenue Terre Haute, IN 47804",,Terre Haute,IN,47804,,,,,,Vigo County School Corp,2019-07-22T04:00:00.000Z,2019-08-02T04:00:00.000Z,"M, T, W, R, F",,08:00 AM to 08:30 AM,11:30 AM to 12:00 PM,,,,"B, L",1,N,US,30330,,2019,Vigo
-87.37482849,39.44343801,43354,Sugar Grove Elementary School,Open,"2800 Wallace Avenue Terre Haute, IN 47803",,Terre Haute,IN,47803,,,,,,Vigo County School Corp,2019-07-22T04:00:00.000Z,2019-08-02T04:00:00.000Z,"M, T, W, R, F",,08:00 AM to 08:30 AM,11:30 AM to 12:00 PM,,,,"B, L",1,N,US,31236,,2019,Vigo
-87.38554033,39.51426547,43355,Terre Town Elementary School,Open,"2121 Boston Avenue Terre Haute, IN 47805",,Terre Haute,IN,47805,,,,,,Vigo County School Corp,2019-07-22T04:00:00.000Z,2019-08-02T04:00:00.000Z,"M, T, W, R, F",,08:00 AM to 08:30 AM,11:30 AM to 12:00 PM,,,,"B, L",1,N,US,31329,,2019,Vigo
-87.51778035,41.61901065,43356,Bldg Q Pathfinder Dept,Open,"471-477 E State ST Hammond, IN 46320",,Hammond,IN,46320,,,,,,First Baptist Church of Hammond,2019-05-29T04:00:00.000Z,2019-07-10T04:00:00.000Z,W,,,,,,,S,1,N,US,25920,,2019,Lake
-87.51644101,41.61751655,43357,523 Sibley St - Spanish (general),Open,"523 Sibley St Hammond, IN 46320",,Hammond,IN,46320,,,,,,First Baptist Church of Hammond,2019-05-29T04:00:00.000Z,2019-08-11T04:00:00.000Z,"S, W, F, S",,09:30 AM to 10:30 AM,11:45 AM to 01:30 PM,,,,"B, L",1,N,US,25390,,2019,Lake
-86.2486868,39.71733166,43358,Lynhurst Park Apartments,Open,"3215 Joey Way Indianapolis, IN 46241",,Indianapolis,IN,46241,,,,,,MSD of Decatur Twp,2019-06-03T04:00:00.000Z,2019-07-19T04:00:00.000Z,"M, T, W, R, F",,,12:30 PM to 01:15 PM,,,,L,1,N,US,29068,,2019,Marion
-85.76447429,39.5119565,43359,Loper Elementary School,Open,"901 Loper Drive Shelbyville, IN 46176",,Shelbyville,IN,46176,,,,,,Shelbyville Central Schools,2019-05-23T04:00:00.000Z,2019-07-19T04:00:00.000Z,"M, T, W, R, F",,09:00 AM to 09:30 AM,11:00 AM to 12:30 PM,,,,"B, L",1,N,US,29026,,2019,Shelby
-86.41282794,39.419667,43360,Martinsville High School,Open,"1360 E Gray St Martinsville, IN 46151",,Martinsville,IN,46151,,,,,,MSD of Martinsville,2019-06-03T04:00:00.000Z,2019-08-02T04:00:00.000Z,"S, M, T, W, R, F, S",,07:40 AM to 08:10 AM,11:00 AM to 11:45 AM,,,,"B, L",1,N,US,9244,,2019,Morgan
-86.40380042,39.43085932,43361,Barbara Jordan YMCA,Open,"2039 East Morgan St Martinsville, IN 46151",,Martinsville,IN,46151,,,,,,MSD of Martinsville,2019-06-03T04:00:00.000Z,2019-08-02T04:00:00.000Z,"M, T, W, R, F",,,11:15 AM to 11:45 AM,,03:30 PM to 03:50 PM,,"L, A",1,N,US,7927,,2019,Morgan
-86.04865642,39.481902,43362,Johnson Co Boys & Girls Club,Open,"101 Hurricane Street Franklin, IN 46131",,Franklin,IN,46131,,,,,,Franklin Community School Corp,2019-06-03T04:00:00.000Z,2019-07-31T04:00:00.000Z,"M, T, W, R, F",,,11:15 AM to 11:45 AM,,01:45 PM to 02:00 PM,,"L, A",1,N,US,28520,,2019,Johnson
-86.04713013,39.47668769,43363,Province Park,Open,"396 Branigin Blvd. Franklin, IN 46131",,Franklin,IN,46131,,,,,,Franklin Community School Corp,2019-06-03T04:00:00.000Z,2019-07-31T04:00:00.000Z,"M, T, W, R, F",,,11:30 AM to 12:00 PM,,01:45 PM to 02:00 PM,,"L, A",1,N,US,30297,,2019,Johnson
-85.15697303,40.35068347,43364,Redkey Elem. School,Open,"500 W Main street Redkey, IN 47373",,Redkey,IN,47373,,,,,,Jay County School Corporation,2019-06-10T04:00:00.000Z,2019-07-26T04:00:00.000Z,"M, T, W, R, F",,,11:00 AM to 01:00 PM,09:45 AM to 10:15 AM,,to,"L, M",1,N,US,30416,,2019,Jay
-85.21543904,40.37047992,43365,Westlawn Elem. School,Open,"234 Pearl Street Dunkirk, IN 47336",,Dunkirk,IN,47336,,,,,,Jay County School Corporation,2019-06-10T04:00:00.000Z,2019-07-26T04:00:00.000Z,"M, T, W, R, F",,,11:00 AM to 01:00 PM,09:45 AM to 10:15 AM,,to,"L, M",1,N,US,31877,,2019,Jay
-86.02437605,39.71764052,43366,Wildwood Farms,Open,"3535 Wildwood Farms Blvd Indianapolis, IN 46239",,Indianapolis,IN,46239,,,,,,Franklin Twp Comm School Corp,2019-05-28T04:00:00.000Z,2019-07-12T04:00:00.000Z,"M, T, W, R, F",,,11:15 AM to 11:45 AM,,,,L,1,N,US,31941,,2019,Marion
-85.667382,40.5374255,43367,Marion High School,Open,"750 W. 26th Street Marion, IN 46953",,Marion,IN,46953,,,,,,Marion Community Schools,2019-06-03T04:00:00.000Z,2019-06-20T04:00:00.000Z,"M, T, W, R",,07:30 AM to 08:00 AM,11:30 AM to 12:00 PM,,,,"B, L",1,N,US,29178,,2019,Grant
-85.24564242,40.29973649,43368,Albany Elementary School,Open,"700 W. State Street Albany, IN 47320",,Albany,IN,47320,,,,,,Delaware Community School Corp,2019-06-10T04:00:00.000Z,2019-07-31T04:00:00.000Z,"M, T, W, R, F",,08:45 AM to 09:30 AM,11:30 AM to 12:30 PM,,,,"B, L",1,N,US,25471,,2019,Delaware
-86.27056728,39.83367728,43369,The Salvation Army Eagle Creek,Open,"4400 N High School Rd Indianapolis, IN 46254",,Indianapolis,IN,46254,,,,,,Salvation Army Eagle Creek,2019-06-10T04:00:00.000Z,2019-07-26T04:00:00.000Z,"M, T, W, R, F",,,11:45 AM to 12:30 PM,,03:15 PM to 03:30 PM,,"L, A",1,N,US,10104,,2019,Marion
-86.28505833,41.7001765,43370,Fremont Park,Open,"1831 North Fremont South Bend, IN 46601",,South Bend,IN,46601,,,,,,South Bend Community School Corp,2019-06-17T04:00:00.000Z,2019-08-02T04:00:00.000Z,"M, T, W, R, F",,,11:40 AM to 12:40 PM,,,,L,1,N,US,27642,,2019,St. Joseph
-87.51848993,41.6182793,43371,473 E Sibley St Jr 3,Open,"473 Sibley Street Hammond, IN 46320",,Hammond,IN,46320,,,,,,First Baptist Church of Hammond,2019-05-29T04:00:00.000Z,2019-07-10T04:00:00.000Z,W,,,,,,,S,1,N,US,80515,,2019,Lake
-87.51848993,41.6182793,43372,473 E Sibley St - General Open,Open,"473 Siblley Street Hammond, IN 46320",,Hammond,IN,46320,,,,,,First Baptist Church of Hammond,2019-05-29T04:00:00.000Z,2019-08-11T04:00:00.000Z,"M, T, W",,09:30 AM to 10:30 AM,,,,,"B, S",1,N,US,25385,,2019,Lake
-86.02531988,39.7917135,43373,Pleasant Run Elementary School,Open,"1800 N. Franklin Road Indianapolis, IN 46219",,Indianapolis,IN,46219,,,,,,MSD of Warren Township,2019-06-10T04:00:00.000Z,2019-07-19T04:00:00.000Z,"M, T, W, R, F",,,11:00 AM to 01:00 PM,,,,L,1,N,US,30202,,2019,Marion
-85.50493987,40.61387335,43374,Eastbrook North Elementary,Open,"504 S First Street Van Buren, IN 46991",,Van Buren,IN,46991,,,,,,Eastbrook Community School Corp,2019-06-03T04:00:00.000Z,2019-06-28T04:00:00.000Z,"M, T, W, R, F",,,12:00 PM to 12:25 PM,,,,L,1,N,US,8505,,2019,Grant
-85.77949773,39.79257297,43382,Greenfield Central High School,Open,"810 N. Broadway Greenfield, IN 46140",,Greenfield,IN,46140,,,,,,Greenfield Central Community School Corporation,2019-06-03T04:00:00.000Z,2019-07-26T04:00:00.000Z,"M, T, W, R, F",,08:00 AM to 09:00 AM,11:30 AM to 01:30 PM,,,,"B, L",1,N,US,27908,,2019,Hancock
-87.2003894,39.160368,43386,Jasonville,Open,"315 S. Lawton St. Jasonville, IN 47438",,Jasonville,IN,47438,,,,,,SON Ministries Inc.,2019-05-28T04:00:00.000Z,2019-08-02T04:00:00.000Z,"M, T, W, R, F",,,12:00 PM to 01:00 PM,,,,L,1,N,US,8972,,2019,Greene
-86.01008204,39.82763907,43389,Finish Line Boys & Girls Club,Open,"3870 N. Post Road Indianapolis, IN 46226",,Indianapolis,IN,46226,,,,,,Boys And Girls Clubs of Indianapolis,2018-10-08T04:00:00.000Z,2019-09-30T04:00:00.000Z,"M, T, W, R, F",,,12:30 PM to 02:00 PM,,04:30 PM to 06:00 PM,,"L, A",1,N,US,27498,,2019,Marion
-86.177997,41.6661435,43393,Central Park,Open,"295 East Mishawaka Avenue Mishawka, IN 46545",,Mishawka,IN,46545,,,,,,Penn-Harris-Madison School Corp,2019-06-10T04:00:00.000Z,2019-08-09T04:00:00.000Z,"M, T, W, R, F",,,12:30 PM to 01:15 PM,,,,L,1,N,US,8221,,2019,St. Joseph
-87.12679275,39.03830144,43397,Linton First Christian Church,Open,"9878 W. State Rd 54 Linton, IN 47441",,Linton,IN,47441,,,,,,SON Ministries Inc.,2019-05-26T04:00:00.000Z,2019-08-04T04:00:00.000Z,S,,,,,,,S,1,N,US,82519,,2019,Greene
-87.16554021,39.03503882,43799,Linton City Park,Open,"Hwy 54, A St. NE Linton, IN 47441",,Linton,IN,47441,,,,,,SON Ministries Inc.,2019-05-28T04:00:00.000Z,2019-08-02T04:00:00.000Z,"M, T, W, R, F",,,12:00 PM to 01:00 PM,,,,L,1,N,US,9155,,2019,Greene
-85.03378685,41.06274054,43802,Meadowbrook Park,Open,"1177 Woodmere New Haven, IN 46774",,New Haven,IN,46774,,,,,,"East Allen Family Resource Center, Inc.",2019-06-03T04:00:00.000Z,2019-07-26T04:00:00.000Z,"M, T, W, R, F",,,11:30 AM to 12:30 PM,,,,L,1,N,US,9285,,2019,Allen
-85.01641378,41.06911046,43805,Schnelker Park,Open,"956 Park Ave. New Haven, IN 46774",,New Haven,IN,46774,,,,,,"East Allen Family Resource Center, Inc.",2019-07-01T04:00:00.000Z,2019-07-26T04:00:00.000Z,"M, T, W, R, F",,,11:30 AM to 12:30 PM,,,,L,1,N,US,9867,,2019,Allen
-85.71989228,40.67435446,43809,Lafontaine United Methodist,Open,"2 W Kendall St. Lafontaine, IN 46940",,Lafontaine,IN,46940,,,,,,Wabash City Schools,2019-06-03T04:00:00.000Z,2019-07-19T04:00:00.000Z,"M, T, W, R, F",,,11:30 AM to 12:30 PM,,,,L,1,N,US,28751,,2019,Wabash
-85.62613507,39.43030622,44207,YMCA Summer Fun Days @ St Paul,Open,"202 School Street St. Paul, IN 47472",,St. Paul,IN,47472,,,,,,Young Men's Christian Association of Greater Indianapolis,2019-06-03T04:00:00.000Z,2019-07-31T04:00:00.000Z,"M, W",,,12:00 PM to 01:00 PM,,,,L,1,N,US,32141,,2019,Decatur
-85.1268105,41.34848752,44210,Garrett Middle School,Open,"800 E. Houston St Garrett, IN 46738",,Garrett,IN,46738,,,,,,Garrett-Keyser-Butler Community School Corporation,2019-06-03T04:00:00.000Z,2019-08-02T04:00:00.000Z,"M, T, W, R, F",,07:30 AM to 08:30 AM,11:30 AM to 01:00 PM,,,,"B, L",1,N,US,8693,,2019,DeKalb
-87.29225352,40.2930406,44212,Williamsport Park Pavilion,Open,"Park Ave. Williasport, IN 47993",,Williasport,IN,47993,,,,,,MSD of Warren County,2019-06-03T04:00:00.000Z,2019-07-26T04:00:00.000Z,"M, T, W, R, F",,07:30 AM to 08:30 AM,11:00 AM to 12:30 PM,,,,"B, L",1,N,US,10323,,2019,Warren
-86.09895,39.6999585,44214,Strawbridge Green Apartments,Open,"Strawbridge Green Apts. Indianapolis, IN 46237",,Indianapolis,IN,46237,,,,,,Perry Township Schools,2019-05-28T04:00:00.000Z,2019-07-17T04:00:00.000Z,"M, T, W, R, F",,,01:40 PM to 02:00 PM,,,,L,1,N,US,31220,,2019,Marion
-87.49609032,41.678154,44216,Whiting Family YMCA,Open,"1938 Clark St Whiting, IN 46394",,Whiting,IN,46394,,,,,,School City of Whiting,2019-06-03T04:00:00.000Z,2019-08-02T04:00:00.000Z,"M, T, W, R, F",,08:00 AM to 09:00 AM,12:00 PM to 12:45 PM,,,,"B, L",1,N,US,10295,,2019,Lake
-87.0438006,40.76037748,44218,Tri-County Intermediate School,Open,"200W North Street Wolcott, IN 47995",,Wolcott,IN,47995,,,,,,Tri-County School Corporation,2019-06-03T04:00:00.000Z,2019-07-25T04:00:00.000Z,"M, T, W, R",,07:30 AM to 08:30 AM,11:00 AM to 01:00 PM,,,,"B, L",1,N,US,84085,,2019,White
-86.26290837,41.68208117,44220,South Bend Mutual Homes Park,Open,"914 Lincoln Way West South Bend, IN 46601",,South Bend,IN,46601,,,,,,South Bend Community School Corp,2019-06-17T04:00:00.000Z,2019-08-02T04:00:00.000Z,"M, T, W, R, F",,,11:45 AM to 12:45 PM,,,,L,1,N,US,83740,,2019,St. Joseph
-86.22555673,41.66682295,44613,Adams School Playground,Open,"808 S Twyckenham Drive South Bend, IN 46615",,South Bend,IN,46615,,,,,,South Bend Community School Corp,2019-06-24T04:00:00.000Z,2019-08-01T04:00:00.000Z,"M, T, W, R, F",,,10:50 AM to 12:10 PM,,,,L,1,N,US,109545,,2019,St. Joseph
-86.51500076,39.76030441,44614,Ellis Park,Open,"600 E Main St. Danville, IN 46122",,Danville,IN,46122,,,,,,Danville Community School Corp,2019-05-29T04:00:00.000Z,2019-08-01T04:00:00.000Z,"M, T, W, R, F",,,12:00 PM to 01:00 PM,,,,L,1,N,US,81621,,2019,Hendricks
-84.88916155,39.81427045,44615,Hibberd Middle School,Open,"900 S L Street Richmond, IN 47374",,Richmond,IN,47374,,,,,,Richmond Community Schools,2019-06-03T04:00:00.000Z,2019-06-28T04:00:00.000Z,"M, T, W, R, F",,08:30 AM to 09:15 AM,11:00 AM to 01:00 PM,,,,"B, L",1,N,US,82084,,2019,Wayne
-84.99813757,39.42855037,44616,Franklin County High School,Open,"1 wildcat ln brookville, IN 47012",,brookville,IN,47012,,,,,,Franklin County Community Schools,2019-06-03T04:00:00.000Z,2019-08-06T04:00:00.000Z,"M, T, W, R",,,11:00 AM to 12:45 PM,,,,L,1,N,US,81791,,2019,Franklin
-85.1884906,39.50255201,44617,Laurel Public Library,Open,"200 clay st laurel, IN 47024",,laurel,IN,47024,,,,,,Franklin County Community Schools,2019-06-03T04:00:00.000Z,2019-07-25T04:00:00.000Z,"M, T, W, R",,,12:00 PM to 01:00 PM,,,,L,1,N,US,82427,,2019,Franklin
-87.16819083,38.65869346,44618,Washington Jr.- Sr. High School,Open,"608 E Walnut St Washinton, IN 47501",,Washinton,IN,47501,,,,,,Washington Community Schools,2019-05-28T04:00:00.000Z,2019-07-31T04:00:00.000Z,"M, T, W, R, F",,,11:30 AM to 12:30 PM,,,,L,1,N,US,84236,,2019,Daviess
-86.77293017,40.74045049,44619,Meadowlawn Elementary School,Open,"715 W Ohio Street Monticello, IN 47960",,Monticello,IN,47960,,,,,,Twin Lakes School Corporation,2019-06-03T04:00:00.000Z,2019-06-21T04:00:00.000Z,"M, T, W, R, F",,08:00 AM to 08:30 AM,11:00 AM to 11:30 AM,,,,"B, L",1,N,US,82698,,2019,White
-85.84604063,41.41007139,44620,Milford Public Library,Open,"101 N Main Street Milford, IN 46542",,Milford,IN,46542,,,,,,Wawasee Community School Corp,2019-06-03T04:00:00.000Z,2019-07-26T04:00:00.000Z,"M, T, W, R, F",,,11:45 AM to 12:15 PM,,,,L,1,N,US,82756,,2019,Kosciusko
-86.21729721,39.72321881,44621,Bel Air Park,Open,"2915 S. Tibbs Ave. Indianapolis, IN 46221",,Indianapolis,IN,46221,,,,,,MSD of Decatur Twp,2019-06-03T04:00:00.000Z,2019-07-19T04:00:00.000Z,"M, T, W, R, F",,,11:30 AM to 12:30 PM,,,,L,1,N,US,80739,,2019,Marion
-86.079294,39.83303054,44622,First Trinity Lutheran Church,Open,"5321 E. 42nd St Indianapolis, IN 46226",,Indianapolis,IN,46226,,,,,,"Faith, Hope and Love International",2019-06-17T04:00:00.000Z,2019-08-02T04:00:00.000Z,"M, T, W, R, F, S",,09:00 AM to 10:00 AM,12:00 PM to 01:00 PM,,,,"B, L",1,N,US,81741,,2019,Marion
-85.886359,38.94261959,44626,Zion Lutheran School,Open,"1501 Gaiser Dr. Seymour, IN 47274",,Seymour,IN,47274,,,,,,Seymour Community Schools,2019-06-03T04:00:00.000Z,2019-07-26T04:00:00.000Z,"M, T, W, R, F",,,11:15 AM to 12:00 PM,,,,L,1,N,US,84499,,2019,Jackson
-84.94473866,40.05072266,44628,Randolph Southern Jr-Sr High,Open,"2 Rebel Drive Lynn, IN 47355",,Lynn,IN,47355,,,,,,Randolph Southern School Corp,2019-06-03T04:00:00.000Z,2019-07-31T04:00:00.000Z,"M, T, W, R, F",,,11:00 AM to 12:30 PM,,,,L,1,N,US,83362,,2019,Randolph
-84.93996513,40.049082,45009,Washington Township Library,Open,"107 N. Main Street Lynn, IN 47355",,Lynn,IN,47355,,,,,,Randolph Southern School Corp,2019-06-04T04:00:00.000Z,2019-07-11T04:00:00.000Z,"T, R",,,12:00 PM to 12:30 PM,,,,L,1,N,US,84244,,2019,Randolph
-86.00994978,39.81934242,45010,Sanctuary Outreach,Open,"3400 N. Post Road Indianapolis, IN 46226",,Indianapolis,IN,46226,,,,,,The Sanctuary Outreach,2019-06-03T04:00:00.000Z,2019-07-12T04:00:00.000Z,"M, T, W, R, F",,08:00 AM to 09:00 AM,12:00 PM to 01:00 PM,,,,"B, L",1,N,US,83596,,2019,Marion
-85.06975102,38.74692264,45011,Switzerland County Baptist Church,Open,"307 Main Cross Vevay, IN 47043",,Vevay,IN,47043,,,,,,Switzerland County School Corp,2019-06-24T04:00:00.000Z,2019-06-28T04:00:00.000Z,"M, T, W, R, F",,08:30 AM to 09:15 AM,,,,,B,1,N,US,88615,,2019,Switzerland
-85.10905165,41.00944076,45012,Villa Capri Apts,Open,"2015 Fox Point Trail Fort Wayne, IN 46816",,Fort Wayne,IN,46816,,,,,,Boys and Girls Club of Fort Wayne,2019-06-10T04:00:00.000Z,2019-08-02T04:00:00.000Z,"M, T, W, R, F",,,12:00 PM to 01:00 PM,,,,L,1,N,US,31671,,2019,Allen
-86.58882027,39.15562738,45013,Orchard Glen Apartments,Open,"1175 Woodside Drive Bloomington, IN 47404",,Bloomington,IN,47404,,,,,,Community Kitchen of Monroe County,2019-05-28T04:00:00.000Z,2019-08-06T04:00:00.000Z,"M, T, W, R, F",,,11:00 AM to 11:15 AM,,,,L,1,N,US,29937,,2019,Monroe
-86.53548311,39.12146048,45014,Southcrest Mobile Manor,Open,"315 W. Gordon Pike Bloomington, IN 47403",,Bloomington,IN,47403,,,,,,Community Kitchen of Monroe County,2019-05-28T04:00:00.000Z,2019-08-06T04:00:00.000Z,"M, T, W, R, F",,,12:00 PM to 12:15 PM,,,,L,1,N,US,30970,,2019,Monroe
-86.52254136,39.14603946,45015,Walnut Woods,Open,"802 E. Miller Drive Bloomington, IN 47403",,Bloomington,IN,47403,,,,,,Community Kitchen of Monroe County,2019-05-28T04:00:00.000Z,2019-08-06T04:00:00.000Z,"M, T, W, R, F",,,10:50 AM to 11:05 AM,,,,L,1,N,US,31747,,2019,Monroe
-85.12250041,41.03714714,45016,Gracepoint,Open,"5100 Gaywood Fort Wayne, IN 46806",,Fort Wayne,IN,46806,,,,,,Boys and Girls Club of Fort Wayne,2019-06-11T04:00:00.000Z,2019-06-29T04:00:00.000Z,"M, T, W, R, F",,,12:00 PM to 01:00 PM,,,,L,1,N,US,27852,,2019,Allen
-87.04650635,41.48298042,45017,Thomas Jefferson Middle School,Open,"1600 Roosevelt Rd. Valparaiso, IN 46383",,Valparaiso,IN,46383,,,,,,Valparaiso Community Schools,2019-06-06T04:00:00.000Z,2019-07-26T04:00:00.000Z,"M, T, W, R, F",,07:00 AM to 07:30 AM,01:00 PM to 01:30 PM,,,,"B, L",1,N,US,31413,,2019,Porter
-87.51824783,41.61918853,45018,Bldg S,Open,"463 E. State ST Hammond, IN 46320",,Hammond,IN,46320,,,,,,First Baptist Church of Hammond,2019-05-29T04:00:00.000Z,2019-07-10T04:00:00.000Z,W,,,,,,,S,1,N,US,80809,,2019,Lake
-86.27702751,41.70458945,45019,Marquette Montessori School,Open,"1818 Bergan Street. South Bend, IN 46628",,South Bend,IN,46628,,,,,,South Bend Community School Corp,2019-06-17T04:00:00.000Z,2019-08-02T04:00:00.000Z,"M, T, W, R, F",,,11:35 AM to 12:35 PM,,,,L,1,N,US,129807,,2019,St. Joseph
-86.24057153,41.65694108,45020,Studebaker & Playground,Open,"724 E. Dubail St. South Bend, IN 46613",,South Bend,IN,46613,,,,,,South Bend Community School Corp,2019-06-17T04:00:00.000Z,2019-08-02T04:00:00.000Z,"M, T, W, R, F",,,11:35 AM to 12:35 PM,,,,L,1,N,US,31229,,2019,St. Joseph
-86.202414,39.8932125,45021,Forest Ridge Apts,Open,"7676 Horsetail Dr Indianapolis, IN 46260",,Indianapolis,IN,46260,,,,,,"Faith, Hope and Love International",2019-06-03T04:00:00.000Z,2019-07-31T04:00:00.000Z,"M, T, W, R, F, S",,,01:00 PM to 02:00 PM,,,,L,1,N,US,27576,,2019,Marion
-86.14728575,39.81816867,45022,Our Redeemer Lutheran Church,Open,"3421 N. Park Ave Indianapolis, IN 46205",,Indianapolis,IN,46205,,,,,,"Faith, Hope and Love International",2019-06-15T04:00:00.000Z,2019-07-27T04:00:00.000Z,S,,,10:30 AM to 11:15 AM,,,,L,1,N,US,29965,,2019,Marion
-85.64215428,40.33923749,45023,Summitville Christian Church,Open,"712 E Walnut Street Summitville, IN 46070",,Summitville,IN,46070,,,,,,Madison-Grant United School Corp,2019-05-28T04:00:00.000Z,2019-07-03T04:00:00.000Z,"M, T, W, R, F",,,12:30 PM to 12:50 PM,,,,L,1,N,US,39168,,2019,Madison
-85.95728627,39.78902633,45024,Brookview Elementary School,Open,"1550 N Cumberland Rd Indianapolis, IN 46229",,Indianapolis,IN,46229,,,,,,MSD of Warren Township,2019-06-10T04:00:00.000Z,2019-07-19T04:00:00.000Z,"M, T, W, R, F",,,11:00 AM to 01:00 PM,,,,L,1,N,US,34417,,2019,Marion
-86.04059778,39.77886489,45025,Ransburg YMCA,Open,"501 N. Shortridge Rd. Indianapolis, IN 46219",,Indianapolis,IN,46219,,,,,,MSD of Warren Township,2018-10-08T04:00:00.000Z,2019-07-26T04:00:00.000Z,"M, T, W, R, F",,08:20 AM to 08:35 AM,12:20 PM to 12:35 PM,,,,"B, L",1,N,US,38316,,2019,Marion
-86.11286344,39.78658953,45026,Paramount School of Excellence,Open,"3020 Nowland Ave Indianapolis, IN 46201",,Indianapolis,IN,46201,,,,,,Paramount School of Excellence,2019-06-03T04:00:00.000Z,2019-07-26T04:00:00.000Z,"M, T, W, R, F",,07:30 AM to 08:30 AM,11:00 AM to 01:00 PM,,,,"B, L",1,N,US,37988,,2019,Marion
-86.31465462,41.68069306,45027,Harbor Homes,Open,"4802 Trenton st. South Bend, IN 46619",,South Bend,IN,46619,,,,,,South Bend Community School Corp,2019-06-17T04:00:00.000Z,2019-08-02T04:00:00.000Z,"M, T, W, R, F",,,10:45 AM to 11:45 AM,,,,L,1,N,US,36167,,2019,St. Joseph
-85.59543952,40.85844448,45028,Andrews Elementary School,Open,"509 East Jefferson St. Andrews, IN 46702",,Andrews,IN,46702,,,,,,Huntington County Community School Corporation,2019-07-22T04:00:00.000Z,2019-08-02T04:00:00.000Z,"M, T, W, R, F",,08:00 AM to 08:30 AM,10:30 AM to 11:00 AM,,,,"B, L",1,N,US,80611,,2019,Huntington
-85.50612964,40.85944949,45029,Horace Mann Education Center,Open,"2485 Waterworks Road Huntington, IN 46750",,Huntington,IN,46750,,,,,,Huntington County Community School Corporation,2019-07-22T04:00:00.000Z,2019-08-02T04:00:00.000Z,"M, T, W, R, F",,08:00 AM to 08:30 AM,10:30 AM to 11:00 AM,,,,"B, L",1,N,US,8877,,2019,Huntington
-85.47407148,40.89811265,45030,Flint Springs Elementary School,Open,"1360 E. Tipton Huntington, IN 46750",,Huntington,IN,46750,,,,,,Huntington County Community School Corporation,2019-06-05T04:00:00.000Z,2019-08-02T04:00:00.000Z,"M, T, W, R, F",,08:00 AM to 08:30 AM,10:30 AM to 11:00 AM,,,,"B, L",1,N,US,81752,,2019,Huntington
-85.18418464,41.0289973,45031,Camp Kekionga,Open,"3135 Elmhurst Drive Fort Wayne, IN 46809",,Fort Wayne,IN,46809,,,,,,Emmanuel Missionary Baptist Church,2019-06-10T04:00:00.000Z,2019-08-12T04:00:00.000Z,"M, T, W, R, F",,,11:30 AM to 12:15 PM,,,,L,1,N,US,81004,,2019,Allen
-85.13640615,41.06418101,45032,Cooper Center,Open,"2307 S. Clinton St. Fort Wayne, IN 46803",,Fort Wayne,IN,46803,,,,,,Emmanuel Missionary Baptist Church,2019-07-29T04:00:00.000Z,2019-08-12T04:00:00.000Z,"M, T, W, R, F",,,01:15 PM to 01:45 PM,,,,L,1,N,US,81323,,2019,Allen
-85.11806885,41.07339724,45033,Jennings Center,Open,"1330 McCulloch Street Fort Wayne, IN 46803",,Fort Wayne,IN,46803,,,,,,Emmanuel Missionary Baptist Church,2019-08-05T04:00:00.000Z,2019-08-12T04:00:00.000Z,"M, T, W, R, F",,,01:15 PM to 01:45 PM,,,,L,1,N,US,82258,,2019,Allen
-85.126584,41.05652021,45034,Weisser Park Youth Center,Open,"802 Eckart Street Fort Wayne, IN 46806",,Fort Wayne,IN,46806,,,,,,Emmanuel Missionary Baptist Church,2019-07-29T04:00:00.000Z,2019-08-12T04:00:00.000Z,"M, T, W, R, F",,,01:15 PM to 01:45 PM,,,,L,1,N,US,84275,,2019,Allen
-86.544864,39.16865149,45035,BBCC Teen Camp,Open,"930 W. Seventh Street Bloomington, IN 47404",,Bloomington,IN,47404,,,,,,City of Bloomington Parks and Recreation Department,2019-06-03T04:00:00.000Z,2019-07-26T04:00:00.000Z,"M, T, W, R, F",,,,,,,S,1,N,US,80727,,2019,Monroe
-86.68759845,41.60478861,45036,Allesee Park,Open,"Boyd Blvd. LaPorte, IN 46350",,LaPorte,IN,46350,,,,,,La Porte Community School Corp,2019-06-10T04:00:00.000Z,2019-07-25T04:00:00.000Z,"M, T, W, R, F",,,11:30 AM to 12:00 PM,,,,L,1,N,US,80593,,2019,LaPorte
-86.98435857,39.12205409,45037,Worthington,Open,"Worthington Park Worthington, IN 47471",,Worthington,IN,47471,,,,,,SON Ministries Inc.,2019-05-28T04:00:00.000Z,2019-08-02T04:00:00.000Z,"M, T, W, R, F",,,12:00 PM to 01:00 PM,,,,L,1,N,US,10352,,2019,Greene
-87.54035022,37.96278353,45038,Bosse High School,Open,"1300 Washington Avenue Evansville, IN 47714",,Evansville,IN,47714,,,,,,Evansville-Vanderburgh Schools,2019-07-08T04:00:00.000Z,2019-07-19T04:00:00.000Z,"M, T, W, R, F",,08:15 AM to 08:30 AM,11:15 AM to 11:30 AM,,,,"B, L",1,N,US,80835,,2019,Vanderburgh
-86.26938497,39.68587323,45039,Carson Park,Open,"5400 W. High School Road Indianapolis, IN 46221",,Indianapolis,IN,46221,,,,,,MSD of Decatur Twp,2019-06-03T04:00:00.000Z,2019-07-19T04:00:00.000Z,"M, T, W, R, F",,,11:00 AM to 12:00 PM,,,,L,1,N,US,81058,,2019,Marion
-85.63131486,40.13511399,45040,Highland Junior High,Open,"2108 E 200 N. Anderson, IN 46012",,Anderson,IN,46012,,,,,,Anderson Community School Corp,2019-06-04T04:00:00.000Z,2019-06-27T04:00:00.000Z,"M, T, W, R",,07:45 AM to 08:30 AM,11:30 AM to 12:15 PM,,,,"B, L",1,N,US,82093,,2019,Madison
-86.19526065,39.89453979,45041,The Private Reserve,Open,"2044 Suffolk Lane Indianapolis, IN 46260",,Indianapolis,IN,46260,,,,,,MSD of Washington Township,2019-06-03T04:00:00.000Z,2019-07-12T04:00:00.000Z,"M, T, W, R, F",,,11:45 AM to 12:15 PM,,,,L,1,N,US,84001,,2019,Marion
-86.12861738,39.88531211,45042,Riverwood Park,Open,"7202 Crittenden Ave Indianapolis, IN 46241",,Indianapolis,IN,46241,,,,,,MSD of Washington Township,2019-06-03T04:00:00.000Z,2019-07-12T04:00:00.000Z,"M, T, W, R, F",,,11:30 AM to 12:15 PM,,,,L,1,N,US,83468,,2019,Marion
-85.66369127,40.5264867,45043,McCulloch Middle School,Open,"3528 S Washington Street Marion, IN 46953",,Marion,IN,46953,,,,,,Marion Community Schools,2019-06-03T04:00:00.000Z,2019-06-14T04:00:00.000Z,"M, T, W, R, F",,07:30 AM to 08:00 AM,11:30 AM to 12:00 PM,,,,"B, L",1,N,US,82679,,2019,Grant
-84.97604483,40.17982717,45044,Winchester Community High School,Open,"700 N. Union Street Winchester, IN 47394",,Winchester,IN,47394,,,,,,Randolph Central School Corp,2019-06-03T04:00:00.000Z,2019-07-13T04:00:00.000Z,"M, T, W, R, F",,,11:00 AM to 01:00 PM,,,,L,1,N,US,84375,,2019,Randolph
-86.85524132,39.63861657,45045,Robe-Ann Park - Mobile Site,Open,"405 S Bloomington St. Greencastle, IN 46135",,Greencastle,IN,46135,,,,,,Greencastle Community School Corp,2019-06-03T04:00:00.000Z,2019-07-19T04:00:00.000Z,"M, T, W, R, F",,,11:00 AM to 01:00 PM,,,,L,1,N,US,83471,,2019,Putnam
-86.8558852,39.65082273,45046,Tzouanakis Elementary School,Open,"500 Linwood Drive Greencastle, IN 46135",,Greencastle,IN,46135,,,,,,Greencastle Community School Corp,2019-06-03T04:00:00.000Z,2019-06-28T04:00:00.000Z,"M, T, W, R, F",,08:30 AM to 09:30 AM,11:00 AM to 12:45 PM,,,,"B, L",1,N,US,84114,,2019,Putnam
-86.37721522,40.740012,45047,Fairview Elementary Kindergarten Camp,Open,"846 Cicott Street Logansport, IN 46947",,Logansport,IN,46947,,,,,,Logansport Community School Corp,2019-06-03T04:00:00.000Z,2019-07-11T04:00:00.000Z,"M, T, W, R, F",,08:30 AM to 09:00 AM,11:00 AM to 11:30 AM,,,,"B, L",1,N,US,81675,,2019,Cass
-87.48359559,39.45252721,45048,Consolidated Elementary School,Open,"4226 West Old U.S. 40 West Terre Haute, IN 47885",,West Terre Haute,IN,47885,,,,,,Vigo County School Corp,2019-07-22T04:00:00.000Z,2019-08-02T04:00:00.000Z,"M, T, W, R, F",,08:00 AM to 08:30 AM,11:30 AM to 12:00 PM,,,,"B, L",1,N,US,81312,,2019,Vigo
-87.37891988,39.46440262,45049,Woodrow Wilson Middle School,Open,"301m South 25th Street Terre Haute, IN 47803",,Terre Haute,IN,47803,,,,,,Vigo County School Corp,2019-06-03T04:00:00.000Z,2019-06-27T04:00:00.000Z,"M, T, W, R",,07:45 AM to 08:30 AM,10:30 AM to 12:00 PM,,,,"B, L",1,N,US,84414,,2019,Vigo
-87.51845524,41.60740483,45050,Eggers Middle School,Open,"5825 Blaine Ave Hammond, IN 46320",,Hammond,IN,46320,,,,,,School City of Hammond,2019-06-10T04:00:00.000Z,2019-08-08T04:00:00.000Z,"M, T, W, R, F",,09:15 AM to 10:15 AM,11:45 AM to 12:45 PM,,,,"B, L",1,N,US,81602,,2019,Lake
-86.04281065,39.85012506,45051,The Landings at 56th St,Open,"5350 Cider Mill Ln Indianapolis, IN 46226",,Indianapolis,IN,46226,,,,,,"Faith, Hope and Love International",2019-06-08T04:00:00.000Z,2019-07-27T04:00:00.000Z,"S, S",,,,,,,S,1,N,US,83991,,2019,Marion
-85.16867406,41.05769345,45052,Brookmill Apts,Open,"2857 Millbrook Dr. Fort Wayne, IN 46802",,Fort Wayne,IN,46802,,,,,,Boys and Girls Club of Fort Wayne,2019-06-10T04:00:00.000Z,2019-08-02T04:00:00.000Z,"M, T, W, R, F",,,12:00 PM to 01:00 PM,,,,L,1,N,US,26154,,2019,Allen
-85.03603766,41.40992283,45053,DeKalb Middle School,Open,"3338 County road 427 waterloo, IN 46793",,waterloo,IN,46793,,,,,,DeKalb Co Central United Schools,2019-07-22T04:00:00.000Z,2019-07-24T04:00:00.000Z,"M, T, W",,08:00 AM to 09:00 AM,12:00 PM to 02:00 PM,,,,"B, L",1,N,US,81451,,2019,DeKalb
-87.49300975,41.6709436,45054,Calumet College of St Joseph,Open,"2400 New York Ave Whiting, IN 46394",,Whiting,IN,46394,,,,,,School City of Hammond,2019-06-24T04:00:00.000Z,2019-07-19T04:00:00.000Z,"M, T, W, R, F",,08:30 AM to 09:00 AM,11:30 AM to 12:00 PM,,,,"B, L",1,N,US,80982,,2019,Lake
-86.59086509,39.13006563,45055,Cedar Chase,Open,"4385 Red Rock Rd. Bloomington, IN 47403",,Bloomington,IN,47403,,,,,,Community Kitchen of Monroe County,2019-05-28T04:00:00.000Z,2019-08-06T04:00:00.000Z,"M, T, W, R, F",,,11:30 AM to 11:45 AM,,,,L,1,N,US,81088,,2019,Monroe
-86.54232676,39.75761032,45056,Danville Community High School,Open,"100 Warrior Way Danville, IN 46122",,Danville,IN,46122,,,,,,Danville Community School Corp,2019-05-29T04:00:00.000Z,2019-08-01T04:00:00.000Z,"M, T, W, R, F",,,12:00 PM to 01:00 PM,,,,L,1,N,US,81417,,2019,Hendricks
-87.35081013,38.33076763,45057,Oakland City Elementary School,Open,"945 B South Franklin Oakland City, IN 47660",,Oakland City,IN,47660,,,,,,East Gibson School Corp,2019-05-28T04:00:00.000Z,2019-06-21T04:00:00.000Z,"M, T, W, R, F",,08:00 AM to 09:00 AM,11:00 AM to 12:00 PM,,,,"B, L",1,N,US,83070,,2019,Gibson
-87.51718186,41.62224341,45058,Hammond Housing Authority,Open,"445 Michigan Court Hammond, IN 46320",,Hammond,IN,46320,,,,,,School City of Hammond,2019-06-10T04:00:00.000Z,2019-08-02T04:00:00.000Z,"M, T, W, R, F",,09:00 AM to 10:00 AM,12:00 PM to 01:00 PM,,,,"B, L",1,N,US,82021,,2019,Lake
-85.78651216,39.50647445,45059,Shelbyville Senior High,Open,"2003 South Miller Street Shelbyville, IN 46176",,Shelbyville,IN,46176,,,,,,Shelbyville Central Schools,2019-05-24T04:00:00.000Z,2019-07-19T04:00:00.000Z,"M, T, W, R, F",,09:00 AM to 09:30 AM,11:00 AM to 12:30 PM,,,,"B, L",1,N,US,83676,,2019,Shelby
-84.97981597,40.17273241,45060,Randolph County YMCA,Open,"103 N. East Street Winchester, IN 47394",,Winchester,IN,47394,,,,,,Randolph Central School Corp,2019-06-03T04:00:00.000Z,2019-07-13T04:00:00.000Z,"M, T, W, R, F",,,11:00 AM to 01:00 PM,,02:30 PM to 03:30 PM,,"L, A",1,N,US,87983,,2019,Randolph
-86.56734938,39.15899945,45061,Canterbury Apartments,Open,"540 S. Basswood Dr. Bloomington, IN 47403",,Bloomington,IN,47403,,,,,,Community Kitchen of Monroe County,2019-05-28T04:00:00.000Z,2019-08-06T04:00:00.000Z,"M, T, W, R, F",,,10:30 AM to 10:45 AM,,,,L,1,N,US,85244,,2019,Monroe
-85.12018403,41.06641767,45062,Villages of Hanna,Open,"2177 Eden Street Fort Wayne, IN 46803",,Fort Wayne,IN,46803,,,,,,Emmanuel Missionary Baptist Church,2019-06-10T04:00:00.000Z,2019-08-12T04:00:00.000Z,"M, T, W, R, F",,,01:15 PM to 01:45 PM,,,,L,1,N,US,97653,,2019,Allen
-87.4184687,39.4568513,45063,Vigo County YMCA,Open,"951 Dresser Dr Terre Haute, IN 47807",,Terre Haute,IN,47807,,,,,,Chances and Services for Youth,2019-06-03T04:00:00.000Z,2019-08-02T04:00:00.000Z,"M, T, W, R, F",,08:30 AM to 09:30 AM,11:30 AM to 12:00 PM,,,,"B, L",1,N,US,113542,,2019,Vigo
-86.1766425,39.81014547,45064,Barnes UMC,Open,"900 W. 30th St Indianapolis, IN 46208",,Indianapolis,IN,46208,,,,,,"Faith, Hope and Love International",2019-06-17T04:00:00.000Z,2019-07-31T04:00:00.000Z,"M, T, W, R",,,,,,,S,1,N,US,97042,,2019,Marion
-86.71703001,41.61021646,45065,Lincoln School,Open,"402 Harrison St. LaPorte, IN 46350",,LaPorte,IN,46350,,,,,,La Porte Community School Corp,2019-06-10T04:00:00.000Z,2019-07-25T04:00:00.000Z,"M, T, W, R, F",,,11:30 AM to 12:00 PM,,,,L,1,N,US,111762,,2019,LaPorte
-85.91723966,39.20562853,45066,Central Middle School,Open,"725 7th Street Columbus, IN 47201",,Columbus,IN,47201,,,,,,Bartholomew Consolidated Schools,2019-06-03T04:00:00.000Z,2019-08-02T04:00:00.000Z,"M, T, W, R, F",,08:00 AM to 08:30 AM,12:00 PM to 01:00 PM,,,,"B, L",1,N,US,101806,,2019,Bartholomew
-86.54198353,39.39811622,45067,Paragon Elementary School,Open,"Old SR 67 S Paragon, IN 46166",,Paragon,IN,46166,,,,,,MSD of Martinsville,2019-06-03T04:00:00.000Z,2019-08-02T04:00:00.000Z,"M, T, W, R, F",,,12:15 PM to 12:40 PM,,,,L,1,N,US,9571,,2019,Morgan
-86.73393278,41.61483307,45068,Riley School,Open,"516 Weller Ave. LaPorte, IN 46350",,LaPorte,IN,46350,,,,,,La Porte Community School Corp,2019-06-10T04:00:00.000Z,2019-07-25T04:00:00.000Z,"M, T, W, R, F",,07:30 AM to 08:30 AM,11:30 AM to 12:30 PM,,,,"B, L",1,N,US,112760,,2019,LaPorte
-86.70154211,41.61010153,45069,Hailmann School,Open,"1001 E. Ohio St. LaPorte, IN 46350",,LaPorte,IN,46350,,,,,,La Porte Community School Corp,2019-06-10T04:00:00.000Z,2019-07-25T04:00:00.000Z,"M, T, W, R, F",,,11:30 AM to 12:00 PM,,,,L,1,N,US,8778,,2019,LaPorte
-85.42546093,40.68085261,45070,Knight Bergman Center,Open,"132 Nancy Street Warren, IN 46792",,Warren,IN,46792,,,,,,Huntington County Community School Corporation,2019-06-05T04:00:00.000Z,2019-06-28T04:00:00.000Z,"M, T, W, R, F",,,11:45 AM to 12:30 PM,,,,L,1,N,US,107599,,2019,Huntington
-86.03662049,39.76793239,45071,Shiloh Estates,Open,"7441 Chinook Circle Indianapolis, IN 46219",,Indianapolis,IN,46219,,,,,,MSD of Warren Township,2019-06-10T04:00:00.000Z,2019-07-19T04:00:00.000Z,"M, T, W, R, F",,,12:30 PM to 01:00 PM,,,,L,1,N,US,112985,,2019,Marion
-85.14519634,41.06333554,45072,Greater Progressive Baptist Church,Open,"2340 Fairfield Avenue Fort Wayne, IN 46807",,Fort Wayne,IN,46807,,,,,,Emmanuel Missionary Baptist Church,2019-06-24T04:00:00.000Z,2019-08-12T04:00:00.000Z,"M, T, W, R",,,02:30 PM to 03:00 PM,,,,L,1,N,US,111090,,2019,Allen
-85.07834006,41.49029555,45073,Country Meadow Elementary School,Open,"2410 CR 10 Ashley, IN 46705",,Ashley,IN,46705,,,,,,DeKalb Co Central United Schools,2019-07-24T04:00:00.000Z,2019-07-25T04:00:00.000Z,"W, R",,08:00 AM to 09:00 AM,12:00 PM to 02:00 PM,,,,"B, L",1,N,US,106614,,2019,DeKalb
-85.65877739,41.40854943,45074,Enchanted Hills,Open,"9726 King Arthur Trail Syracuse, IN 46567",,Syracuse,IN,46567,,,,,,Wawasee Community School Corp,2019-06-03T04:00:00.000Z,2019-07-26T04:00:00.000Z,"M, T, W, R, F",,,11:45 AM to 12:30 PM,,,,L,1,N,US,106913,,2019,Kosciusko
-85.76079811,41.41889644,45075,Syracuse Elementary School,Open,"12799 N Kern Road Syracuse, IN 46567",,Syracuse,IN,46567,,,,,,Wawasee Community School Corp,2019-06-03T04:00:00.000Z,2019-06-21T04:00:00.000Z,"M, T, W, R, F",,07:50 AM to 08:30 AM,11:30 AM to 12:15 PM,,,,"B, L",1,N,US,108989,,2019,Kosciusko
-86.0185868,39.67761195,45076,Franklin Central High School,Open,"6215 S. Franklin Rd Indianapolis, IN 46259",,Indianapolis,IN,46259,,,,,,Franklin Twp Comm School Corp,2019-05-28T04:00:00.000Z,2019-06-21T04:00:00.000Z,"M, T, W, R, F",,,11:45 AM to 12:15 PM,,,,L,1,N,US,110931,,2019,Marion
-86.01155048,39.67417651,45077,Lillie Idella Kitley Elementary School,Open,"8735 Indian Creek Rd. Indianapolis, IN 46259",,Indianapolis,IN,46259,,,,,,Franklin Twp Comm School Corp,2019-05-28T04:00:00.000Z,2019-07-12T04:00:00.000Z,"M, T, W, R, F",,07:45 AM to 08:15 AM,12:00 PM to 12:30 PM,,,,"B, L",1,N,US,111745,,2019,Marion
-85.69794438,41.32795486,45078,North Webster Community Center,Open,"301 N Main Street North Webster, IN 46555",,North Webster,IN,46555,,,,,,Wawasee Community School Corp,2019-06-03T04:00:00.000Z,2019-07-26T04:00:00.000Z,"M, T, W, R, F",,,11:30 AM to 12:15 PM,,,,L,1,N,US,108216,,2019,Kosciusko
-85.75518936,41.41121962,45079,Wawasee High School,Open,"12659 Syracuse/Webster Road Syracuse, IN 46567",,Syracuse,IN,46567,,,,,,Wawasee Community School Corp,2019-06-03T04:00:00.000Z,2019-07-26T04:00:00.000Z,"M, T, W, R, F",,08:45 AM to 09:15 AM,11:30 AM to 12:15 PM,,,,"B, L",1,N,US,109294,,2019,Kosciusko
-85.64769424,40.41300748,45080,Play Acres Park,Open,"300 E Madison Fairmount, IN 46928",,Fairmount,IN,46928,,,,,,Madison-Grant United School Corp,2019-05-28T04:00:00.000Z,2019-07-03T04:00:00.000Z,"M, T, W, R, F",,,12:35 PM to 01:00 PM,,,,L,1,N,US,112587,,2019,Grant
-87.45061394,41.59563624,45081,Harding Elementary School,Open,"3211 165th St Hammond, IN 46323",,Hammond,IN,46323,,,,,,School City of Hammond,2019-06-10T04:00:00.000Z,2019-08-02T04:00:00.000Z,"M, T, W, R, F",,08:30 AM to 09:30 AM,11:30 AM to 12:30 PM,,,,"B, L",1,N,US,118296,,2019,Lake
-85.66699388,40.53413714,45082,Frances Slocum Elementary School,Open,"2909 S. Torrence Marion, IN 46953",,Marion,IN,46953,,,,,,Marion Community Schools,2019-06-03T04:00:00.000Z,2019-06-14T04:00:00.000Z,"M, T, W, R, F",,07:30 AM to 08:00 AM,11:30 AM to 12:00 PM,,,,"B, L",1,N,US,107054,,2019,Grant
-85.69314733,40.5706047,45083,Justice Middle School,Open,"720 N Miller Ave Marion, IN 46952",,Marion,IN,46952,,,,,,Marion Community Schools,2019-06-03T04:00:00.000Z,2019-06-14T04:00:00.000Z,"M, T, W, R, F",,07:30 AM to 08:00 AM,11:30 AM to 12:00 PM,,,,"B, L",1,N,US,82293,,2019,Grant
-86.76033211,40.75407947,45084,Woodlawn Boys and Girls Club,Open,"300 S Beach Street Monticello, IN 47960",,Monticello,IN,47960,,,,,,Twin Lakes School Corporation,2019-06-03T04:00:00.000Z,2019-07-26T04:00:00.000Z,"M, T, W, R, F",,,11:30 AM to 12:30 PM,,,,L,1,N,US,113787,,2019,White
-87.31360324,39.48321714,45085,Lost Creek Elementary School,Open,"6701 E Wabash Ave Terre Haute, IN 47803",,Terre Haute,IN,47803,,,,,,Vigo County School Corp,2019-07-22T04:00:00.000Z,2019-08-02T04:00:00.000Z,"M, T, W, R, F",,08:00 AM to 08:30 AM,11:30 AM to 12:00 PM,,,,"B, L",1,N,US,111807,,2019,Vigo
-87.1440867,38.6564575,45086,Infinite Sports,Open,"105 E. Park Rd Washington, IN 47501",,Washington,IN,47501,,,,,,Washington Community Schools,2019-05-28T04:00:00.000Z,2019-07-31T04:00:00.000Z,"M, T, W, R, F, S",,,11:30 AM to 12:00 PM,,01:00 PM to 01:30 PM,,"L, A",1,N,US,102111,,2019,Daviess
-86.12975589,39.91804539,45087,North Central Church of Christ,Open,"9015 Westfield Blvd Indianapolis, IN 46240",,Indianapolis,IN,46240,,,,,,MSD of Washington Township,2019-06-04T04:00:00.000Z,2019-07-11T04:00:00.000Z,"T, R",,,11:30 AM to 12:15 PM,,,,L,1,N,US,112303,,2019,Marion
-86.16405663,41.66645012,45088,Merrifield Park,Open,"1000 E. Mishawaka Ave Mishawaka, IN 46544",,Mishawaka,IN,46544,,,,,,Penn-Harris-Madison School Corp,2019-06-03T04:00:00.000Z,2019-08-09T04:00:00.000Z,"M, T, W, R, F",,,11:30 AM to 12:15 PM,,03:00 PM to 03:15 PM,,"L, A",1,N,US,9299,,2019,St. Joseph
-85.10171918,41.03227553,45089,Astoria Apts,Open,"2754 E. Paulding Rd. Fort Wayne,, IN 46816",,"Fort Wayne,",IN,46816,,,,,,Boys and Girls Club of Fort Wayne,2019-06-10T04:00:00.000Z,2019-08-02T04:00:00.000Z,"M, T, W, R, F",,,12:00 PM to 01:00 PM,,,,L,1,N,US,109686,,2019,Allen
-86.13527631,39.76861503,45090,Holy Cross,Open,"125 N Oriental Street Indianapolis, IN 46202",,Indianapolis,IN,46202,,,,,,Notre Dame ACE Academies Indy,2019-06-03T04:00:00.000Z,2019-08-02T04:00:00.000Z,"M, T, W, R, F",,,12:00 PM to 01:00 PM,,,,L,1,N,US,107345,,2019,Marion
-86.20650477,39.77172853,45091,St. Anthony,Open,"349 N Warman Ave Indianapolis, IN 46222",,Indianapolis,IN,46222,,,,,,Notre Dame ACE Academies Indy,2019-06-03T04:00:00.000Z,2019-08-02T04:00:00.000Z,"M, T, W, R, F",,,12:00 PM to 01:00 PM,,,,L,1,N,US,108884,,2019,Marion
-85.91904258,39.20356148,45092,Bartholomew County Public Library,Open,"536 5th St Columbus, IN 47201",,Columbus,IN,47201,,,,,,Bartholomew Consolidated Schools,2019-06-03T04:00:00.000Z,2019-07-26T04:00:00.000Z,"M, T, W, R, F",,,12:00 PM to 01:00 PM,,,,L,1,N,US,109725,,2019,Bartholomew
-87.27031375,39.07479255,45093,Dugger Union School,Open,"7356 E. CR 50 S. Dugger, IN 47848",,Dugger,IN,47848,,,,,,SON Ministries Inc.,2019-05-28T04:00:00.000Z,2019-08-02T04:00:00.000Z,"M, T, W, R, F",,,12:00 PM to 01:00 PM,,,,L,1,N,US,101902,,2019,Sullivan
-85.58630296,41.42778356,45094,West Noble Elementary School,Open,"5294 N US Hwy 33 Ligonier, IN 46767",,Ligonier,IN,46767,,,,,,West Noble School Corporation,2019-05-28T04:00:00.000Z,2019-05-31T04:00:00.000Z,"T, W, R, F",,08:00 AM to 08:30 AM,11:15 AM to 12:00 PM,,,,"B, L",1,N,US,109323,,2019,Noble
-84.97525089,40.43236654,45095,East Jay Middle School,Open,"225 E Water St Portland, IN 47371",,Portland,IN,47371,,,,,,Jay County School Corporation,2019-06-10T04:00:00.000Z,2019-07-26T04:00:00.000Z,"M, T, W, R, F",,,11:00 AM to 01:00 PM,09:45 AM to 10:15 AM,,to,"L, M",1,N,US,101910,,2019,Jay
-85.7551412,39.78778149,45096,Hancock County Kids Camp,Open,"1002 E 2nd Street Greenfield, IN 46140",,Greenfield,IN,46140,,,,,,Greenfield Central Community School Corporation,2019-06-03T04:00:00.000Z,2019-07-26T04:00:00.000Z,"M, T, W, R, F",,07:35 AM to 08:30 AM,11:30 AM to 12:30 PM,,,,"B, L",1,N,US,107240,,2019,Hancock
-85.12767485,40.17898179,45097,Farmland Friends Church,Open,"SR 32 Farmland, IN 47340",,Farmland,IN,47340,,,,,,Monroe Central School Corp,2019-06-03T04:00:00.000Z,2019-06-07T04:00:00.000Z,"M, T, W, R, F",,,,,,,S,1,N,US,101935,,2019,Randolph
-87.49298781,37.94901261,45098,Caze Elementary School,Open,"2013 S. Green River Evansville, IN 47715",,Evansville,IN,47715,,,,,,Evansville-Vanderburgh Schools,2019-06-03T04:00:00.000Z,2019-06-28T04:00:00.000Z,"M, T, W, R, F",,,11:15 AM to 12:15 PM,,,,L,1,N,US,106418,,2019,Vanderburgh
-87.49298781,37.94901261,45099,Caze Elementary School Parks & Rec Program,Open,"2013 S. Green River Evansville, IN 47715",,Evansville,IN,47715,,,,,,Evansville-Vanderburgh Schools,2019-06-03T04:00:00.000Z,2019-06-28T04:00:00.000Z,"M, T, W, R, F",,,,,03:00 PM to 03:15 PM,,A,1,N,US,106419,,2019,Vanderburgh
-87.043903,41.48535628,45100,Valplayso Park,Open,"1400 Glendale Blvd. Valparaiso, IN 46383",,Valparaiso,IN,46383,,,,,,Valparaiso Community Schools,2019-06-10T04:00:00.000Z,2019-07-26T04:00:00.000Z,"M, T, W, R, F",,,12:00 PM to 12:30 PM,,,,L,1,N,US,113513,,2019,Porter
-85.81888729,40.79668446,45101,Living Faith Church,Open,"242 S. Huntington St. Wabash, IN 46992",,Wabash,IN,46992,,,,,,Wabash City Schools,2019-06-03T04:00:00.000Z,2019-07-19T04:00:00.000Z,"M, T, W, R, F",,,11:30 AM to 12:30 PM,,,,L,1,N,US,111784,,2019,Wabash
-87.43632875,41.64467205,45102,Lakeside Gardens Apartments,Open,"3806 Erie Court East Chicago, IN 46312",,East Chicago,IN,46312,,,,,,Emmanuel Missionary Baptist Church,2019-06-24T04:00:00.000Z,2019-08-12T04:00:00.000Z,"M, T, W, R, F",,,12:30 PM to 01:00 PM,,,,L,1,N,US,111648,,2019,Lake
-86.53989142,39.75316247,45103,South Elementary School,Open,"1375 W Lincoln St Danville, IN 46122",,Danville,IN,46122,,,,,,Danville Community School Corp,2019-05-29T04:00:00.000Z,2019-08-01T04:00:00.000Z,"M, T, W, R, F",,09:15 AM to 09:30 AM,,,,,B,1,N,US,108820,,2019,Hendricks
-86.32213934,39.64818511,45104,Camby VIllage,Open,"7911 Hosta Drive Camby, IN 46113",,Camby,IN,46113,,,,,,MSD of Decatur Twp,2019-06-03T04:00:00.000Z,2019-07-19T04:00:00.000Z,"M, T, W, R, F",,,12:00 PM to 12:45 PM,,,,L,1,N,US,110056,,2019,Marion
-85.772952,40.21959346,45105,Eagle Pack Meals,Open,"610 Clyde Street Frankton, IN 46044",,Frankton,IN,46044,,,,,,"Eagle Pack Ministries, Inc.",2019-06-03T04:00:00.000Z,2019-06-21T04:00:00.000Z,"M, T, W, R, F",,,11:30 AM to 01:00 PM,,,,L,1,N,US,110621,,2019,Madison
-85.06173086,41.36353944,45106,McKenney-Harrison Elementary,Open,"400 South Indiana Ave Auburn, IN 46706",,Auburn,IN,46706,,,,,,DeKalb Co Central United Schools,2019-06-03T04:00:00.000Z,2019-07-25T04:00:00.000Z,"M, T, W, R, F",,08:00 AM to 09:00 AM,12:00 PM to 12:30 PM,,,,"B, L",1,N,US,82683,,2019,DeKalb
-86.37888078,39.55074452,45107,Mooresville Mobile Home Park,Open,"1 Chisolm Trail Mooresville, IN 46158",,Mooresville,IN,46158,,,,,,Mooresville Consolidated Schools,2019-05-28T04:00:00.000Z,2019-07-26T04:00:00.000Z,"M, T, W, R, F",,,12:15 PM to 12:45 PM,,,,L,1,N,US,108065,,2019,Morgan
-85.8293298,40.7840938,45108,Fire Station Park,Open,"1470 Vernon St. Wabash, IN 46992",,Wabash,IN,46992,,,,,,Wabash City Schools,2019-06-03T04:00:00.000Z,2019-07-19T04:00:00.000Z,"M, T, W, R, F",,,11:55 AM to 12:15 PM,,,,L,1,N,US,110825,,2019,Wabash
-85.65730681,40.55304575,45109,St Martin Community Center,Open,"901 S Branson St Marion, IN 46952",,Marion,IN,46952,,,,,,St. Martin De Porres,2019-05-27T04:00:00.000Z,2019-08-10T04:00:00.000Z,"M, T, W, R, F, S",,09:00 AM to 10:00 AM,11:00 AM to 12:00 PM,,,,"B, L",1,N,US,113128,,2019,Grant
-86.10172711,39.55964367,45110,Sawmill Woods Elementary School,Open,"700 Sawmill Rd. New Whiteland, IN 46184",,New Whiteland,IN,46184,,,,,,Clark-Pleasant Community Schools,2019-05-29T04:00:00.000Z,2019-07-19T04:00:00.000Z,"M, T, W, R, F",,,11:30 AM to 12:30 PM,,,,L,1,N,US,108705,,2019,Johnson
-86.02635251,41.04277938,45111,Akron School,Open,"202 E. Rural St. Akron, IN 46910",,Akron,IN,46910,,,,,,Tippecanoe Valley School Corp,2019-05-28T04:00:00.000Z,2019-07-26T04:00:00.000Z,"M, T, W, R, F",,07:30 AM to 08:30 AM,11:00 AM to 12:30 PM,,,,"B, L",1,N,US,105953,,2019,Fulton
