long,lat,objectID,siteName,siteStatus,siteAddress,siteAddress2,siteCity,siteState,siteZip,sitePhone,ext,contactFirstName,contactLastName,contactPhone,sponsoringOrganization,startDate,endDate,daysofOperation,comments,breakfastTime,lunchTime,snackTimeAM,snackTimePM,dinnerSupperTime,mealTypesServed,cycleNumber,recordStatus,country,fnsid,created,season,county
-91.15371216,30.47558451,86682,Celerity Dalton Charter School,Open,"3605 Ontario Boulevard Baton Rouge, LA 70805",,Baton Rouge,LA,70805,8602159631,,Tirza,Rivera,2253570244,Advocates for Science & Mathematics Ed Inc,2019-05-01T04:00:00.000Z,2019-08-31T04:00:00.000Z,"M,T,W,TH,F",8:00AM-1:00PM,8:00AM-8:30AM,12:00PM-1:00PM,,,,,7,N,US,142449,,2019,East Baton Rouge
-91.13713226,30.51574749,86683,Baton Rouge University Preparatory Elementary,Open,"5300 Monarch Avenue Baton Rouge, LA 70811",,Baton Rouge,LA,70811,2253469805,,Kayla,Stanley,2253649805,Baton Rouge University Preparatory School Inc,2019-05-01T04:00:00.000Z,2019-08-31T04:00:00.000Z,"M,T,W,TH",8:30AM-12:15PM,8:30AM-9:00AM,11:30AM-12:15PM,,,,,7,N,US,142108,,2019,East Baton Rouge
-91.13713226,30.51574749,86684,Baton Rouge College Prep,Open,"5300 Monarch Baton Rouge, LA 70811",,Baton Rouge,LA,70811,2252579180,,Kathryn,Rice,2253377702,Baton Rouge University Preparatory School Inc,2019-05-01T04:00:00.000Z,2019-08-31T04:00:00.000Z,"M,T,W,TH",8:00AM-1:00PM,8:00AM-8:15AM,12:30PM-1:00PM,,,,,7,N,US,114156,,2019,East Baton Rouge
-93.29176383,30.8576524,86685,Beau Care,Open,"628 High School Dr DeRidder, LA 70634",,DeRidder,LA,70634,3374622273,,April,Walters,3374622273,"BeauCARE, Inc.",2019-05-01T04:00:00.000Z,2019-08-31T04:00:00.000Z,"M,T,W,TH,F",7:30AM-12:30PM,7:30AM-8:30AM,11:30AM-12:30PM,,,,,7,N,US,34069,,2019,Beauregard
-93.27648333,30.84813608,86686,Veteran's Park,Open,"499 Mahlon Street DeRidder, LA 70634",,DeRidder,LA,70634,3374622273,,Jaeda,Buckley,3374622273,"BeauCARE, Inc.",2019-05-01T04:00:00.000Z,2019-08-31T04:00:00.000Z,"M,T,W,TH,F",2:45PM-3:15PM,,,,2:45PM-3:15PM,,,7,N,US,39591,,2019,Beauregard
-92.63299336,32.5308371,86689,Boys & Girls Clubs of North Central LA,Open,"300 Memorial Dr Ruston, LA 71270",,Ruston,LA,71270,3182552242,,Daphane,Bryant,3182552242,Boys & Girls Clubs of North Central LA,2019-05-01T04:00:00.000Z,2019-08-31T04:00:00.000Z,"M,T,W,TH,F",8:30AM-2:30PM,8:30AM-9:30AM,1:30PM-2:30PM,,,,,7,N,US,34295,,2019,Lincoln
-92.64514478,32.52216955,86690,Mays Chapel CME Church,Open,"513 West Line Avenue Ruston, LA 71270",,Ruston,LA,71270,3182554676,,W. D.,Walker,3182554676,Boys & Girls Clubs of North Central LA,2019-05-01T04:00:00.000Z,2019-08-31T04:00:00.000Z,"M,T,W,TH,F",12:00PM-1:00PM,,12:00PM-1:00PM,,,,,7,N,US,37259,,2019,Lincoln
-92.69365219,32.50763772,86691,Lincoln Family Housing,Open,"105 Greene Lane Ruston, LA 71270",,Ruston,LA,71270,3182556784,,Michael,Evans,3182552242,Boys & Girls Clubs of North Central LA,2019-05-01T04:00:00.000Z,2019-08-31T04:00:00.000Z,"M,T,W,TH,F",8:30AM-1:30PM,8:30AM-9:30AM,12:30PM-1:30PM,,,,,7,N,US,36993,,2019,Lincoln
-92.70679781,32.50768064,86692,Christ Temple,Open,"7349 Highway 80 W Grambling, LA 71245",,Grambling,LA,71245,3182740030,,Lynn,Green,3182740030,Boys & Girls Clubs of North Central LA,2019-05-01T04:00:00.000Z,2019-08-31T04:00:00.000Z,"M,T,W,TH,F",12:00PM-1:00PM,,12:00PM-1:00PM,,,,,7,N,US,34805,,2019,Lincoln
-92.595582,32.58731753,86694,Mt. Harmony Day Camp,Open,"222 Mt. Harmony Church Road Ruston, LA 71270",,Ruston,LA,71270,3182554525,,Ed,Jackson,3182554525,Boys & Girls Clubs of North Central LA,2019-05-01T04:00:00.000Z,2019-08-31T04:00:00.000Z,"M,T,W,TH,F",8:00AM-1:00PM,8:00AM-9:00AM,12:00PM-1:00PM,,,,,7,N,US,64536,,2019,Lincoln
-92.65644335,32.70117289,86695,Dubach Community Building,Open,"106 Smith St Dubach, LA 71235",,Dubach,LA,71235,3187773618,,Bonnie,Gipson,3182552242,Boys & Girls Clubs of North Central LA,2019-05-01T04:00:00.000Z,2019-08-31T04:00:00.000Z,"M,T,W,TH,F",12:00PM-1:00PM,,12:00PM-1:00PM,,,,,7,N,US,35326,,2019,Lincoln
-92.72953197,32.52618252,86696,Westwood Family Housing,Open,"596 College Avenue Grambling, LA 71245",,Grambling,LA,71245,3182476035,,Natalie,Blake,3182476035,Boys & Girls Clubs of North Central LA,2019-05-01T04:00:00.000Z,2019-08-31T04:00:00.000Z,"M,T,W,TH,F",11:00AM-12:00PM,,11:00AM-12:00PM,,,,,7,N,US,39835,,2019,Lincoln
-93.42431897,30.45453444,86698,DeQuincy-City of DeQuincy Recreation,Open,"507 Oak Street DeQuincy, LA 70633",,DeQuincy,LA,70633,3373024939,,Barbara,Robinson,3377214030,Calcasieu Parish Police Jury,2019-05-01T04:00:00.000Z,2019-08-31T04:00:00.000Z,"M,T,W,TH,F",11:00AM-1:00PM,,11:00AM-1:00PM,,,,,7,N,US,94942,,2019,Calcasieu
-93.36632965,30.23933621,86699,Housing Authority-City of Sulphur,Open,"312 Brook Street Sulphur, LA 70665",,Sulphur,LA,70665,,,Vickie,Spell,3377214030,Calcasieu Parish Police Jury,2019-05-01T04:00:00.000Z,2019-08-31T04:00:00.000Z,"M,T,W,TH,F",11:00AM-1:00PM,,11:00AM-1:00PM,,,,,7,N,US,95053,,2019,Calcasieu
-93.58140972,30.183939,86702,Community Center and Playground District N. Three of Ward Seven,Open,"1615 Horridge Street Vinton, LA 70668",,Vinton,LA,70668,3375895181,,Gwen,Smith,3375895181,Calcasieu Parish Police Jury,2019-05-01T04:00:00.000Z,2019-08-31T04:00:00.000Z,"M,T,W,TH,F",11:30AM-12:30PM,,11:30AM-12:30PM,,,,,7,N,US,114520,,2019,Calcasieu
-93.37743797,30.23516353,86703,First Baptist Church of Sulphur,Open,"401 S. Huntington Street Sulphur, LA 70663",,Sulphur,LA,70663,3375275231,,Amy,Bruce,3375275231,Calcasieu Parish Police Jury,2019-05-01T04:00:00.000Z,2019-08-31T04:00:00.000Z,"M,T,W,TH,F",11:30AM-1:00PM,,11:30AM-1:00PM,,,,,7,N,US,114839,,2019,Calcasieu
-93.25812144,30.24826124,86705,Recreation District No. One of Ward Four,Open,"1221 Sampson Street Westlake, LA 70669",,Westlake,LA,70669,3374361124,,Leslie,Deville,3374361124,Calcasieu Parish Police Jury,2019-05-01T04:00:00.000Z,2019-08-31T04:00:00.000Z,"M,T,W,TH,F",8:00AM-1:00PM,8:00AM-9:00AM,12:00PM-1:00PM,,,,,7,N,US,116171,,2019,Calcasieu
-92.06027374,30.18517344,86711,Thomas Park Recreation,Open,"300 Geraldine St Lafayette, LA 70503",,Lafayette,LA,70503,3374911440,,Robion,Hamilton,7044338300,"Children Health Care Clinic of Acadiana, Inc.",2019-05-01T04:00:00.000Z,2019-08-31T04:00:00.000Z,"M,T,W,TH,F",12:00PM-1:00PM,,12:00PM-1:00PM,,,,,7,N,US,39365,,2019,Lafayette
-91.5426395,31.72198739,86717,Concordia Head Start Center,Open,"31539 Highway 15 Clayton, LA 71326",,Clayton,LA,71326,3187574586,,Debra,Walker,3187195669,Concordia Parish School Board,2019-05-01T04:00:00.000Z,2019-08-31T04:00:00.000Z,"M,T,W,TH",12:00PM-1:00PM,,12:00PM-1:00PM,,,,,7,N,US,35006,,2019,Concordia
-91.54730566,31.63643908,86720,The Harvest,Open,"305 Lake Drive Ferriday, LA 71334",,Ferriday,LA,71334,3187570107,,Janie,Haynes,3187570107,Concordia Parish School Board,2019-05-01T04:00:00.000Z,2019-08-31T04:00:00.000Z,"M,T,W,TH",11:00AM-1:00PM,,11:00AM-1:00PM,,,,,7,N,US,69770,,2019,Concordia
-91.56417768,31.61547154,86723,Ferriday Housing Authority,Open,"27393 LA-15 Ferriday, LA 71334",,Ferriday,LA,71334,6018704653,,Bonita,Cage,3187195669,Concordia Parish School Board,2019-05-01T04:00:00.000Z,2019-08-31T04:00:00.000Z,"M,T,W,TH",11:00AM-12:00PM,,11:00AM-12:00PM,,,,,7,N,US,142994,,2019,Concordia
-90.14210589,29.91636999,86724,D & R Community Kitchen,Open,"137 Sala Avenue Westwego, LA 70094",,Westwego,LA,70094,5044329118,,Toni,Colar,5044329118,D & R Sports Foundation,2019-05-01T04:00:00.000Z,2019-08-31T04:00:00.000Z,"M,T,W,TH,F",8:45AM-5:15PM,8:45AM-9:45AM,,,,4:00PM-5:15PM,,7,N,US,94926,,2019,Jefferson
-91.15001168,30.48733944,86727,Democracy Prep Louisiana Charter School,Open,"4055 Prescott Road Baton Rouge, LA 70805",,Baton Rouge,LA,70805,2252362284,,Niesha,Smith,22537220,Democracy Prep Louisiana Charter School,2019-05-01T04:00:00.000Z,2019-08-31T04:00:00.000Z,"M,T,W,TH,F",8:00AM-12:00PM,8:00AM-9:00AM,11:00AM-12:00PM,,,,,7,N,US,114624,,2019,East Baton Rouge
-90.23163169,30.00102865,86728,Kenner Discovery Health Sciences Academy,Open,"2504 Maine Avenue Kenner, LA 70062",,Kenner,LA,70062,5042334720,,Andre,Maximum,2253546095,"Discovery Health Sciences Foundation, Inc. (Jefferson Parish Schools)",2019-05-01T04:00:00.000Z,2019-08-31T04:00:00.000Z,"M,T,W,TH,F",8:15AM-12:30PM,8:15AM-9:15AM,11:30AM-12:30PM,,,,,7,N,US,16019,,2019,Jefferson
-89.98958933,29.8588817,86729,Belle Chasse YMCA,Open,"8101 HWY 23 Belle Chasse, LA 70037",,Belle Chasse,LA,70037,5044396060,,Bob,Becnel,5042759672,"Discovery Health Sciences Foundation, Inc. (Jefferson Parish Schools)",2019-05-01T04:00:00.000Z,2019-08-31T04:00:00.000Z,"M,T,W,TH,F",11:00AM-12:00PM,,11:00AM-12:00PM,,,,,7,N,US,57411,,2019,Plaquemines
-89.51022358,29.3416787,86730,Buras Community Center,Open,"36342 Highway 11 Buras, LA 70041",,Buras,LA,70041,5045640951,,Ashley,Lincoln,5045630591,"Discovery Health Sciences Foundation, Inc. (Jefferson Parish Schools)",2019-05-01T04:00:00.000Z,2019-08-31T04:00:00.000Z,"M,T,W,TH,F",8:30AM-3:30PM,8:30AM-9:00AM,,,3:00PM-3:30PM,,,7,N,US,114298,,2019,Plaquemines
-89.69740384,29.47684312,86731,YMCA Port Sulfur,Open,"278 Civic Drive Port Sulfur, LA 70083",,Port Sulfur,LA,70083,5045640911,,Rachel,Benoit,5045640911,"Discovery Health Sciences Foundation, Inc. (Jefferson Parish Schools)",2019-05-01T04:00:00.000Z,2019-08-31T04:00:00.000Z,"M,T,W,TH,F",9:00AM-3:45PM,9:00AM-9:30AM,,,3:15PM-3:45PM,,,7,N,US,145446,,2019,Plaquemines
-91.12743968,30.45475584,86732,Renaissance Gateway,Open,"650 N. Ardenwood Drive Baton Rouge, LA 70806",,Baton Rouge,LA,70806,2252263762,,Twanda,Delmore,2257753982,East Baton Rouge Parish School System,2019-05-01T04:00:00.000Z,2019-08-31T04:00:00.000Z,"M,T,W,TH,F",12:00PM-12:45PM,,12:00PM-12:45PM,,,,,7,N,US,55044,,2019,East Baton Rouge
-91.07599388,30.36876049,86734,Kid Cam @ St. Margaret Episcopal Church,Open,"12663 Perkins Road Baton Rouge, LA 70810",,Baton Rouge,LA,70810,2254856633,,Kealy,Duke,2252262093,East Baton Rouge Parish School System,2019-05-01T04:00:00.000Z,2019-08-31T04:00:00.000Z,"M,T,W,TH,F",8:00AM-1:00PM,8:00AM-9:00AM,11:30AM-1:00PM,,,,,7,N,US,36723,,2019,East Baton Rouge
-91.09125162,30.43151006,86735,Kid Cam @ St. Paul Lutheran Church,Open,"2021 Tara Boulevard Baton Rouge, LA 70806",,Baton Rouge,LA,70806,2254856633,,Rachael,Stevens,2252262910,East Baton Rouge Parish School System,2019-05-01T04:00:00.000Z,2019-08-31T04:00:00.000Z,"M,T,W,TH,F",8:00AM-1:00PM,8:00AM-9:00AM,11:30AM-1:00PM,,,,,7,N,US,36724,,2019,East Baton Rouge
-91.184722,30.53134148,86736,Kelly Terrace Housing,Open,"999 Rosenwald Road Baton Rouge, LA 70807",,Baton Rouge,LA,70807,2252263762,,Twanda,Delmore,2253835331,East Baton Rouge Parish School System,2019-05-01T04:00:00.000Z,2019-08-31T04:00:00.000Z,"M,W,F",11:00AM-11:30AM,,11:00AM-11:30AM,,,,,7,N,US,52818,,2019,East Baton Rouge
-91.10632202,30.44245947,86738,Goodwood Branch Library,Open,"7711 Goodwood Blvd. Baton Rouge, LA 70806",,Baton Rouge,LA,70806,2252313740,,Konnika,Williams,2253835331,East Baton Rouge Parish School System,2019-05-01T04:00:00.000Z,2019-08-31T04:00:00.000Z,"M,T,W,TH",11:45AM-12:30PM,,11:45AM-12:30PM,,,,,7,N,US,114978,,2019,East Baton Rouge
-91.18564203,30.44837946,86739,Kidcam @ First Baptist - Downtown,Open,"529 Convention Street Baton Rouge, LA 70802",,Baton Rouge,LA,70802,2253889737,,Kelly,Coreil,2254856633,East Baton Rouge Parish School System,2019-05-01T04:00:00.000Z,2019-08-31T04:00:00.000Z,"M,T,W,TH,F",8:00AM-1:00PM,8:00AM-9:00AM,11:30AM-1:00PM,,,,,7,N,US,36725,,2019,East Baton Rouge
-91.11067303,30.44124149,86740,Greater King David - South,Open,"911 North Lobdell Ave. Baton Rouge, LA 70806",,Baton Rouge,LA,70806,2259270577,,Georgia,Jackson,2259270577,East Baton Rouge Parish School System,2019-05-01T04:00:00.000Z,2019-08-31T04:00:00.000Z,"M,T,W,TH,F",7:30AM-12:30PM,7:30AM-8:30AM,11:00AM-12:30PM,,,,,7,N,US,36065,,2019,East Baton Rouge
-91.1296351,30.46666894,86741,Ardenwood Village,Open,"1957 N. Ardenwood Drive Baton Rouge, LA 70805",,Baton Rouge,LA,70805,,,Alisa,Hughes,2253835331,East Baton Rouge Parish School System,2019-05-01T04:00:00.000Z,2019-08-31T04:00:00.000Z,"M,W",12:30PM-1:00PM,,12:30PM-1:00PM,,,,,7,N,US,33913,,2019,East Baton Rouge
-91.17191228,30.4540564,86742,Capitol Square Housing,Open,"700 North 17th Street Baton Rouge, LA 70802",,Baton Rouge,LA,70802,,,Alisa,Hughes,2253835331,East Baton Rouge Parish School System,2019-05-01T04:00:00.000Z,2019-08-31T04:00:00.000Z,M,10:30AM-11:00AM,,10:30AM-11:00AM,,,,,7,N,US,34602,,2019,East Baton Rouge
-91.12728585,30.47186605,86743,Gloryland Baptist Church,Open,"2575 Michelli Drive Baton Rouge, LA 70805",,Baton Rouge,LA,70805,2253560577,,Joycelyn,Green,2253560577,East Baton Rouge Parish School System,2019-05-01T04:00:00.000Z,2019-08-31T04:00:00.000Z,F,8:00AM-9:00AM,8:00AM-9:00AM,,,,,,7,N,US,35976,,2019,East Baton Rouge
-91.15594433,30.49662751,86744,Delmont Gardens Branch Library,Open,"3351 Lorraine Street Baton Rouge, LA 70805",,Baton Rouge,LA,70805,2252319265,,Alisa,Hughes,2253835331,East Baton Rouge Parish School System,2019-05-01T04:00:00.000Z,2019-08-31T04:00:00.000Z,"M,TH",11:00AM-11:30AM,,11:00AM-11:30AM,,,,,7,N,US,85707,,2019,East Baton Rouge
-91.18527639,30.4307528,86745,Duane Street Housing,Open,"1701 Duane Street Baton Rouge, LA 70802",,Baton Rouge,LA,70802,2253835331,,Alisa,Hughes,2253835331,East Baton Rouge Parish School System,2019-05-01T04:00:00.000Z,2019-08-31T04:00:00.000Z,TH,2:00PM-2:30PM,,2:00PM-2:30PM,,,,,7,N,US,35325,,2019,East Baton Rouge
-91.13801221,30.46318375,86746,Eden Park Branch Library,Open,"5131 Greenwell Springs Road Baton Rouge, LA 70806",,Baton Rouge,LA,70806,2252313240,,Konnika,Williams,2253835331,East Baton Rouge Parish School System,2019-05-01T04:00:00.000Z,2019-08-31T04:00:00.000Z,"T,TH",12:00PM-12:30PM,,12:00PM-12:30PM,,,,,7,N,US,85865,,2019,East Baton Rouge
-91.1656038,30.52625028,86747,Greater New Galilee Baptist Church,Open,"9985 Wilbur Street Baton Rouge, LA 70807",,Baton Rouge,LA,70807,2255716367,,Quentin,Lee,2257756442,East Baton Rouge Parish School System,2019-05-01T04:00:00.000Z,2019-08-31T04:00:00.000Z,F,8:00AM-12:30PM,8:00AM-9:00AM,11:00AM-12:30PM,,,,,7,N,US,86301,,2019,East Baton Rouge
-91.12024251,30.52687653,86748,Abounding Love Ministries,Open,"7076 Hooper Rd Baton Rouge, LA 70811",,Baton Rouge,LA,70811,2258106406,,Rose,Willis,2253564441,East Baton Rouge Parish School System,2019-05-01T04:00:00.000Z,2019-08-31T04:00:00.000Z,"M,T,W,TH,F",7:30AM-1:00PM,7:30AM-8:30AM,11:30AM-1:00PM,,,,,7,N,US,33735,,2019,East Baton Rouge
-91.01776443,30.39651361,86749,Jones Creek Branch Library,Open,"6222 Jones Creek Road Baton Rouge, LA 70817",,Baton Rouge,LA,70817,2253835331,,Jeremy,Selders,2253835331,East Baton Rouge Parish School System,2019-05-01T04:00:00.000Z,2019-08-31T04:00:00.000Z,"M,T,W,TH",11:00AM-11:30AM,,11:00AM-11:30AM,,,,,7,N,US,86694,,2019,East Baton Rouge
-91.02417723,30.46447326,86750,Jubilee Christian Center Church,Open,"14595 Florida Blvd. Baton Rouge, LA 70814",,Baton Rouge,LA,70814,2252724545,,Shannon,Hollins,2252724545,East Baton Rouge Parish School System,2019-05-01T04:00:00.000Z,2019-08-31T04:00:00.000Z,"M,T,W,TH,F",8:30AM-12:30PM,8:30AM-9:00AM,11:30AM-12:30PM,,,,,7,N,US,115270,,2019,East Baton Rouge
-91.1611305,30.50733049,86751,Monte Sano Head Start Center,Open,"3002 East Mason Street Baton Rouge, LA 70807",,Baton Rouge,LA,70807,2253559658,,Jeremy,Selers,2257753982,East Baton Rouge Parish School System,2019-05-01T04:00:00.000Z,2019-08-31T04:00:00.000Z,"T,TH",1:30PM-2:00PM,,1:30PM-2:00PM,,,,,7,N,US,37438,,2019,East Baton Rouge
-91.18653848,30.53319054,86752,Mount Pilgrim Baptist Church,Open,"9700 Scenic Hwy Baton Rouge, LA 70807",,Baton Rouge,LA,70807,2257752740,,Glorius,Lofton,2257752740,East Baton Rouge Parish School System,2019-05-01T04:00:00.000Z,2019-08-31T04:00:00.000Z,"M,T,W,TH,F",7:30AM-1:00PM,7:30AM-8:30AM,11:30AM-1:00PM,,,,,7,N,US,37479,,2019,East Baton Rouge
-91.10480154,30.36454932,86754,Bluebonnet Branch Library,Open,"9200 Bluebonnet Blvd Baton Rouge, LA 70810",,Baton Rouge,LA,70810,2253835331,,Moroni,Pointer,2253835331,East Baton Rouge Parish School System,2019-05-01T04:00:00.000Z,2019-08-31T04:00:00.000Z,W,11:00AM-11:30AM,,11:00AM-11:30AM,,,,,7,N,US,85026,,2019,East Baton Rouge
-91.17690331,30.54245446,86755,Scotland Villa Housing,Open,"10666 Scotland Avenue Baton Rouge, LA 70807",,Baton Rouge,LA,70807,,,Twanda,Delmore,2253835331,East Baton Rouge Parish School System,2019-05-01T04:00:00.000Z,2019-08-31T04:00:00.000Z,TH,1:00PM-1:30PM,,1:00PM-1:30PM,,,,,7,N,US,38729,,2019,East Baton Rouge
-91.17597737,30.51505355,86756,Scotlandville Branch Library - Summer Feeding,Open,"7373 Scenic Hwy. Baton Rouge, LA 70807",,Baton Rouge,LA,70807,2253547540,,Alisa,Hughes,2253835331,East Baton Rouge Parish School System,2019-05-01T04:00:00.000Z,2019-08-31T04:00:00.000Z,TH,1:00PM-1:30PM,,1:00PM-1:30PM,,,,,7,N,US,116327,,2019,East Baton Rouge
-91.17589915,30.44640595,86757,Shiloh Baptist Early Learning Academy,Open,"185 Eddie Robinson Drive Baton Rouge, LA 70802",,Baton Rouge,LA,70802,2253434734,,Demetria,Smith,2253434734,East Baton Rouge Parish School System,2019-05-01T04:00:00.000Z,2019-08-31T04:00:00.000Z,"M,T,W,TH,F",7:30AM-12:30PM,7:30AM-8:30AM,11:00AM-12:30PM,,,,,7,N,US,38810,,2019,East Baton Rouge
-91.1867217,30.44835248,86758,St James Episcopal School,Open,"208 N. 4th/445 Covention St. Baton Rouge, LA 70802",,Baton Rouge,LA,70802,,,Puja,Thapa,2259224656,East Baton Rouge Parish School System,2019-05-01T04:00:00.000Z,2019-08-31T04:00:00.000Z,"M,T,W,TH",8:00AM-12:00PM,8:00AM-8:00AM,11:15AM-12:00PM,,,,,7,N,US,144815,,2019,East Baton Rouge
-91.19462328,30.56768649,86760,St. John Baptist Church,Open,"820 Rafe Meyer Rd Baton Rouge, LA 70807",,Baton Rouge,LA,70807,2257754756,,Sarah,Savoy,2257759756,East Baton Rouge Parish School System,2019-05-01T04:00:00.000Z,2019-08-31T04:00:00.000Z,F,8:00AM-1:00PM,8:00AM-9:00AM,11:30AM-1:00PM,,,,,7,N,US,55780,,2019,East Baton Rouge
-91.0353271,30.44470892,86761,Fairwood Branch Library,Open,"12910 Old Hammond Hwy Baton Rouge, LA 70816",,Baton Rouge,LA,70816,2259249385,,Konnika,Williams,2253835331,East Baton Rouge Parish School System,2019-05-01T04:00:00.000Z,2019-08-31T04:00:00.000Z,"M,TH",10:45AM-11:15AM,,10:45AM-11:15AM,,,,,7,N,US,85978,,2019,East Baton Rouge
-91.19883907,30.53558695,86762,Wood Plaza Housing,Open,"9990 Avenue J Baton Rouge, LA 70807",,Baton Rouge,LA,70807,2253564423,,Jeremy,Selders,2253835331,East Baton Rouge Parish School System,2019-05-01T04:00:00.000Z,2019-08-31T04:00:00.000Z,"M,W",1:00PM-1:30PM,,1:00PM-1:30PM,,,,,7,N,US,116876,,2019,East Baton Rouge
-91.13294269,30.51788594,86763,Zion Terrace Housing,Open,"5858 Cadillac Street Baton Rouge, LA 70811",,Baton Rouge,LA,70811,,,Twanda,Delmore,2253835331,East Baton Rouge Parish School System,2019-05-01T04:00:00.000Z,2019-08-31T04:00:00.000Z,W,1:00PM-1:30PM,,1:00PM-1:30PM,,,,,7,N,US,40106,,2019,East Baton Rouge
-91.0570324,30.49393664,86764,Greenwell Springs Road Branch Library,Open,"11300 Greenwell Springs Road Baton Rougel, LA 70814",,Baton Rougel,LA,70814,2252319265,,Konnika,Williams,2253835331,East Baton Rouge Parish School System,2019-05-01T04:00:00.000Z,2019-08-31T04:00:00.000Z,T,10:45AM-11:15AM,,10:45AM-11:15AM,,,,,7,N,US,86328,,2019,East Baton Rouge
-91.18100895,30.53456426,86765,Z Place on the Bluff - Summer,Open,"1254 Central Road Baton Rouge, LA 70787",,Baton Rouge,LA,70787,3039318869,,Angela,Robertson,7204214944,East Baton Rouge Parish School System,2019-05-01T04:00:00.000Z,2019-08-31T04:00:00.000Z,"M,T,W,TH",8:00AM-12:30PM,8:00AM-8:30AM,12:00PM-12:30PM,,,,,7,N,US,145467,,2019,East Baton Rouge
-92.0027723,30.21911285,86771,Gethsemane Church of God in Christ,Open,"701 East Pinhook Lafayette, LA 70501",,Lafayette,LA,70501,3372326958,,Barbara,Robinson,3372332750,Gethsemane Church of God in Christ,2019-05-01T04:00:00.000Z,2019-08-31T04:00:00.000Z,"T,W,TH,F,SA",7:15AM-1:00PM,7:15AM-8:15AM,12:00PM-1:00PM,,,,,7,N,US,69660,,2019,Lafayette
-91.11377172,30.48888251,86773,Beacon Light of Baton Rouge (Summer Feeding),Open,"7513 Prescott Road Baton Rouge, LA 70812",,Baton Rouge,LA,70812,2253589071,,Crystal,Ezeff,2253589071,House of Tiny Steps,2019-05-01T04:00:00.000Z,2019-08-31T04:00:00.000Z,"M,T,W,TH,F",6:15PM-7:00PM,,,,,6:15PM-7:00PM,,7,N,US,117272,,2019,East Baton Rouge
-90.8657035,30.49600711,86775,Club Outreach June Fest,Open,"30277 Sunset Lane Walker, LA 70785",,Walker,LA,70785,2256654341,,Rose,Pittman,2256360283,House of Tiny Steps,2019-05-01T04:00:00.000Z,2019-08-31T04:00:00.000Z,"M,T,W,TH,F",8:00AM-1:00PM,8:00AM-9:00AM,12:00PM-1:00PM,,,,,7,N,US,90312,,2019,Livingston
-90.46993037,30.49870475,86777,Greensfield Baptist Church,Open,"110 JW Davis Drive Hammond, LA 70401",,Hammond,LA,70401,9853453526,,Ruth,Dunn,9853453526,House of Tiny Steps,2019-05-01T04:00:00.000Z,2019-08-31T04:00:00.000Z,"M,T,W,TH,F,SA",6:00PM-7:00PM,,,,,6:00PM-7:00PM,,7,N,US,36097,,2019,Tangipahoa
-90.55421883,30.52999469,86778,Greater Mount Bethel Missionary Baptist Church,Open,"46377 Durbin Road Ext Woodhaven, LA 70466",,Woodhaven,LA,70466,9856625412,,Natishia,McGee,9855101342,House of Tiny Steps,2019-05-01T04:00:00.000Z,2019-08-31T04:00:00.000Z,"M,T,W,TH,F",6:30PM-7:00PM,,,,,6:30PM-7:00PM,,7,N,US,69666,,2019,Tangipahoa
-90.50165849,30.63538388,86780,House of Tiny Steps,Open,"319 W 4th Street Independence, LA 70443",,Independence,LA,70443,9856625412,,Mary,Walker,8774307744,House of Tiny Steps,2019-05-01T04:00:00.000Z,2019-08-31T04:00:00.000Z,"M,T,W,TH,F",12:00PM-12:30PM,,12:00PM-12:30PM,,,,,7,N,US,90847,,2019,Tangipahoa
-90.95384404,30.48154535,86781,L & M Lockhart Recreation Center,Open,"301 Rodeo Dr Denham Springs, LA 70726",,Denham Springs,LA,70726,2256651658,,Sandra,Brown,2254451469,House of Tiny Steps,2019-05-01T04:00:00.000Z,2019-08-31T04:00:00.000Z,"M,T,W,TH,F",8:00AM-1:00PM,8:00AM-9:00AM,12:00PM-1:00PM,,,,,7,N,US,36802,,2019,Livingston
-91.17593103,30.43434247,86782,McYouth for Christ (McKuwen Baptist Church),Open,"1255 Louise Street Baton Rouge, LA 70802",,Baton Rouge,LA,70802,3182901133,,Beverly,Rice,3182901133,House of Tiny Steps,2019-05-01T04:00:00.000Z,2019-08-31T04:00:00.000Z,"M,T,W,TH,F,SA",6:00PM-7:00PM,,,,,6:00PM-7:00PM,,7,N,US,69706,,2019,East Baton Rouge
-90.4590586,30.51061859,86784,Saint Paul Missionary Baptist Church,Open,"410 E. Colorado St. Hammond, LA 70403",,Hammond,LA,70403,,,Darlene,Muse,2259078218,House of Tiny Steps,2019-05-01T04:00:00.000Z,2019-08-31T04:00:00.000Z,"M,T,W,TH,F",6:30PM-7:00PM,,,,,6:30PM-7:00PM,,7,N,US,97518,,2019,Tangipahoa
-90.46839738,30.79549641,86785,Mt. Canaan Baptist Church,Open,"15650 Hwy 10 Roseland, LA 70456",,Roseland,LA,70456,9858783940,,Mary,Walker,9857484006,House of Tiny Steps,2019-05-01T04:00:00.000Z,2019-08-31T04:00:00.000Z,"M,T,W,TH,F",6:30PM-7:00PM,,,,,6:30PM-7:00PM,,7,N,US,37516,,2019,Tangipahoa
-90.60274981,30.71555493,86786,Morris Chapel C.O.G.I.C. VBS,Open,"1328 McDaniel Road Amite, LA 70422",,Amite,LA,70422,9857485654,,Bobbie,Baker,9855172028,House of Tiny Steps,2019-05-01T04:00:00.000Z,2019-08-31T04:00:00.000Z,"M,T,W,TH",6:30PM-7:00PM,,,,,6:30PM-7:00PM,,7,N,US,69712,,2019,St. Helena
-90.47062873,30.64218539,86787,Mount Olive Missionary Baptist Church (Central Headquarters 3),Open,"54039 Mount Olive Church Road Highway 40 East Independence, LA 70443",,Independence,LA,70443,9858786128,,Sheila,Flemming,9858786138,House of Tiny Steps,2019-05-01T04:00:00.000Z,2019-08-31T04:00:00.000Z,"M,T,W,TH,F",6:00PM-7:00PM,,,,,6:00PM-7:00PM,,7,N,US,97401,,2019,Tangipahoa
-90.45723807,30.517443,86789,New Hope Family Worship Center,Open,"1300 Martin Luther King Drive Hammond, LA 70403",,Hammond,LA,70403,9852159374,,Nakia,McKay,9857789658,House of Tiny Steps,2019-05-01T04:00:00.000Z,2019-08-31T04:00:00.000Z,"M,T,W,TH,F",11:00AM-12:30PM,,11:00AM-12:30PM,,,,,7,N,US,128171,,2019,Tangipahoa
-92.40446436,30.48471406,86791,Restoring God's Glory Ministries Inc.,Open,"100 City Avenue Eunice, LA 70535",,Eunice,LA,70535,3375808209,,Kayla,Givs,3375808209,House of Tiny Steps,2019-05-01T04:00:00.000Z,2019-08-31T04:00:00.000Z,"M,T,W,TH,F",11:00AM-1:00PM,,11:00AM-1:00PM,,,,,7,N,US,144532,,2019,St. Landry
-89.99957981,29.91820248,86792,Alice Harte Elementary Charter School,Open,"5300 Berkley Drive New Orleans, LA 70131",,New Orleans,LA,70131,5043987101,,Lisa,Johnson,5044956846,Inspire NOLA Charter Schools,2019-05-01T04:00:00.000Z,2019-08-31T04:00:00.000Z,"M,T,W,TH,F",7:45AM-12:00PM,7:45AM-8:45AM,11:30AM-12:00PM,,,,,7,N,US,49685,,2019,Orleans
-89.99790601,29.90528101,86793,Dwight D. Eisenhower (WBV),Open,"3700 Tall Pines Drive New Orleans, LA 70131",,New Orleans,LA,70131,5042273057,,Anita,Boles,5042273057,Inspire NOLA Charter Schools,2019-05-01T04:00:00.000Z,2019-08-31T04:00:00.000Z,"M,T,W,TH",7:45AM-8:00AM,7:45AM-8:00AM,,,,,,7,N,US,142827,,2019,Orleans
-90.07082353,29.97811679,86796,McDonogh #42 Charter School,Open,"1651 Tonti Street New Orleans, LA 72125",,New Orleans,LA,72125,5042273057,,Jeremy,Geary,5045541785,Inspire NOLA Charter Schools,2019-05-01T04:00:00.000Z,2019-08-31T04:00:00.000Z,"M,T,W,TH",7:45AM-8:15AM,7:45AM-8:15AM,,,,,,7,N,US,107930,,2019,Orleans
-90.10276195,29.94622889,86797,Wilson Charter School (F25),Open,"3617 General Pershing Street New Orleans, LA 70125",,New Orleans,LA,70125,5042502137,,Michael,Addvensky,5044956846,Inspire NOLA Charter Schools,2019-05-01T04:00:00.000Z,2019-08-31T04:00:00.000Z,"M,T,W,TH,F",7:45AM-1:30PM,7:45AM-8:00AM,12:30PM-1:30PM,,,,,7,N,US,109393,,2019,Orleans
-90.11395979,29.88817133,86805,Lincoln Elementary School,Open,"1429 Ames Blvd Marrero, LA 70072",,Marrero,LA,70072,5043497692,,Angela,Lee,5043831606,Jefferson Parish Schools,2019-05-01T04:00:00.000Z,2019-08-31T04:00:00.000Z,"M,T,W,TH,F",7:45AM-12:15PM,7:45AM-8:45AM,10:45AM-12:15PM,,,,,7,N,US,36991,,2019,Jefferson
-92.0659281,30.19632447,86820,Calvary Summer Camp,Open,"320 Guilbeau Road Lafayette, LA 70506",,Lafayette,LA,70506,3377813234,,Leah,Thibodeaux,3375217382,Lafayette Parish School System,2019-05-01T04:00:00.000Z,2019-08-31T04:00:00.000Z,"M,T,W,TH,F",11:30AM-4:30PM,,11:30AM-12:15PM,,4:00PM-4:30PM,,,7,N,US,34520,,2019,Lafayette
-92.03359569,30.15394184,86821,Comeaux Recreation Center,Open,"411 West Bluebird Drive Lafayette, LA 70508",,Lafayette,LA,70508,3372917067,,Laura,Francis,3375217478,Lafayette Parish School System,2019-05-01T04:00:00.000Z,2019-08-31T04:00:00.000Z,"M,T,W,TH,F",11:15AM-4:30PM,,11:15AM-11:45AM,,4:00PM-4:30PM,,,7,N,US,34958,,2019,Lafayette
-92.01878474,30.20648604,86827,Girard Park,Open,"500 Girard Park Lafayette, LA 70501",,Lafayette,LA,70501,3374911440,,Laura,Francis,3372917067,Lafayette Parish School System,2019-05-01T04:00:00.000Z,2019-08-31T04:00:00.000Z,"M,T,W,TH,F",10:30AM-4:30PM,,10:30AM-11:00AM,,4:00PM-4:30PM,,,7,N,US,35947,,2019,Lafayette
-92.07127494,30.21916754,86829,Robicheaux Recreation Center,Open,"1919 Eraste Landry Road Lafayette, LA 70506",,Lafayette,LA,70506,3372918885,,Leah,Thibodeaux,3375217478,Lafayette Parish School System,2019-05-01T04:00:00.000Z,2019-08-31T04:00:00.000Z,"M,T,W,TH,F",10:30AM-4:30PM,,10:30AM-11:00AM,,4:00PM-4:30PM,,,7,N,US,38481,,2019,Lafayette
-92.05361096,30.18700864,86833,Camp Calvery/St. Barnabas Summer Feeding,Open,"400 Camellia Blvd. Lafayette, LA 70503",,Lafayette,LA,70503,3375217382,,Leah,Thibodeaux,3375217382,Lafayette Parish School System,2019-05-01T04:00:00.000Z,2019-08-31T04:00:00.000Z,"M,T,W,TH,F",12:30PM-4:30PM,,12:30PM-1:00PM,,4:00PM-4:30PM,,,7,N,US,142373,,2019,Lafayette
-91.94102421,30.14074146,86834,KidCam @ Elevation Station,Open,"240 St. Nazaire Road Broussard, LA 70518",,Broussard,LA,70518,3375528222,,Sandy,Colomb,3375217478,Lafayette Parish School System,2019-05-01T04:00:00.000Z,2019-08-31T04:00:00.000Z,"M,T,W,TH,F",11:30AM-4:30PM,,11:30AM-12:00PM,,4:00PM-4:30PM,,,7,N,US,143559,,2019,Lafayette
-91.13906016,30.45258928,86835,Laurel Oaks Charter School,Open,"440 N. Foster Drive Baton Rouge, LA 70806",,Baton Rouge,LA,70806,2252945490,,Alycia,DeCuir,2254789496,Laurel Oaks Foundation,2019-05-01T04:00:00.000Z,2019-08-31T04:00:00.000Z,"M,T,W,TH,F",7:30AM-12:30PM,7:30AM-8:30AM,11:00AM-12:30PM,,,,,7,N,US,143659,,2019,East Baton Rouge
-89.97177758,30.03094761,86837,DB Morton Arts Academy,Open,"5600 Read Blvd New Orleans, LA 70128",,New Orleans,LA,70128,5046153305,,jade,cobb,5042446800,"New Foundation For Life, Inc.",2019-05-01T04:00:00.000Z,2019-08-31T04:00:00.000Z,"M,T,W,TH,F",8:00AM-12:00PM,8:00AM-9:00AM,11:00AM-12:00PM,,,,,7,N,US,35176,,2019,Orleans
-93.9744218,32.44349225,86838,Higginbotham Library,Open,"9359 Greenwood Rd Greenwood, LA 71033",,Greenwood,LA,71033,3189381451,,Cathy,Key,3189381451,Northwest Louisiana Food Bank,2019-05-01T04:00:00.000Z,2019-08-31T04:00:00.000Z,"M,T,W,TH,F",11:00AM-1:00PM,,11:00AM-1:00PM,,,,,7,N,US,143343,,2019,Caddo
-93.8591175,32.45227074,86839,Mary Evergreen/Leaves of Life Ministries,Open,"6056 Greenwood Road Shreveport, LA 71119",,Shreveport,LA,71119,3185256141,,Gwendolyn,Washington,318525614,"Open Hands Outreach Ministries, Inc.",2019-05-01T04:00:00.000Z,2019-08-31T04:00:00.000Z,"M,T,W,TH,F",8:30AM-2:00PM,8:30AM-9:30AM,12:00PM-2:00PM,,,,,7,N,US,143858,,2019,Caddo
-90.00791792,30.02697107,86840,Franklin Avenue Baptist Church,Open,"8282 1-10 Service Road South New Orleans, LA 70126",,New Orleans,LA,70126,5049472408,,Donna,Francis,5043599609,Orleans Parish Schools,2019-05-01T04:00:00.000Z,2019-08-31T04:00:00.000Z,"M,T,W,TH,F",8:00AM-12:15PM,8:00AM-9:00AM,11:00AM-12:15PM,,,,,7,N,US,143063,,2019,Orleans
-90.07836899,29.93151939,86842,Trinity Educational Enrichment Program,Open,"1315 Jackson Ave. New Orleans, LA 70130",,New Orleans,LA,70130,5045258661,,Susan,Guice,5043596957,Orleans Parish Schools,2019-05-01T04:00:00.000Z,2019-08-31T04:00:00.000Z,"M,T,W,TH,F",8:30AM-12:30PM,8:30AM-9:00AM,12:00PM-12:30PM,,,,,7,N,US,21805,,2019,Orleans
-90.08099515,29.9420134,86843,Isrealite Baptist Church,Open,"2100 Martin Luther King Jr. New Orleans, LA 70113",,New Orleans,LA,70113,5045233591,,Shelita,Payne,5043598155,Orleans Parish Schools,2019-05-01T04:00:00.000Z,2019-08-31T04:00:00.000Z,"M,T,W,TH,F",8:00AM-12:30PM,8:00AM-8:30AM,11:30AM-12:30PM,,,,,7,N,US,19501,,2019,Orleans
-90.04401526,30.02433613,86849,Acting School to Anthony Bean Theater,Open,"6400 Press Drive New Orleans, LA 70126",,New Orleans,LA,70126,5048627529,,Deidra,Davis,5043247622,Orleans Parish Schools,2019-05-01T04:00:00.000Z,2019-08-31T04:00:00.000Z,"M,T,W,TH,F",8:30AM-1:00PM,8:30AM-9:15AM,12:00PM-1:00PM,,,,,7,N,US,84662,,2019,Orleans
-92.08205828,30.52166221,86850,JS Clark Leadership Academy,Open,"1203 South Union Street Opelousas, LA 70570",,Opelousas,LA,70570,3372123549,,Jasmine,Golden,3379483112,Outreach Community Development Corporation (OCDC),2019-05-01T04:00:00.000Z,2019-08-31T04:00:00.000Z,"M,T,W,TH,F",7:30AM-11:00AM,7:30AM-8:00AM,10:30AM-11:00AM,,,,,7,N,US,1477,,2019,St. Landry
-93.09422463,31.77379788,86851,Breda Center,Open,"1312 Dixie Street Natchitoches, LA 71457",,Natchitoches,LA,71457,3186639194,,DeQuinton,DeMars,3183572220,Parish of Natchitoches - Parish Government,2019-05-01T04:00:00.000Z,2019-08-31T04:00:00.000Z,"M,T,W,TH",8:00AM-12:30PM,8:00AM-8:30AM,12:00PM-12:30PM,,,,,7,N,US,50257,,2019,Natchitoches
-93.09725851,31.75646388,86852,First Baptist Church/North Street,Open,"201 North Street Natchitoches, LA 71457",,Natchitoches,LA,71457,3183520298,,Shuzettie,Roberson,3183572220,Parish of Natchitoches - Parish Government,2019-05-01T04:00:00.000Z,2019-08-31T04:00:00.000Z,"M,T,W,TH,F",8:00AM-12:45PM,8:00AM-8:45AM,12:00PM-12:45PM,,,,,7,N,US,51694,,2019,Natchitoches
-93.09537342,31.76220055,86853,Martin Luther King Recreation Center,Open,"660 Martin Luther King Jr. Drive Natchitoches, LA 71457",,Natchitoches,LA,71457,3183573892,,Sandra,Calhoun,3183573892,Parish of Natchitoches - Parish Government,2019-05-01T04:00:00.000Z,2019-08-31T04:00:00.000Z,"M,T,W,TH,F",8:00AM-12:45PM,8:00AM-8:30AM,12:00PM-12:45PM,,,,,7,N,US,53412,,2019,Natchitoches
-93.10255126,31.76432626,86854,Rock Island Baptist Church,Open,"635 Dixie Street Natchitoches, LA 71457",,Natchitoches,LA,71457,3183570649,,Candrena,Payton,3183572220,Parish of Natchitoches - Parish Government,2019-05-01T04:00:00.000Z,2019-08-31T04:00:00.000Z,"M,T,W,TH,F",8:00AM-12:30PM,8:00AM-8:30AM,12:00PM-12:30PM,,,,,7,N,US,55179,,2019,Natchitoches
-93.04663897,31.67276118,86856,Village of Natchez,Open,"181 Main Street Natchez, LA 71456",,Natchez,LA,71456,3183521414,,Neomi,Petite,3183521414,Parish of Natchitoches - Parish Government,2019-05-01T04:00:00.000Z,2019-08-31T04:00:00.000Z,"M,T,W,TH,F",8:00AM-12:30PM,8:00AM-8:30AM,12:00PM-12:30PM,,,,,7,N,US,56429,,2019,Natchitoches
-93.48343426,31.56380269,86857,Bethel Baptist Church,Open,"195 W. Georgia Avenue Many, LA 71449",,Many,LA,71449,3182562084,,Quidlyn,Iles,3182566942,"Pine-Belt Multi Purpose Community Action Agency, Inc.",2019-05-01T04:00:00.000Z,2019-08-31T04:00:00.000Z,"M,T,W,TH,F",8:00AM-12:30PM,8:00AM-9:00AM,11:30AM-12:30PM,,,,,7,N,US,34146,,2019,Sabine
-93.09138712,32.44321117,86858,Gibsland Head Start,Open,"Highway 154 South GIbsland, LA 71028",,GIbsland,LA,71028,3188436017,,Doris,Wilson,3188436017,"Pine-Belt Multi Purpose Community Action Agency, Inc.",2019-05-01T04:00:00.000Z,2019-08-31T04:00:00.000Z,"M,T,W,TH,F",8:00AM-12:30PM,8:00AM-9:00AM,11:30AM-12:30PM,,,,,7,N,US,35940,,2019,Bienville
-92.7032994,32.24461121,86859,Housing Authority of the Town of Jonesboro,Open,"839 Harvey Place Jonesboro, LA 71251",,Jonesboro,LA,71251,3182594177,,Linda,Osborne,3182596444,"Pine-Belt Multi Purpose Community Action Agency, Inc.",2019-05-01T04:00:00.000Z,2019-08-31T04:00:00.000Z,"M,T,W,TH,F",8:00AM-12:30PM,8:00AM-9:00AM,11:30AM-12:30PM,,,,,7,N,US,95052,,2019,Jackson
-92.71735259,32.25032448,86860,McDonald Recreation Center,Open,"400 Jeffress Street Jonesboro, LA 71251",,Jonesboro,LA,71251,3182594177,,Wanda,Bryant,3182596444,"Pine-Belt Multi Purpose Community Action Agency, Inc.",2019-05-01T04:00:00.000Z,2019-08-31T04:00:00.000Z,"M,T,W,TH,F",8:00AM-12:30PM,8:00AM-9:00AM,11:30AM-12:30PM,,,,,7,N,US,95146,,2019,Jackson
-93.47596471,31.56914779,86861,New Jerusalem Baptist Church,Open,"704 Martin Luther King Drive Many, LA 71449",,Many,LA,71449,3182563473,,Quidlyn,Iles,3182566942,"Pine-Belt Multi Purpose Community Action Agency, Inc.",2019-05-01T04:00:00.000Z,2019-08-31T04:00:00.000Z,"M,T,W,TH,F",8:00AM-12:30PM,8:00AM-9:00AM,11:30AM-12:30PM,,,,,7,N,US,37668,,2019,Sabine
-92.63088691,31.92401134,86862,Pilgrim Rest Baptist Church,Open,"409 Long St Winnfield, LA 71483",,Winnfield,LA,71483,3186285025,,Leshar,Wade,3182907286,"Pine-Belt Multi Purpose Community Action Agency, Inc.",2019-05-01T04:00:00.000Z,2019-08-31T04:00:00.000Z,"M,T,W,TH,F",8:00AM-12:30PM,8:00AM-9:00AM,11:30AM-12:30PM,,,,,7,N,US,38124,,2019,Winn
-92.93160554,32.55982703,86863,St. Duty C.M.E. Chruch,Open,"2832 Sixth Street Arcadia, LA 71001",,Arcadia,LA,71001,3182632091,,Betty,Wilks,3182638626,"Pine-Belt Multi Purpose Community Action Agency, Inc.",2019-05-01T04:00:00.000Z,2019-08-31T04:00:00.000Z,"M,T,W,TH,F",8:00AM-12:30PM,8:00AM-9:00AM,11:30AM-12:30PM,,,,,7,N,US,39017,,2019,Bienville
-93.63911902,31.64098693,86864,Tabernacle of Love,Open,"1540 Camelia Street Zwolle, LA 71486",,Zwolle,LA,71486,3186457007,,Carolyn,Calhoun,3185421237,"Pine-Belt Multi Purpose Community Action Agency, Inc.",2019-05-01T04:00:00.000Z,2019-08-31T04:00:00.000Z,"M,T,W,TH,F",8:00AM-12:30PM,8:00AM-9:00AM,11:30AM-12:30PM,,,,,7,N,US,88627,,2019,Sabine
-92.63069749,31.9136911,86865,True Vine Baptist Church,Open,"904 E Jones St Winnfield, LA 71483",,Winnfield,LA,71483,3186283588,,Annie,Pimpleton,3182907286,"Pine-Belt Multi Purpose Community Action Agency, Inc.",2019-05-01T04:00:00.000Z,2019-08-31T04:00:00.000Z,"M,T,W,TH,F",8:00AM-12:30PM,8:00AM-9:00AM,11:30AM-12:30PM,,,,,7,N,US,39453,,2019,Winn
-92.71982223,32.2747595,86866,Union-Bee Head Start Center,Open,"3039 East Sixth Street Hodge, LA 71247",,Hodge,LA,71247,3182597061,,Tysonia,Davis,3182597061,"Pine-Belt Multi Purpose Community Action Agency, Inc.",2019-05-01T04:00:00.000Z,2019-08-31T04:00:00.000Z,"M,T,W,TH,F",8:00AM-12:30PM,8:00AM-9:00AM,11:30AM-12:30PM,,,,,7,N,US,39503,,2019,Jackson
-92.64509573,31.91911559,86867,Winnfield Kindergarten Annex,Open,"1010 W Boundary Winnfield, LA 71483",,Winnfield,LA,71483,3186481725,,Patricia,Street,3182090168,"Pine-Belt Multi Purpose Community Action Agency, Inc.",2019-05-01T04:00:00.000Z,2019-08-31T04:00:00.000Z,"M,T,W,TH,F",8:00AM-12:30PM,8:00AM-9:00AM,11:30AM-12:30PM,,,,,7,N,US,39935,,2019,Winn
-91.47242825,30.70500265,86869,Pointe Coupee Enrichment Center Inc,Open,"8404 Mandella Ln New Roads, LA 70760",,New Roads,LA,70760,2256384663,,Alice,Saizon,2257181627,Pointe Coupee Enrichment Center Inc,2019-05-01T04:00:00.000Z,2019-08-31T04:00:00.000Z,"M,T,W,TH",8:00AM-12:30PM,8:00AM-9:00AM,11:00AM-12:30PM,,,,,7,N,US,2093,,2019,Pointe Coupee
-90.01392076,29.96685944,86880,Dr. Martin Luther King Charter School for Sci/Tech,Open,"1617 Caffin Street New Orleans, LA 70117",,New Orleans,LA,70117,5044277417,,Angela,May,5049402243,RSD-Friends of King,2019-05-01T04:00:00.000Z,2019-08-31T04:00:00.000Z,"M,T,W,TH,F",8:15AM-12:45PM,8:15AM-9:00AM,11:30AM-12:45PM,,,,,7,N,US,18540,,2019,Orleans
-90.06927769,29.96509085,86881,Nord Summer Camp at Joseph A Craig School,Open,"1423 St Philip Street New Orleans, LA 70116",,New Orleans,LA,70116,5049402243,,Dorothy,Watson,5049402243,RSD-Friends of King,2019-05-01T04:00:00.000Z,2019-08-31T04:00:00.000Z,"M,T,W,TH,F",8:15AM-12:45PM,8:15AM-9:00AM,11:30AM-12:45PM,,,,,7,N,US,20442,,2019,Orleans
-93.79322552,32.44465736,86888,Alemap Foundation,Open,"6660 Quilen Road Shreveport, LA 71108",,Shreveport,LA,71108,3185187252,,Marilyn,Keesee,3185187252,Sacred Inspirational Souce Outreach and Ministry,2019-05-01T04:00:00.000Z,2019-08-31T04:00:00.000Z,"M,T,W,TH,F",8:00AM-1:00PM,8:00AM-9:00AM,11:00AM-1:00PM,,,,,7,N,US,117125,,2019,Caddo
-93.72839762,32.52461479,86889,Antioch Baptist Church,Open,"724 Butler Street Bossier City, LA 71111",,Bossier City,LA,71111,3187738249,,Janice,Sneed,3187738249,Sacred Inspirational Souce Outreach and Ministry,2019-05-01T04:00:00.000Z,2019-08-31T04:00:00.000Z,"M,T,W,TH,F",5:30PM-6:45PM,,,,,5:30PM-6:45PM,,7,N,US,33885,,2019,Bossier
-93.7225643,32.49626842,86890,Oakland Baptist Church,Open,"1600 Easy Street Shreveport, LA 71101",,Shreveport,LA,71101,3185720306,,Shabrica,Reynolds,3186176497,Sacred Inspirational Souce Outreach and Ministry,2019-05-01T04:00:00.000Z,2019-08-31T04:00:00.000Z,"M,T,W,TH,F",5:30PM-6:45PM,,,,,5:30PM-6:45PM,,7,N,US,59430,,2019,Caddo
-93.68835395,32.50611,86891,Martin Luther King Community Center,Open,"100 Hooter Street Bossier City, LA 71112",,Bossier City,LA,71112,3184222547,,Angela,Spates,3184226347,Sacred Inspirational Souce Outreach and Ministry,2019-05-01T04:00:00.000Z,2019-08-31T04:00:00.000Z,"M,T,W,TH,F",11:30AM-3:45PM,,11:30AM-1:30PM,,2:45PM-3:45PM,,,7,N,US,124491,,2019,Bossier
-90.68045417,29.64179234,86892,Lafourche Parish Library - Bayou Blue Branch,Open,"198 Mazera Street Houma, LA 70364",,Houma,LA,70364,9856327140,,Lori,Olin,9856327140,Second Harvest Food Bank of Greater New Orleans and Acadiana,2019-05-01T04:00:00.000Z,2019-08-31T04:00:00.000Z,"M,TH",11:30AM-12:30PM,,11:30AM-12:30PM,,,,,7,N,US,115353,,2019,Lafourche
-90.6044407,29.73300714,86893,Lafourche Parish Library - Raceland Branch,Open,"177 Recreation Drive Raceland, LA 70394",,Raceland,LA,70394,9856327140,,Kaina,Boyd,9856327140,Second Harvest Food Bank of Greater New Orleans and Acadiana,2019-05-01T04:00:00.000Z,2019-08-31T04:00:00.000Z,"T,TH",12:00PM-1:00PM,,12:00PM-1:00PM,,,,,7,N,US,115356,,2019,Lafourche
-90.27346478,29.40149454,86895,Lafourche Parish Library - Golden Meadow Branch,Open,"1403 North Bayou Drive Golden Meadow, LA 70357",,Golden Meadow,LA,70357,9856327140,,Trinna,Griffin,9856327140,Second Harvest Food Bank of Greater New Orleans and Acadiana,2019-05-01T04:00:00.000Z,2019-08-31T04:00:00.000Z,"M,W",12:00PM-1:00PM,,12:00PM-1:00PM,,,,,7,N,US,115355,,2019,Lafourche
-90.0369034,29.96399332,86898,Alvar Branch Library,Open,"913 Alvar Street New Orleans, LA 70117",,New Orleans,LA,70117,5045962667,,Sarh,Jacobelli,5045962667,Second Harvest Food Bank of Greater New Orleans and Acadiana,2019-05-01T04:00:00.000Z,2019-08-31T04:00:00.000Z,"M,T,W,TH,F",12:00PM-1:00PM,,12:00PM-1:00PM,,,,,7,N,US,57283,,2019,Orleans
-89.97208547,30.03179397,86899,East New Orleans Regional Library,Open,"5641 Read Boulevard New Orleans, LA 70127",,New Orleans,LA,70127,5044272596,,Ashley,Fontenot,5045960200,Second Harvest Food Bank of Greater New Orleans and Acadiana,2019-05-01T04:00:00.000Z,2019-08-31T04:00:00.000Z,"M,T,W,TH,F",3:00PM-3:30PM,,,10:00AM-10:30AM,3:00PM-3:30PM,,,7,N,US,106836,,2019,Orleans
-90.10405766,29.9492863,86900,Broadmoor Community Church,Open,"2021 S. Dupre New Orleans, LA 70125",,New Orleans,LA,70125,9139405713,,Gregory,Manning,9139405713,Second Harvest Food Bank of Greater New Orleans and Acadiana,2019-05-01T04:00:00.000Z,2019-08-31T04:00:00.000Z,"M,T,W,TH,F",8:30AM-12:30PM,8:30AM-9:30AM,11:30AM-12:30PM,,,,,7,N,US,125164,,2019,Orleans
-90.0746803,29.89771871,86901,Mount Pilgrim CDC Summer Camp,Open,"1006 Pailet Street Harvey, LA 70058",,Harvey,LA,70058,5042562596,,Darnell,Quarles,5042311687,Second Harvest Food Bank of Greater New Orleans and Acadiana,2019-05-01T04:00:00.000Z,2019-08-31T04:00:00.000Z,"M,T,W,TH,F",8:00AM-12:45PM,8:00AM-9:00AM,11:45AM-12:45PM,,,,,7,N,US,59247,,2019,Jefferson
-90.07715708,29.95883954,86902,Kids First Tigercare Pediatric Clinic,Open,"1661 Canal St, Suite 1200 New Orleans, LA 70112",,New Orleans,LA,70112,,,Marcella,Houser,5042999980,Second Harvest Food Bank of Greater New Orleans and Acadiana,2019-05-01T04:00:00.000Z,2019-08-31T04:00:00.000Z,"M,T,W,TH,F",8:30AM-1:00PM,8:30AM-9:30AM,12:00PM-1:00PM,,,,,7,N,US,86748,,2019,Orleans
-90.07511264,29.95446695,86903,New Orleans Public Library - Main Library,Open,"219 Loyola Avenue New Orleans, LA 70112",,New Orleans,LA,70112,5047292837,,Laura,Bevins,5045962565,Second Harvest Food Bank of Greater New Orleans and Acadiana,2019-05-01T04:00:00.000Z,2019-08-31T04:00:00.000Z,"M,T,W,TH,F,SA",3:00PM-4:00PM,,,,3:00PM-4:00PM,,,7,N,US,115759,,2019,Orleans
-90.01405276,29.96645444,86904,New Orleans Public Library - MLK,Open,"1611 Caffin Ave New Orleans, LA 70117",,New Orleans,LA,70117,5045962695,,Roxanne,Guidry,5045962695,Second Harvest Food Bank of Greater New Orleans and Acadiana,2019-05-01T04:00:00.000Z,2019-08-31T04:00:00.000Z,"M,T,W,TH,F,SA",11:00AM-3:00PM,,11:00AM-12:00PM,,2:00PM-3:00PM,,,7,N,US,115760,,2019,Orleans
-90.06149125,29.99717529,86905,Norman Mayer Library,Open,"3001 Gentilly Blvd New Orleans, LA 70122",,New Orleans,LA,70122,5045963102,,Marta,Suiba,5045963100,Second Harvest Food Bank of Greater New Orleans and Acadiana,2019-05-01T04:00:00.000Z,2019-08-31T04:00:00.000Z,"M,T,W,TH,F",2:00PM-4:00PM,,,,2:00PM-4:00PM,,,7,N,US,115782,,2019,Orleans
-92.2856883,30.69055439,86910,Boys and Girls Club - Ville Platte,Open,"220 South Thompson Street Ville Platte, LA 70586",,Ville Platte,LA,70586,,,Dianna,Johnson,3373632939,Second Harvest Food Bank of Greater New Orleans and Acadiana,2019-05-01T04:00:00.000Z,2019-08-31T04:00:00.000Z,"M,T,W,TH,F",8:00AM-3:15PM,8:00AM-9:00AM,,,2:30PM-3:15PM,,,7,N,US,114260,,2019,Evangeline
-92.01956165,30.22650548,86911,Lafayette Public Library,Open,"301 W. Congress Lafayette, LA 70501",,Lafayette,LA,70501,,,Sarah,Durr,3374562978,Second Harvest Food Bank of Greater New Orleans and Acadiana,2019-05-01T04:00:00.000Z,2019-08-31T04:00:00.000Z,"M,T,W,TH,F",3:00PM-3:45PM,,,,3:00PM-3:45PM,,,7,N,US,95098,,2019,Lafayette
-90.72632666,29.58176131,86912,Terrebonne Library - Main Branch Summer Feeding,Open,"151 Library Drive Houma, LA 70360",,Houma,LA,70360,9858765861,233,Kati,Callais,9858765861,Second Harvest Food Bank of Greater New Orleans and Acadiana,2019-05-01T04:00:00.000Z,2019-08-31T04:00:00.000Z,"W,F",10:00AM-4:45PM,,10:00AM-11:00AM,,4:00PM-4:45PM,,,7,N,US,96556,,2019,Terrebonne
-90.99272813,29.68680462,86913,Terrebonne Parish Library Gibson Library,Open,"6363 S Bayou Black Drive Gibson, LA 70356",,Gibson,LA,70356,9858765861,233,Kati,Callais,9858765861,Second Harvest Food Bank of Greater New Orleans and Acadiana,2019-05-01T04:00:00.000Z,2019-08-31T04:00:00.000Z,T,2:30PM-3:15PM,,2:30PM-3:15PM,,,,,7,N,US,91945,,2019,Terrebonne
-90.59471194,29.44049538,86915,Terrebonne Parish Library - Chauvin Branch,Open,"5500 Highway 56 Chauvin, LA 70344",,Chauvin,LA,70344,9858765861,233,Kati,Callais,9858765861,Second Harvest Food Bank of Greater New Orleans and Acadiana,2019-05-01T04:00:00.000Z,2019-08-31T04:00:00.000Z,TH,2:00PM-3:00PM,,2:00PM-3:00PM,,,,,7,N,US,116563,,2019,Terrebonne
-90.70167923,30.04099785,86916,King David Baptist Church,Open,"2329 North King Avenue Lutcher, LA 70071",,Lutcher,LA,70071,9857032874,,Ferdinand,Wallace,9857032874,St James Parish School Board,2019-05-01T04:00:00.000Z,2019-08-31T04:00:00.000Z,"M,T,W,TH",8:00AM-8:30AM,8:00AM-8:30AM,,,,,,7,N,US,115314,,2019,St. James
-90.71123733,30.00793662,86917,First Baptist Church - Vacherie,Open,"2314 Magnolia Heights Vacherie, LA 70090",,Vacherie,LA,70090,2252654015,,Marsha,Fleming,2252654015,St James Parish School Board,2019-05-01T04:00:00.000Z,2019-08-31T04:00:00.000Z,"M,T,W,TH",8:00AM-8:30AM,8:00AM-8:30AM,,,,,,7,N,US,15719,,2019,St. James
-90.85194004,30.04576938,86920,Welcome Park (Summer Feeding),Open,"7260 Park Street Saint James, LA 70086",,Saint James,LA,70086,2258063307,,Elanda,Dennis,2252584646,St James Parish School Board,2019-05-01T04:00:00.000Z,2019-08-31T04:00:00.000Z,M,7:45AM-8:30AM,7:45AM-8:30AM,,,,,,7,N,US,116791,,2019,St. James
-90.50645617,30.07440528,86922,New Wine Christian Center Fellowship Kitchen,Open,"1931 West Airline Highway Laplace, LA 70068",,Laplace,LA,70068,9855364955,,Denise,Gray,9855364955,St John the Baptist Parish Council,2019-05-01T04:00:00.000Z,2019-08-31T04:00:00.000Z,"M,T,W,TH,F",7:30AM-1:00PM,7:30AM-8:30AM,11:00AM-1:00PM,,,,,7,N,US,37701,,2019,St. John the Baptist
-91.83893383,30.16191548,86942,Woodman of the World,Open,"1397 Leed Champagne Rd St. Martinville, LA 70582",,St. Martinville,LA,70582,3372546892,,Zack,Robertson,3373942200,St Martin Parish Government Police Jury,2019-05-01T04:00:00.000Z,2019-08-31T04:00:00.000Z,"M,T,W,TH,F",7:30AM-12:00PM,7:30AM-8:30AM,10:30AM-12:00PM,,,,,7,N,US,120211,,2019,St. Martin
-91.905921,30.2955165,86943,Kinder Kollege Summer Camp,Open,"1908 Commercial Park Drive Breaux Bridge, LA 70517",,Breaux Bridge,LA,70517,3379093022,,Mable,Franks,3373942200,St Martin Parish Government Police Jury,2019-05-01T04:00:00.000Z,2019-08-31T04:00:00.000Z,"M,T,W,TH,F",7:30AM-12:00PM,7:30AM-8:15AM,10:30AM-12:00PM,,,,,7,N,US,143580,,2019,St. Martin
-91.2604307,29.68600301,86949,Bayou Vista Community Center,Open,"1333 Belleview St Bayou Vista, LA 70392",,Bayou Vista,LA,70392,9853956552,,Faith,Webb,9853956552,"St. Mary Community Action Committee Assn., Inc.",2019-05-01T04:00:00.000Z,2019-08-31T04:00:00.000Z,"M,T,W,TH,F",11:00AM-12:30PM,,11:00AM-12:30PM,,,,,7,N,US,34059,,2019,St. Mary
-91.14460091,29.68620253,86952,Siracusa Recreation Center,Open,"1106 Grace St Morgan City, LA 70380",,Morgan City,LA,70380,3378285703,,Antoinette,Jones,9853854224,"St. Mary Community Action Committee Assn., Inc.",2019-05-01T04:00:00.000Z,2019-08-31T04:00:00.000Z,"M,T,W,TH,F",8:00AM-12:30PM,8:00AM-9:00AM,11:00AM-12:30PM,,,,,7,N,US,38839,,2019,St. Mary
-91.40490686,29.75495818,86953,St. Mary Parish Alternative School (closed),Open,"131 Clausen Rd S Franklin, LA 70538",,Franklin,LA,70538,3378285703,,Debbie,Davis,9853854224,"St. Mary Community Action Committee Assn., Inc.",2019-05-01T04:00:00.000Z,2019-08-31T04:00:00.000Z,"M,T,W,TH,F",8:00AM-12:30PM,8:00AM-9:00AM,11:00AM-12:30PM,,,,,7,N,US,39048,,2019,St. Mary
-91.63004542,29.87043462,86954,West St. Mary Civic Center,Open,"1498 Highway 318 Jeanerette, LA 70544",,Jeanerette,LA,70544,3372764896,,Priscilla,Harrison,3372764896,"St. Mary Community Action Committee Assn., Inc.",2019-05-01T04:00:00.000Z,2019-08-31T04:00:00.000Z,"M,T,W,TH,F",8:00AM-12:30PM,8:00AM-9:00AM,11:00AM-12:30PM,,,,,7,N,US,39806,,2019,St. Mary
-90.09435372,29.9356818,86967,YAYA Arts Center,Open,"3322 LaSalle Street New Orleans, LA 70115",,New Orleans,LA,70115,5045293306,9,Timeka,Junius,5045293306,The Healthy School Food Collaborative,2019-05-01T04:00:00.000Z,2019-08-31T04:00:00.000Z,"M,T,W,TH,F",8:30AM-1:00PM,8:30AM-9:00AM,12:00PM-1:00PM,,,,,7,N,US,60786,,2019,Orleans
-90.73010656,29.58172172,86968,Bayouland YMCA,Open,"103 Valhi Blvd Houma, LA 70360",,Houma,LA,70360,9858739622,,Anji,Falgout,9858739622,The Healthy School Food Collaborative,2019-05-01T04:00:00.000Z,2019-08-31T04:00:00.000Z,"M,T,W,TH,F",7:00AM-12:00PM,7:00AM-8:00AM,11:00AM-12:00PM,,,,,7,N,US,114159,,2019,Terrebonne
-90.12750985,29.95596523,86969,Community Commitment Education,Open,"8540 Spruce Street New Orleans, LA 70118",,New Orleans,LA,70118,,,Nicole,Bouie,5049310549,The Healthy School Food Collaborative,2019-05-01T04:00:00.000Z,2019-08-31T04:00:00.000Z,"M,T,W,TH,F",8:30AM-12:30PM,8:30AM-9:00AM,12:00PM-12:30PM,,,,,7,N,US,63654,,2019,Orleans
-90.50342492,30.66738554,86970,Faith Hope and Charity Mission Church,Open,"13140 Velma Rd Amite, LA 70422",,Amite,LA,70422,9856340663,,Wanda,Thomas,9856340663,The Healthy School Food Collaborative,2019-05-01T04:00:00.000Z,2019-08-31T04:00:00.000Z,"M,T,W,TH,F",8:00AM-11:30AM,8:00AM-8:30AM,11:00AM-11:30AM,,,,,7,N,US,95831,,2019,Tangipahoa
-89.97108426,30.03042045,86971,Future Kick Karate Sports & Activity Camp,Open,"5601 Read Boulevard New Orleans, LA 70126",,New Orleans,LA,70126,5042455425,,Ronald,George,5042455425,The Healthy School Food Collaborative,2019-05-01T04:00:00.000Z,2019-08-31T04:00:00.000Z,"M,T,W,TH,F",8:00AM-12:30PM,8:00AM-9:00AM,11:30AM-12:30PM,,,,,7,N,US,114917,,2019,Orleans
-90.11515143,29.96239432,86972,Goal Getter LLC's Teen Entrepreneurship Camp,Open,"8137 Oleander Street New Orleans, LA 70118",,New Orleans,LA,70118,5044181254,,Annette,Morris,5044520110,The Healthy School Food Collaborative,2019-05-01T04:00:00.000Z,2019-08-31T04:00:00.000Z,"M,T,W,TH,F",8:00AM-1:00PM,8:00AM-9:00AM,12:00PM-1:00PM,,,,,7,N,US,114971,,2019,Orleans
-90.03222037,29.9648521,86973,Stallings Recreation Center,Open,"4300 St. Claude Ave New Orleans, LA 70117",,New Orleans,LA,70117,5046583053,,Cassandra,Porter,5042280887,The Healthy School Food Collaborative,2019-05-01T04:00:00.000Z,2019-08-31T04:00:00.000Z,"M,T,W,TH,F",8:00AM-12:30PM,8:00AM-8:30AM,12:00PM-12:30PM,,,,,7,N,US,55830,,2019,Orleans
-90.06522139,29.96393174,86976,North Rampart Community Center,Open,"1130 North Rampart Street New Orleans, LA 70116",,New Orleans,LA,70116,5045291681,,Jeffrey,Parker,5045291681,The Healthy School Food Collaborative,2019-05-01T04:00:00.000Z,2019-08-31T04:00:00.000Z,"M,T,W,TH,F",8:30AM-12:30PM,8:30AM-9:00AM,11:30AM-12:30PM,,,,,7,N,US,54046,,2019,Orleans
-90.08797626,29.95028025,86978,XS Martial Arts Dojo,Open,"3038 Earhart Blvd. New Orleans, LA 70125",,New Orleans,LA,70125,5044181254,,Monica,Horne,5045589850,The Healthy School Food Collaborative,2019-05-01T04:00:00.000Z,2019-08-31T04:00:00.000Z,"M,T,W,TH,F",9:15AM-12:45PM,9:15AM-10:00AM,12:15PM-12:45PM,,,,,7,N,US,65429,,2019,Orleans
-90.07030097,29.9460101,86979,Operation Spark,Open,"748 Camp Street New Orleans, LA 70130",,New Orleans,LA,70130,5044507002,,Mayukh,Raychaudhuri,6093152522,The Healthy School Food Collaborative,2019-05-01T04:00:00.000Z,2019-08-31T04:00:00.000Z,"M,T,W,TH,F",8:30AM-1:00PM,8:30AM-9:00AM,12:00PM-1:00PM,,,,,7,N,US,96231,,2019,Orleans
-90.0513546,30.01433246,86980,NORDC Outdoors Teen Career Camp,Open,"5420 Franklin Avenue New Orleans, LA 70122",,New Orleans,LA,70122,5042024042,,PAMALA,THOMAS,5043158859,The Healthy School Food Collaborative,2019-05-01T04:00:00.000Z,2019-08-31T04:00:00.000Z,"M,T,W,TH,F",8:00AM-12:30PM,8:00AM-8:30AM,12:00PM-12:30PM,,,,,7,N,US,108188,,2019,Orleans
-90.07683276,29.97744203,86995,Camp Oya!,Open,"1474 North Broad Street New Orleans, LA 70119",,New Orleans,LA,70119,5044007224,,Journey,Allen,5044007224,The Healthy School Food Collaborative,2019-05-01T04:00:00.000Z,2019-08-31T04:00:00.000Z,"M,T,W,TH,F",8:00AM-1:00PM,8:00AM-9:00AM,12:00PM-1:00PM,,,,,7,N,US,142380,,2019,Orleans
-89.98926419,30.02786734,86996,Excite All Stars,Open,"8600 Lake Forest New Orleans, LA 70126",,New Orleans,LA,70126,5047170085,,Penny,Williams,5047170085,The Healthy School Food Collaborative,2019-05-01T04:00:00.000Z,2019-08-31T04:00:00.000Z,"M,T,W,TH,F",7:45AM-11:30AM,7:45AM-8:30AM,11:00AM-11:30AM,,,,,7,N,US,142933,,2019,Orleans
-90.08752958,29.96712226,86997,Hope Community Resource Center,Open,"2740 Iberville Street New Orleans, LA 70122",,New Orleans,LA,70122,5044181256,,Noreen,Jacobs,5043121333,The Healthy School Food Collaborative,2019-05-01T04:00:00.000Z,2019-08-31T04:00:00.000Z,"M,T,W,TH,F",12:30PM-1:00PM,,,,12:30PM-1:00PM,,,7,N,US,95944,,2019,Orleans
-90.08332393,29.93679428,86999,1881 Stem//Cultural Arts Summer Camp,Open,"2220 Oretha Castle Haley Blvd New Orleans, LA 70126",,New Orleans,LA,70126,5042281461,,Debra,Robertson,5049752645,The Healthy School Food Collaborative,2019-05-01T04:00:00.000Z,2019-08-31T04:00:00.000Z,,9:00AM-1:00PM,9:00AM-10:00AM,12:00PM-1:00PM,,,,,7,N,US,102667,,2019,Orleans
-90.06996571,29.94953301,87002,Pan American Life Conference Center & Cafe 601,Open,"601 Poydras Street 11th floor New Orleans, LA 70130",,New Orleans,LA,70130,5045611245,,David,Moffett,5045611244,The Healthy School Food Collaborative,2019-05-01T04:00:00.000Z,2019-08-31T04:00:00.000Z,"M,T,W,TH,F",1:00PM-1:30PM,,1:00PM-1:30PM,10:00AM-11:00AM,,,,7,N,US,108307,,2019,Orleans
-90.07502902,29.99285851,87004,TCA Camp @ NORDC Saint Bernard,Open,"1500 Lafreniere Street New Orleans, LA 70122",,New Orleans,LA,70122,5042899925,,Shanita,Keelen,9014280675,The Healthy School Food Collaborative,2019-05-01T04:00:00.000Z,2019-08-31T04:00:00.000Z,"M,T,W,TH,F",8:00AM-1:00PM,8:00AM-9:00AM,12:00PM-1:00PM,,,,,7,N,US,144980,,2019,Orleans
-90.68697601,29.59158482,87005,LeCirque @ Mechanicville Recreation-Summer Feeding,Open,"2814 Senator Street Houma, LA 70363",,Houma,LA,70363,9853036108,,Nichelle,Frye,9853036108,The Healthy School Food Collaborative,2019-05-01T04:00:00.000Z,2019-08-31T04:00:00.000Z,"T,W,TH",12:00PM-12:30PM,,12:00PM-12:30PM,9:00AM-9:30AM,,,,7,N,US,143674,,2019,Terrebonne
-90.03538323,29.94482551,87009,Golden Feather,Open,"2101 General Meyer New Orleans, LA 70113",,New Orleans,LA,70113,,,Walter,Barnes,5045959491,The Healthy School Food Collaborative,2019-05-01T04:00:00.000Z,2019-08-31T04:00:00.000Z,,9:00AM-10:00AM,9:00AM-10:00AM,,,,,,7,N,US,103751,,2019,Orleans
-91.03657436,30.4233815,87010,Kids Orchestra Summer Day Camp,Open,"3200 Woodland Ridge Baton Rouge, LA 70816",,Baton Rouge,LA,70816,2259224656,,Puja,Thapa,2259224656,The Healthy School Food Collaborative,2019-05-01T04:00:00.000Z,2019-08-31T04:00:00.000Z,,9:00AM-10:00AM,9:00AM-10:00AM,,,,,,7,N,US,99643,,2019,East Baton Rouge
-90.06522139,29.96393174,87011,Knowing Your Destiny @ Willow Apts,Open,"1130 North Rampart Street New Orleans, LA 70126",,New Orleans,LA,70126,5047175522,,Niesha,Freeman,5047175522,The Healthy School Food Collaborative,2019-05-01T04:00:00.000Z,2019-08-31T04:00:00.000Z,,9:00AM-10:00AM,9:00AM-10:00AM,,,,,,7,N,US,115338,,2019,Orleans
-90.05288555,29.97580313,87013,St. Roch Community Church,Open,"1738 St. Roch Ave New Orleans, LA 70117",,New Orleans,LA,70117,5049405771,,Nika,Carter,5042216572,The Healthy School Food Collaborative,2019-05-01T04:00:00.000Z,2019-08-31T04:00:00.000Z,,9:00AM-10:00AM,9:00AM-10:00AM,,,,,,7,N,US,39067,,2019,Orleans
-90.4734483,30.49380204,87014,Tangipahoa Black Heritage Center - Youth Program,Open,"1600 Phoenix Square Hammond, LA 70403",,Hammond,LA,70403,,,Sylvia,Hurst,9859819026,The Healthy School Food Collaborative,2019-05-01T04:00:00.000Z,2019-08-31T04:00:00.000Z,,9:00AM-10:00AM,9:00AM-10:00AM,,,,,,7,N,US,69763,,2019,Tangipahoa
-91.56238689,31.63522721,87015,United Hands Youth Center,Open,"109 Doty Road Ferriday, LA 71334",,Ferriday,LA,71334,3187580857,,Janica,Green,3187580857,The United Hands Youth Center,2019-05-01T04:00:00.000Z,2019-08-31T04:00:00.000Z,"M,T,W,TH,F",8:00AM-1:30PM,8:00AM-9:00AM,12:00PM-1:30PM,,,,,7,N,US,39505,,2019,Concordia
-91.22236141,30.41506329,87017,Adventureland,Open,"1953 West Shore Avenue Port Allen, LA 70767",,Port Allen,LA,70767,2257696177,,Troy,Smart,2257496177,Three OClock Project,2019-05-01T04:00:00.000Z,2019-08-31T04:00:00.000Z,"M,T,W,TH,F",8:00AM-12:00PM,8:00AM-8:30AM,11:00AM-12:00PM,,,,,7,N,US,17297,,2019,West Baton Rouge
-92.07509396,30.5282917,87018,Boys & Girls Club,Open,"814 E Laurent Street Opelousas, LA 70570",,Opelousas,LA,70570,3379483657,,Adrian,Giron,3373224076,Three OClock Project,2019-05-01T04:00:00.000Z,2019-08-31T04:00:00.000Z,"M,T,W,TH,F",8:00AM-1:30PM,8:00AM-9:00AM,12:00PM-1:30PM,,,,,7,N,US,34259,,2019,St. Landry
-93.86553891,32.46664322,87019,Bill Cockrell Recreation Center,Open,"4109 Pines Road Shreveport, LA 71119",,Shreveport,LA,71119,3186294185,,Eric,Anderson,3186294185,Three OClock Project,2019-05-01T04:00:00.000Z,2019-08-31T04:00:00.000Z,"M,T,W,TH,F",12:00PM-4:30PM,,12:00PM-1:30PM,,3:30PM-4:30PM,,,7,N,US,57458,,2019,Caddo
-92.06424845,30.21354667,87020,Boys & Girls Club - Jackie Unit,Open,"1000 Marie Antionette Lafayette, LA 70506",,Lafayette,LA,70506,3379882582,,Joseph,Long,3372802398,Three OClock Project,2019-05-01T04:00:00.000Z,2019-08-31T04:00:00.000Z,"M,T,W,TH,F",8:30AM-1:30PM,8:30AM-9:30AM,12:00PM-1:30PM,,,,,7,N,US,34261,,2019,Lafayette
-93.76935895,32.461056,87023,Hattie Perry Community Center,Open,"4300 Ledbetter Street Shreveport, LA 71108",,Shreveport,LA,71108,3182273350,,S'Nerica,Braden,3186737810,Three OClock Project,2019-05-01T04:00:00.000Z,2019-08-31T04:00:00.000Z,"M,T,W,TH,F",12:00PM-4:30PM,,12:00PM-1:30PM,,3:30PM-4:30PM,,,7,N,US,143302,,2019,Caddo
-92.02179165,30.23388,87024,Boys & Girls Clubs - Granberry Unit,Open,"121 South Washington Street Lafayette, LA 70501",,Lafayette,LA,70501,3372326401,,Harold,Alexander,3372326401,Three OClock Project,2019-05-01T04:00:00.000Z,2019-08-31T04:00:00.000Z,"M,T,W,TH,F",8:30AM-1:30PM,8:30AM-9:30AM,12:00PM-1:30PM,,,,,7,N,US,34288,,2019,Lafayette
-93.77531306,32.50356947,87025,Lakeside Community Center,Open,"2200 Milam Street Shreveport, LA 71103",,Shreveport,LA,71103,3186737812,,Quiana,Hubbard,3186737812,Three OClock Project,2019-05-01T04:00:00.000Z,2019-08-31T04:00:00.000Z,"M,T,W,TH,F",12:00PM-4:30PM,,12:00PM-1:30PM,,3:30PM-4:30PM,,,7,N,US,53007,,2019,Caddo
-93.75539273,32.54300136,87026,Mamie Hicks Park and Community Center,Open,"200 Mayfair Drive Shreveport, LA 71107",,Shreveport,LA,71107,3186736416,,Christopher,Bush,3186736416,Three OClock Project,2019-05-01T04:00:00.000Z,2019-08-31T04:00:00.000Z,"M,T,W,TH,F",12:00PM-4:30PM,,12:00PM-1:30PM,,3:30PM-4:30PM,,,7,N,US,53337,,2019,Caddo
-91.81829392,29.9999645,87027,Boys and Girls Club of Acadiana Iberia Unit,Open,"430 E. Pershing Avenue New Iberia, LA 70560",,New Iberia,LA,70560,3373156125,,Micah,Nicholas,3373647040,Three OClock Project,2019-05-01T04:00:00.000Z,2019-08-31T04:00:00.000Z,"M,T,W,TH,F",8:00AM-2:00PM,8:00AM-9:00AM,12:00PM-2:00PM,,,,,7,N,US,34308,,2019,Iberia
-93.78383601,32.40172597,87028,Southern Hills Recreation,Open,"1002 Bert Kouns Shreveport, LA 71108",,Shreveport,LA,71108,3186737818,,Lois,Reynolds,3186737818,Three OClock Project,2019-05-01T04:00:00.000Z,2019-08-31T04:00:00.000Z,"M,T,W,TH,F",12:00PM-4:30PM,,12:00PM-1:30PM,,3:30PM-4:30PM,,,7,N,US,60187,,2019,Caddo
-93.72039614,32.49428924,87030,Valencia Recreation,Open,"1800 Viking Drive Shreveport, LA 71107",,Shreveport,LA,71107,3186736433,,Johnny,Edwards,3186736433,Three OClock Project,2019-05-01T04:00:00.000Z,2019-08-31T04:00:00.000Z,"M,T,W,TH,F",12:00PM-4:30PM,,12:00PM-1:30PM,,3:30PM-4:30PM,,,7,N,US,145193,,2019,Caddo
-93.76123444,32.46604349,87031,Greater Pleasant Grove,Open,"1500 Grigsby Street Shreveport, LA 71108",,Shreveport,LA,71108,3184260726,,Arlisha,Brooks,3185173850,Three OClock Project,2019-05-01T04:00:00.000Z,2019-08-31T04:00:00.000Z,"M,T,W,TH,F",12:00PM-1:30PM,,12:00PM-1:30PM,,,,,7,N,US,19149,,2019,Caddo
-93.74751403,32.43281053,87032,A.B. Palmer Recreation Center,Open,"547 East 79th Street Shreveport, LA 71106",,Shreveport,LA,71106,3186735336,,Baronette,Robinson,3186735336,Three OClock Project,2019-05-01T04:00:00.000Z,2019-08-31T04:00:00.000Z,"M,T,W,TH,F",12:00PM-4:30PM,,12:00PM-1:30PM,,3:30PM-4:30PM,,,7,N,US,57219,,2019,Caddo
-93.8101626,32.44929665,87033,Airport Park and Community Center,Open,"6500 Kennedy Drive Shreveport, LA 71109",,Shreveport,LA,71109,3182273350,,Gerald,Brown,3186737803,Three OClock Project,2019-05-01T04:00:00.000Z,2019-08-31T04:00:00.000Z,"M,T,W,TH,F",12:00PM-5:00PM,,12:00PM-1:30PM,,4:00PM-5:00PM,,,7,N,US,49659,,2019,Caddo
-92.50208817,30.02478722,87037,St. Matthews Baptist Church,Open,"1109 McMurty Street Gueydan, LA 70542",,Gueydan,LA,70542,9104941784,,Casey,Judge,3375369890,Vermilion Parish School Board,2019-05-01T04:00:00.000Z,2019-08-31T04:00:00.000Z,"M,T,W,TH,F",7:30AM-11:45AM,7:30AM-8:30AM,11:15AM-11:45AM,,,,,7,N,US,96523,,2019,Vermilion
-92.37783202,30.00583592,87038,New Beginnings Primative Baptist Church,Open,"622 East Veteran Memorial Blvd Kaplan, LA 70548",,Kaplan,LA,70548,3376431850,,Shawn,LeBlanc,3376431850,Vermilion Parish School Board,2019-05-01T04:00:00.000Z,2019-08-31T04:00:00.000Z,"M,T,W,TH,F",7:30AM-11:45AM,7:30AM-8:30AM,11:15AM-11:45AM,,,,,7,N,US,144129,,2019,Vermilion
-89.98353827,29.92341433,87039,Cut-off Recreation Center (Covered Kids),Open,"6600 Belgrade Street New Orleans, LA 70131",,New Orleans,LA,70131,5044948776,,Angelique,Francois,5044948776,Volunteers of America Southeast Louisiana Inc,2019-05-01T04:00:00.000Z,2019-08-31T04:00:00.000Z,"M,T,W,TH,F",8:00AM-1:30PM,8:00AM-9:00AM,11:30AM-1:30PM,,,,,7,N,US,124251,,2019,Orleans
-90.02346269,29.96488454,87040,Leona Tate Foundation/Lower Nineth Ward Living Museum,Open,"1235 Deslonde Street New Orleans, LA 70117",,New Orleans,LA,70117,,,Leona,Tate,5042739709,Volunteers of America Southeast Louisiana Inc,2019-05-01T04:00:00.000Z,2019-08-31T04:00:00.000Z,"M,T,W,TH,F",9:00AM-2:00PM,9:00AM-10:00AM,12:00PM-2:00PM,,,,,7,N,US,124458,,2019,Orleans
-90.08697967,29.91881434,87045,New Orleans Ballet Assocation/Noba,Open,"Nordc at the Lyons Center/624 Louisiana Avenue New Orleans, LA 70115",,New Orleans,LA,70115,5045220996,,Susan,Bensinger,5045220996,Volunteers of America Southeast Louisiana Inc,2019-05-01T04:00:00.000Z,2019-08-31T04:00:00.000Z,"M,T,W,TH,F",8:30AM-2:30PM,8:30AM-9:30AM,12:30PM-2:30PM,,,,,7,N,US,37684,,2019,Orleans
-90.09085297,29.93021662,87052,Upturn Arts,Open,"1719 Toledano Street New Orleans, LA 70115",,New Orleans,LA,70115,5043908399,,Cole,Williams,5043908399,Volunteers of America Southeast Louisiana Inc,2019-05-01T04:00:00.000Z,2019-08-31T04:00:00.000Z,"M,T,W,TH,F",9:00AM-2:00PM,9:00AM-10:00AM,12:00PM-2:00PM,,,,,7,N,US,60548,,2019,Orleans
-90.09440356,29.94920903,87053,Urban Impact Ministries,Open,"2344 S. Miro Street New Orleans, LA 70125",,New Orleans,LA,70125,5045235556,,Helen,Harris,5045235566,Volunteers of America Southeast Louisiana Inc,2019-05-01T04:00:00.000Z,2019-08-31T04:00:00.000Z,"M,T,W,TH,F",12:30PM-4:00PM,,12:30PM-2:00PM,,3:30PM-4:00PM,,,7,N,US,88865,,2019,Orleans
-90.22133232,29.97783361,87056,Williams Park,Open,"7744 Mistletoe St. Metairie, LA 70003",,Metairie,LA,70003,5047366992,,Bobbie,Lewis,5047368470,Volunteers of America Southeast Louisiana Inc,2019-05-01T04:00:00.000Z,2019-08-31T04:00:00.000Z,"M,T,W,TH,F",9:00AM-2:00PM,9:00AM-10:00AM,12:00PM-2:00PM,,,,,7,N,US,56718,,2019,Jefferson
-90.02733693,29.94697348,87057,Aligers Auditorium,Open,"2485 Guadualcanal Street New Orleans, LA 70114",,New Orleans,LA,70114,4075837898,,Jerel,Butler,5046698131,Volunteers of America Southeast Louisiana Inc,2019-05-01T04:00:00.000Z,2019-08-31T04:00:00.000Z,"M,T,W,TH,F",8:00AM-2:00PM,8:00AM-9:00AM,12:00PM-2:00PM,,,,,7,N,US,141970,,2019,Orleans
-90.04988825,29.95049775,87058,International School of LA - Westbank Orleans,Open,"502 Oliver St. New Orleans, LA 70114",,New Orleans,LA,70114,5045222667,,Arden,Guieiredo,5045222667,Volunteers of America Southeast Louisiana Inc,2019-05-01T04:00:00.000Z,2019-08-31T04:00:00.000Z,"M,T,W,TH,F",9:00AM-1:45PM,9:00AM-10:00AM,12:00PM-1:45PM,,,,,7,N,US,143452,,2019,Orleans
-90.12167337,29.93374619,87059,Loyola University (Electric Girls Summer Camp),Open,"6363 St Charles Ave New Orleans, LA 70118",,New Orleans,LA,70118,6155851434,,Flor,Serna,5058507578,Volunteers of America Southeast Louisiana Inc,2019-05-01T04:00:00.000Z,2019-08-31T04:00:00.000Z,"M,T,W,TH,F",11:30AM-1:30PM,,11:30AM-1:30PM,,,,,7,N,US,115482,,2019,Orleans
-90.01943182,29.88868923,87060,Athlos Academy of Jefferson,Open,"979 Behrman Hwy Terrytown, LA 70056",,Terrytown,LA,70056,2254089892,,Erin,LaBostrie,5042902510,Volunteers of America Southeast Louisiana Inc,2019-05-01T04:00:00.000Z,2019-08-31T04:00:00.000Z,"M,T,W,TH,F",7:15AM-1:15PM,7:15AM-8:15AM,11:15AM-1:15PM,,,,,7,N,US,142052,,2019,Jefferson
-90.10168797,29.97511228,87063,Mid City Library,Open,"4140 Canal Library New Orleans, LA 70119",,New Orleans,LA,70119,5045962658,,Robin,Goldblum,5045962656,Volunteers of America Southeast Louisiana Inc,2019-05-01T04:00:00.000Z,2019-08-31T04:00:00.000Z,"M,T,W,TH,F",3:30PM-4:30PM,,,11:30AM-12:30PM,3:30PM-4:30PM,,,7,N,US,124512,,2019,Orleans
-90.11214064,29.97169508,87065,Life Transformation Center Celebration Church,Open,"8606 Marks Street New Orleans, LA 70118",,New Orleans,LA,70118,5042962934,,Carolyn,Tilton,5042962934,Volunteers of America Southeast Louisiana Inc,2019-05-01T04:00:00.000Z,2019-08-31T04:00:00.000Z,"M,T,W,TH,F",8:00AM-1:00PM,8:00AM-9:00AM,11:00AM-1:00PM,,,,,7,N,US,143708,,2019,Orleans
-90.09639597,29.95443267,87066,Boys & Girls Club NFL-YET,Open,"1140 S Broad St New Orleans, LA 70125",,New Orleans,LA,70125,5042620626,,Connie,Smith,5043097952,Volunteers of America Southeast Louisiana Inc,2019-05-01T04:00:00.000Z,2019-08-31T04:00:00.000Z,"M,T,W,TH,F",12:00PM-4:00PM,,12:00PM-2:00PM,,3:00PM-4:00PM,,,7,N,US,142266,,2019,Orleans
-90.08779686,29.96985219,87067,House of Healing Outreach Church,Open,"2912 Conti Street New Orleans, LA 70119",,New Orleans,LA,70119,5042378361,,Valery,Green,5042378361,Volunteers of America Southeast Louisiana Inc,2019-05-01T04:00:00.000Z,2019-08-31T04:00:00.000Z,"M,T,W,TH,F",8:00AM-2:00PM,8:00AM-9:00AM,12:00PM-2:00PM,,,,,7,N,US,143396,,2019,Orleans
-90.06750031,29.97571963,87068,Nora Navra Library - Summer Feeding,Open,"1902 St. Bernard Avenue New Orleans, LA 70116",,New Orleans,LA,70116,5045963118,,Adam,Beebe,5045963118,Volunteers of America Southeast Louisiana Inc,2019-05-01T04:00:00.000Z,2019-08-31T04:00:00.000Z,"M,T,W,TH,F",3:00PM-4:00PM,,,,3:00PM-4:00PM,,,7,N,US,144179,,2019,Orleans
-90.08542224,30.72741571,87070,Enon Baptist Church,Open,"14049 Highway 16 Franklinton, LA 70438",,Franklinton,LA,70438,9857952517,,Cindy,Pace,9855157615,Washington Parish School Board,2019-05-01T04:00:00.000Z,2019-08-31T04:00:00.000Z,"M,T,W,TH,F",10:45AM-11:45AM,,10:45AM-11:45AM,,,,,7,N,US,35539,,2019,Washington
-90.15422599,30.88390225,87071,Faith in the Word,Open,"44238 Vessier Road Franklinton, LA 70438",,Franklinton,LA,70438,9858393436,,Anita,Warren,9855157341,Washington Parish School Board,2019-05-01T04:00:00.000Z,2019-08-31T04:00:00.000Z,"M,T,W,TH",6:15PM-7:00PM,,,,,6:15PM-7:00PM,,7,N,US,106967,,2019,Washington
-90.15628491,30.84579116,87072,First Baptist Church,Open,"903 Cleveland Street Franklinton, LA 70438",,Franklinton,LA,70438,9858393427,,Kellie,McElveen,9858393427,Washington Parish School Board,2019-05-01T04:00:00.000Z,2019-08-31T04:00:00.000Z,"M,T,W,TH",11:15AM-12:00PM,,11:15AM-12:00PM,,,,,7,N,US,35687,,2019,Washington
-89.80231258,30.90725721,87073,First Missionary Baptist Church,Open,"26052 Pearson Street Angie, LA 70426",,Angie,LA,70426,9855159145,,Debbie,Magee,9855159145,Washington Parish School Board,2019-05-01T04:00:00.000Z,2019-08-31T04:00:00.000Z,"M,T,W,TH,F",5:30PM-6:30PM,,,,,5:30PM-6:30PM,,7,N,US,35714,,2019,Washington
-89.8251619,30.898247,87074,Mary's Chapel United Methodist,Open,"63343 Jones Creek Road Varnado, LA 70428",,Varnado,LA,70428,9858393436,,Gloria,Davis,9855153085,Washington Parish School Board,2019-05-01T04:00:00.000Z,2019-08-31T04:00:00.000Z,"M,T,W,TH,F",6:15PM-7:00PM,,,,,6:15PM-7:00PM,,7,N,US,107894,,2019,Washington
-90.29604046,30.95707154,87075,Mt. Hermon Baptist Church,Open,"36126 Hwy 38 Mt. Hermon, LA 70450",,Mt. Hermon,LA,70450,9858774751,,Stacey,Breaud,9853354256,Washington Parish School Board,2019-05-01T04:00:00.000Z,2019-08-31T04:00:00.000Z,"M,T,W,TH",5:00PM-6:00PM,,,,,5:00PM-6:00PM,,7,N,US,87420,,2019,Washington
-90.31287407,30.92932739,87076,Mt. Olive Baptist Church,Open,"28040 Mt. Olive Baptist Church Mt. Hermon, LA 70450",,Mt. Hermon,LA,70450,9855159530,,Anna,Dillon,9855159530,Washington Parish School Board,2019-05-01T04:00:00.000Z,2019-08-31T04:00:00.000Z,"M,T,W,TH",6:00PM-7:00PM,,,,,6:00PM-7:00PM,,7,N,US,115699,,2019,Washington
-89.81628905,30.89913274,87077,Mt. Zion Baptist Church,Open,"64115 Jones Creek Road Varnado, LA 70426",,Varnado,LA,70426,9855165994,,Annie,Moses,9855165994,Washington Parish School Board,2019-05-01T04:00:00.000Z,2019-08-31T04:00:00.000Z,"M,T,W,TH,F",5:45PM-6:45PM,,,,,5:45PM-6:45PM,,7,N,US,37536,,2019,Washington
-89.96895456,30.75148468,87079,Plainview Baptist Church,Open,"55179 Highway 60 Bogalusa, LA 70427",,Bogalusa,LA,70427,9853358528,,Michelle,Breland,9853358528,Washington Parish School Board,2019-05-01T04:00:00.000Z,2019-08-31T04:00:00.000Z,"M,T,W,TH,F",6:00PM-7:00PM,,,,,6:00PM-7:00PM,,7,N,US,38161,,2019,Washington
-90.1413544,30.8525139,87080,Sweet Home Church of Christ Holiness,Open,"2200 Greenlaw Street Franklinton, LA 70438",,Franklinton,LA,70438,9855154519,,Pamela,Magee,9855154519,Washington Parish School Board,2019-05-01T04:00:00.000Z,2019-08-31T04:00:00.000Z,"M,T,W,TH",6:00PM-7:00PM,,,,,6:00PM-7:00PM,,7,N,US,98584,,2019,Washington
-90.15129435,30.85090762,87083,Magee's Temple Church,Open,"703 14th Avenue Franklinton, LA 70438",,Franklinton,LA,70438,9855154327,,Anita,Brumfield,9855150481,Washington Parish School Board,2019-05-01T04:00:00.000Z,2019-08-31T04:00:00.000Z,"M,T,W,TH",6:00PM-6:45PM,,,,,6:00PM-6:45PM,,7,N,US,143801,,2019,Washington
-89.84099103,30.82494595,87084,Highland Baptist Church,Open,"21022 Hwy 21 N Bogalusa, LA 70427",,Bogalusa,LA,70427,9855168866,,Allison,Walters,9855168866,Washington Parish School Board,2019-05-01T04:00:00.000Z,2019-08-31T04:00:00.000Z,"M,T,W,TH,F",5:00PM-5:45PM,,,,,5:00PM-5:45PM,,7,N,US,143349,,2019,Washington
-89.81257107,30.96373867,87085,Angie Baptist Church,Open,"64458 Royal Street Angie, LA 70426",,Angie,LA,70426,9855165353,,Melanie,Kennedy,9855165353,Washington Parish School Board,2019-05-01T04:00:00.000Z,2019-08-31T04:00:00.000Z,"M,T,W,TH,F",11:00AM-11:30AM,,11:00AM-11:30AM,,,,,7,N,US,142008,,2019,Washington
-89.82304197,30.89986289,87087,Mt. Zion Missionary Baptist Church,Open,"63428 Jones Creek Road Angie, LA 70426",,Angie,LA,70426,9857326255,,Clarnetta,Arrington,9857500130,Washington Parish School Board,2019-05-01T04:00:00.000Z,2019-08-31T04:00:00.000Z,"M,T,W,TH,F",6:00PM-6:45PM,,,,,6:00PM-6:45PM,,7,N,US,53814,,2019,Washington
-90.12848296,30.97853177,87088,Greater Hayes Creek Missionary Baptist Church,Open,"31499 Hayes Creek Road Franklinton, LA 70438",,Franklinton,LA,70438,9858399624,,Bobbie,Warren,9858392868,Washington Parish School Board,2019-05-01T04:00:00.000Z,2019-08-31T04:00:00.000Z,"M,T,W,TH",6:15PM-7:00PM,,,,,6:15PM-7:00PM,,7,N,US,115002,,2019,Washington
-90.10963886,30.96614533,87089,Hayes United Methodist Church,Open,"30891 Old Columbia Road Franklinton, LA 70438",,Franklinton,LA,70438,,,Pat,Harvey,9855150481,Washington Parish School Board,2019-05-01T04:00:00.000Z,2019-08-31T04:00:00.000Z,"M,T",5:00PM-5:30PM,,,,,5:00PM-5:30PM,,7,N,US,36223,,2019,Washington
-90.1313041,30.84721251,87091,Hillcrest Baptist Church,Open,"2201 East Washington Street Franklinton, LA 70438",,Franklinton,LA,70438,9858394703,,Rose,Bond,9858394703,Washington Parish School Board,2019-05-01T04:00:00.000Z,2019-08-31T04:00:00.000Z,,11:00AM-12:00PM,,11:00AM-12:00PM,,,,,7,N,US,36305,,2019,Washington
-90.14421401,30.85007066,87092,Sweet Rest Baptist Church,Open,"1811 Desmare Street Franklinton, LA 70438",,Franklinton,LA,70438,9858393238,,Emma,Route,9855159731,Washington Parish School Board,2019-05-01T04:00:00.000Z,2019-08-31T04:00:00.000Z,"M,T,W",5:45PM-6:30PM,,,,,5:45PM-6:30PM,,7,N,US,65167,,2019,Washington
-93.73016758,32.51904341,87094,Bossier High School,Open,"777 Bearkat Dr Bossier City, LA 71111",,Bossier City,LA,71111,3185495047,,Karla,Horton,3185495047,Bossier Parish School Board,2019-05-28T04:00:00.000Z,2019-06-20T04:00:00.000Z,"M,T,W,TH",,7:15AM,10:30AM,,,,,7,N,US,142244,,2019,Bossier
-91.13502635,30.58400894,87095,Baker Middle School,Open,"5903 Groom Rd Baker, LA 70714",,Baker,LA,70714,2257782370,,Henry,Belin,2257782370,City of Baker School District,2019-06-03T04:00:00.000Z,2019-06-27T04:00:00.000Z,"M,T,W,TH",,7:30AM,11:00AM,,,,,7,N,US,34011,,2019,East Baton Rouge
-91.12640007,30.58059801,87096,Advantage Charter Academy,Open,"14740 Plank Road Baker, LA 70714",,Baker,LA,70714,6169543529,,Mike,Vermeer,6169543529,"Inspire Charter Academy, Inc.",2019-05-28T04:00:00.000Z,2019-06-27T04:00:00.000Z,"M,T,W,TH",,7:30AM,11:00AM,,,,,7,N,US,15,,2019,East Baton Rouge
-92.69473792,30.4800938,97781,Keagan Center,Open,"211 Pine Street Elton, LA 70532",,Elton,LA,70532,3376588688,,Kim,Thibodeaux,3375261577,ASSIST Agency Inc,2019-05-01T04:00:00.000Z,2019-08-31T04:00:00.000Z,"M,T,W,TH,F",11:00AM-11:30AM,,11:00AM-11:30AM,,,,,7,U,US,95081,,2019,Jefferson Davis
-92.82171947,30.23898157,97782,Our Lady Of Seven Dolors,Open,"209 North Adams Welsh, LA 70591",,Welsh,LA,70591,3377343848,,Dana,Hall,3373708075,ASSIST Agency Inc,2019-05-01T04:00:00.000Z,2019-08-31T04:00:00.000Z,"M,T,W,TH,F",11:00AM-12:00PM,,11:00AM-12:00PM,,,,,7,U,US,115869,,2019,Jefferson Davis
-89.89733702,29.91053633,97799,Christian Fellowship Full Gospel Baptist Church,Open,"5816 E Judge Perez Dr Violet, LA 70092",,Violet,LA,70092,5046827537,,Dana,Johnson,5043244092,Christian Fellowship Full Gospel Baptist Church Inc,2019-05-01T04:00:00.000Z,2019-08-31T04:00:00.000Z,"M,T,W,TH,F",8:00AM-12:00PM,8:00AM-9:00AM,11:00AM-12:00PM,,,,,7,U,US,540,,2019,St. Bernard
-91.50777915,29.7878676,97800,Broussard-Harris Recreation Center,Open,"508 O'Neil Chube Street Franklin, LA 70538",,Franklin,LA,70538,3378286323,,Jeannie,Benjamin,3378286325,City of Franklin,2019-05-01T04:00:00.000Z,2019-08-31T04:00:00.000Z,"M,T,W,TH,F",8:00AM-1:00PM,8:00AM-9:00AM,12:00PM-1:00PM,,,,,7,U,US,69618,,2019,St. Mary
-91.4978361,29.80367414,97801,City Park Recreation Center,Open,"Gumm St Franklin, LA 70538",,Franklin,LA,70538,3378286384,,Virdia,Gasper,3378286324,City of Franklin,2019-05-01T04:00:00.000Z,2019-08-31T04:00:00.000Z,"M,T,W,TH,F",8:00AM-1:00PM,8:00AM-9:00AM,12:00PM-1:00PM,,,,,7,U,US,545,,2019,St. Mary
-93.19796045,30.25382667,97803,Carver Court,Open,"1409 St Mary Dr Lake Charles, LA 70601",,Lake Charles,LA,70601,3374911440,,Tonja,Johnson,3374911270,City of Lake Charles,2019-05-01T04:00:00.000Z,2019-08-31T04:00:00.000Z,"M,T,W,TH,F",8:00AM-12:00PM,8:00AM-9:00AM,11:00AM-12:00PM,,,,,7,U,US,34637,,2019,Calcasieu
-93.18852797,30.17959753,97804,Christian Baptist Church,Open,"4460 5th Avenue Lake Charles, LA 70605",,Lake Charles,LA,70605,3374786423,,Brenda,Lavine,3374911270,City of Lake Charles,2019-05-01T04:00:00.000Z,2019-08-31T04:00:00.000Z,"M,T,W,TH,F",8:30AM-12:30PM,8:30AM-9:30AM,11:30AM-12:30PM,,,,,7,U,US,34809,,2019,Calcasieu
-93.22331649,30.19364556,97805,College Oaks Recreation Center,Open,"3518 Ernest Street Lake Charles, LA 70605",,Lake Charles,LA,70605,3374911495,,Ericka,Harris,3374911270,City of Lake Charles,2019-05-01T04:00:00.000Z,2019-08-31T04:00:00.000Z,"M,T,W,TH,F",8:00AM-12:00PM,8:00AM-9:00AM,11:00AM-12:00PM,,,,,7,U,US,34939,,2019,Calcasieu
-93.18442019,30.19554667,97806,Columbus Circle Community Center,Open,"3520 Greinwich Boulevard Lake Charles, LA 70601",,Lake Charles,LA,70601,3374918782,,Judy,Guillory,3374911270,City of Lake Charles,2019-05-01T04:00:00.000Z,2019-08-31T04:00:00.000Z,"M,T,W,TH,F",8:30AM-1:00PM,8:30AM-9:30AM,12:00PM-1:00PM,,,,,7,U,US,34956,,2019,Calcasieu
-93.2361403,30.20194216,97807,For His Grace Baptist Church,Open,"1070 Deesport St. Lake Charles, LA 70601",,Lake Charles,LA,70601,3373095075,,Jennifer,Cormier,3374911270,City of Lake Charles,2019-05-01T04:00:00.000Z,2019-08-31T04:00:00.000Z,"M,T,W,TH,F",8:30AM-12:30PM,8:30AM-9:30AM,11:30AM-12:30PM,,,,,7,U,US,78122,,2019,Calcasieu
-93.18872188,30.23607146,97808,Foreman Community Center,Open,"215 Albert St Lake Charles, LA 70601",,Lake Charles,LA,70601,3374911440,,Sabrinia,Thomas,3374911270,City of Lake Charles,2019-05-01T04:00:00.000Z,2019-08-31T04:00:00.000Z,"M,T,W,TH,F",8:00AM-12:00PM,8:00AM-9:00AM,11:00AM-12:00PM,,,,,7,U,US,35754,,2019,Calcasieu
-93.19838363,30.24592519,97809,Goosport Community Center,Open,"1619 Cessford Lake Charles, LA 70601",,Lake Charles,LA,70601,3374911440,,Ernesteen,Valere,3374911270,City of Lake Charles,2019-05-01T04:00:00.000Z,2019-08-31T04:00:00.000Z,"M,T,W,TH,F",8:30AM-12:30PM,8:30AM-9:30AM,11:30AM-12:30PM,,,,,7,U,US,35998,,2019,Calcasieu
-93.20682133,30.19091449,97810,Henry Heights Recreation Center,Open,"801 East School Street Lake Charles, LA 70605",,Lake Charles,LA,70605,3374911289,,Margaret,Mason,3374911270,City of Lake Charles,2019-05-01T04:00:00.000Z,2019-08-31T04:00:00.000Z,"M,T,W,TH,F",8:00AM-12:00PM,8:00AM-9:00AM,11:00AM-12:00PM,,,,,7,U,US,78394,,2019,Calcasieu
-93.17763033,30.21178551,97811,Hillcrest Recreation Center,Open,"2808 Hillcrest Drive Lake Charles, LA 70605",,Lake Charles,LA,70605,3374911205,,Helen,Nash,3374911270,City of Lake Charles,2019-05-01T04:00:00.000Z,2019-08-31T04:00:00.000Z,"M,T,W,TH,F",8:30AM-12:30PM,8:30AM-9:30AM,11:30AM-12:30PM,,,,,7,U,US,36309,,2019,Calcasieu
-93.18453121,30.24498527,97812,Jessie D. Clifton Recreation Center,Open,"2415 East Gieffers Street Lake Charles, LA 70601",,Lake Charles,LA,70601,3374911535,,Josephine,Rochon,3374911270,City of Lake Charles,2019-05-01T04:00:00.000Z,2019-08-31T04:00:00.000Z,"M,T,W,TH,F",8:00AM-12:30PM,8:00AM-9:00AM,11:30AM-12:30PM,,,,,7,U,US,36594,,2019,Calcasieu
-93.21913917,30.216807,97814,Liberty Plaza Properties,Open,"1701 Ryan Street Lake Charles, LA 70601",,Lake Charles,LA,70601,3377217957,,Bettye,Brown,3374911270,City of Lake Charles,2019-05-01T04:00:00.000Z,2019-08-31T04:00:00.000Z,"M,T,W,TH,F",8:30AM-12:30PM,8:30AM-9:30AM,11:30AM-12:30PM,,,,,7,U,US,107716,,2019,Calcasieu
-93.22877314,30.20405643,97815,Lloyd Oaks Community Center,Open,"661 Dixy Dr Lake Charles, LA 70601",,Lake Charles,LA,70601,3374911440,,Terry,Simon,3374911270,City of Lake Charles,2019-05-01T04:00:00.000Z,2019-08-31T04:00:00.000Z,"M,T,W,TH,F",8:30AM-12:30PM,8:30AM-9:30AM,11:30AM-12:30PM,,,,,7,U,US,37062,,2019,Calcasieu
-93.18689232,30.263967,97816,Martin L King Community Center,Open,"2009 Simmons St Lake Charles, LA 70601",,Lake Charles,LA,70601,3374911440,,Vickie,Jones,3374911270,City of Lake Charles,2019-05-01T04:00:00.000Z,2019-08-31T04:00:00.000Z,"M,T,W,TH,F",8:30AM-12:30PM,8:30AM-9:30AM,11:30AM-12:30PM,,,,,7,U,US,37223,,2019,Calcasieu
-93.19505503,30.23439484,97817,McMillan Recreation Center,Open,"343 Goos Street Lake Charles, LA 70601",,Lake Charles,LA,70601,3374918647,,Jo Ann,Cooks,3374911270,City of Lake Charles,2019-05-01T04:00:00.000Z,2019-08-31T04:00:00.000Z,"M,T,W,TH,F",8:30AM-12:30PM,8:30AM-9:30AM,11:30AM-12:30PM,,,,,7,U,US,134910,,2019,Calcasieu
-93.1848435,30.21901852,97818,Meadow Park Housing,Open,"2400 Anita Dr Lake Charles, LA 70601",,Lake Charles,LA,70601,3374911440,,Betty,Woods,3374911270,City of Lake Charles,2019-05-01T04:00:00.000Z,2019-08-31T04:00:00.000Z,"M,T,W,TH,F",8:30AM-12:30PM,8:30AM-9:30AM,11:30AM-12:30PM,,,,,7,U,US,37297,,2019,Calcasieu
-93.21301358,30.20755153,97819,Mike Lanza Community Center,Open,"609 Sycamore Street Lake Charles, LA 70601",,Lake Charles,LA,70601,3374911285,,Nora,Chatman,3374911270,City of Lake Charles,2019-05-01T04:00:00.000Z,2019-08-31T04:00:00.000Z,"M,T,W,TH,F",8:30AM-12:30PM,8:30AM-9:30AM,11:30AM-12:30PM,,,,,7,U,US,37362,,2019,Calcasieu
-91.12827242,30.49049909,97828,Brookstown Middle Magnet Academy,Open,"4375 Brookstown Drive Baton Rouge, LA 70805",,Baton Rouge,LA,70805,2259225400,,JoAnn,Morrison,2253581695,East Baton Rouge Parish School System,2019-05-01T04:00:00.000Z,2019-08-31T04:00:00.000Z,"M,T,W,TH",7:00AM-12:30PM,7:00AM-8:00AM,11:00AM-12:30PM,,,,,7,U,US,15437,,2019,East Baton Rouge
-91.14420265,30.47873147,97838,Dufroqu Elem,Open,"4501 Winbourne Ave Baton Rouge, LA 70805",,Baton Rouge,LA,70805,2253446022,,Shannon,Gray,2253347660,East Baton Rouge Parish School System,2019-05-01T04:00:00.000Z,2019-08-31T04:00:00.000Z,"M,T,W,TH,F",8:00AM-12:30PM,8:00AM-9:00AM,11:00AM-12:30PM,,,,,7,U,US,134273,,2019,East Baton Rouge
-90.05107577,29.98334784,97875,Encore Academy,Open,"2516 Arts Street New Orleans, LA 70117",,New Orleans,LA,70117,5044442224,,Eugenia,Rivers,5045223063,Encore Academy,2019-05-01T04:00:00.000Z,2019-08-31T04:00:00.000Z,"M,T,W,TH",8:30AM-12:00PM,8:30AM-9:00AM,11:30AM-12:00PM,,,,,7,U,US,129051,,2019,Orleans
-91.11776575,30.46466789,97877,GEO Prep Mid-City of Greater Baton Rouge,Open,"1900 Lobdell Blvd Baton Rouge, LA 70806",,Baton Rouge,LA,70806,2259271500,,Mona,Collins,2252369333,GEO Prep Academy of Greater Baton Rouge,2019-05-01T04:00:00.000Z,2019-08-31T04:00:00.000Z,"M,T,W,TH",8:00AM-12:00PM,8:00AM-8:30AM,11:00AM-12:00PM,,,,,7,U,US,114949,,2019,East Baton Rouge
-91.05811336,30.47066196,97878,GEO Prep Academy of Greater Baton Rouge,Open,"2311 N. Sherwood Forest Drive Baton Rouge, LA 70815",,Baton Rouge,LA,70815,2259271500,,Mona,Collins,2259368230,GEO Prep Academy of Greater Baton Rouge,2019-05-01T04:00:00.000Z,2019-08-31T04:00:00.000Z,"M,T,W,TH",8:00AM-12:30PM,8:00AM-8:30AM,11:15AM-12:30PM,,,,,7,U,US,129070,,2019,East Baton Rouge
-90.36725612,30.606433,97879,Greater Grace Charter Academy,Open,"21490-B Highway 40 Vacherie, LA 70900",,Vacherie,LA,70900,2252767318,,Laneka,Carter,2256242113,Greater Grace Charter Academy,2019-05-01T04:00:00.000Z,2019-08-31T04:00:00.000Z,"M,T,W,TH,F",8:00AM-12:00PM,8:00AM-8:30AM,11:30AM-12:00PM,,,,,7,U,US,115000,,2019,Tangipahoa
-91.21787222,30.26221104,97882,Math Science Arts Academy West,Open,"57955 St. Louis Road Plaquemine, LA 70764",,Plaquemine,LA,70764,2256874341,,Darlene,Batiste,2256870901,Iberville Parish School Board,2019-05-01T04:00:00.000Z,2019-08-31T04:00:00.000Z,"M,T,W,TH",7:30AM-12:30PM,7:30AM-8:30AM,11:00AM-12:30PM,,,,,7,U,US,78863,,2019,Iberville
-91.11315597,30.28867204,97883,MSA Academy East,Open,"1825 LA 30 St. Gabriel, LA 70776",,St. Gabriel,LA,70776,2256874341,,Julie,Wagner,2252380150,Iberville Parish School Board,2019-05-01T04:00:00.000Z,2019-08-31T04:00:00.000Z,"M,T,W,TH",7:00AM-12:30PM,7:00AM-8:00AM,11:00AM-12:30PM,,,,,7,U,US,79026,,2019,Iberville
-92.70966447,32.52163333,97889,Lincoln Preparatory School: A TMCF Collegiate Academy,Open,"407 Central Avenue Grambling, LA 71245",,Grambling,LA,71245,3184369598,,Tamika,Ferguson,4077657994,Lincoln Preparatory School: A TMCF Collegiate Acad,2019-05-01T04:00:00.000Z,2019-08-31T04:00:00.000Z,"M,T,W,TH",8:00AM-12:15PM,8:00AM-9:00AM,11:00AM-12:15PM,,,,,7,U,US,86974,,2019,Lincoln
-92.52213522,31.13342946,97890,Twin Lakes Campground,Open,"300 Bayou Clear Road Woodworth, LA 71485",,Woodworth,LA,71485,3184456238,,Charlotte,Vanmol,3184456238,Louisiana District Council of the Assemblies of God,2019-05-01T04:00:00.000Z,2019-08-31T04:00:00.000Z,"S,M,T,W,TH,F,SA",8:00AM-6:30PM,8:00AM-9:00AM,,,,5:00PM-6:30PM,,7,U,US,21840,,2019,Rapides
-92.37477182,31.51890213,97891,Louisiana State University - Grant Walker 4-H Educational Center,Open,"3000 Hwy 8 Pollock, LA 71467",,Pollock,LA,71467,3187657209,,Chris,Wilson,3187657209,Louisiana State University (GRANT WALKER 4-H EDUCATIONAL CENTER),2019-05-01T04:00:00.000Z,2019-08-31T04:00:00.000Z,"M,T,W,TH,F",7:15AM-1:00PM,7:15AM-8:15AM,11:45AM-1:00PM,,,,,7,U,US,19901,,2019,Grant
-93.27559957,32.61228171,97899,B.F. Martin Community Life Center,Open,"611 East Union Street Minden, LA 71055",,Minden,LA,71055,3183775455,,Wanda,Alstork,3183771780,Mt Calm Missionary Baptist Church,2019-05-01T04:00:00.000Z,2019-08-31T04:00:00.000Z,"M,T,W,TH,F",7:00AM-1:00PM,7:00AM-8:00AM,11:00AM-1:00PM,,,,,7,U,US,17468,,2019,Webster
-93.28267237,32.60531213,97900,Mt. Calm Baptist Church,Open,"331 Bailey St. Minden, LA 71055",,Minden,LA,71055,3183711760,,Albert,Sullivan,3183771780,Mt Calm Missionary Baptist Church,2019-05-01T04:00:00.000Z,2019-08-31T04:00:00.000Z,"M,T,W,TH,F",7:00AM-1:00PM,7:00AM-8:00AM,11:00AM-1:00PM,,,,,7,U,US,20291,,2019,Webster
-89.8468881,30.75925382,97902,Northshore Charter School,Open,"1710 Sullivan Drive Bogalusa, LA 70427",,Bogalusa,LA,70427,9857326640,,Arlene,Magee,9857466963,"Northshore Charter Schools, Inc.",2019-05-01T04:00:00.000Z,2019-08-31T04:00:00.000Z,"M,T,W,TH",7:45AM-12:00PM,7:45AM-8:45AM,11:00AM-12:00PM,,,,,7,U,US,37802,,2019,Washington
-93.82433111,32.4713555,97903,Praise Temple Full Gospel Baptist Church,Open,"4725 Greenwood Road Shreveport, LA 71109",,Shreveport,LA,71109,3186314428,,Cheryl,Seamster,3186314428,Northwest Louisiana Community Development Corporation,2019-05-01T04:00:00.000Z,2019-08-31T04:00:00.000Z,"M,T,W,TH,F",8:00AM-1:00PM,8:00AM-9:00AM,11:00AM-1:00PM,,,,,7,U,US,20858,,2019,Caddo
-93.78010787,32.50764,97904,Wallette Library,Open,"363 Hearne Avenue Shreveport, LA 71103",,Shreveport,LA,71103,3186752400,,Wyolonda,Hall,3184253630,Northwest Louisiana Food Bank,2019-05-01T04:00:00.000Z,2019-08-31T04:00:00.000Z,"M,T,W,TH,F",12:00PM-1:30PM,,12:00PM-1:30PM,,,,,7,U,US,98600,,2019,Caddo
-93.82261573,32.54351166,97906,David Raines Library,Open,"2855 Martin Luther King Drive Shreveport, LA 71107",,Shreveport,LA,71107,3186752400,,Sharon,Wade,3182220824,Northwest Louisiana Food Bank,2019-05-01T04:00:00.000Z,2019-08-31T04:00:00.000Z,"M,T,W,TH,F",12:00PM-1:00PM,,12:00PM-1:00PM,,,,,7,U,US,85686,,2019,Caddo
-93.82887544,32.53617486,97907,David Raines North WIC,Open,"1625 David Raines Drive Shreveport, LA 71107",,Shreveport,LA,71107,3186752400,,Sue,Walters,3184252252,Northwest Louisiana Food Bank,2019-05-01T04:00:00.000Z,2019-08-31T04:00:00.000Z,"M,T,W,TH,F",12:00PM-1:00PM,,12:00PM-1:00PM,,,,,7,U,US,97175,,2019,Caddo
-93.84534967,32.4411528,97908,Evangel Learning Center (Winner's Circle Summer Camp),Open,"5720 Buncombe Road Shreveport, LA 71129",,Shreveport,LA,71129,3186831143,,Rhonda,Foster,3186717100,Northwest Louisiana Food Bank,2019-05-01T04:00:00.000Z,2019-08-31T04:00:00.000Z,"M,T,W,TH,F",8:00AM-1:00PM,8:00AM-8:30AM,12:30PM-1:00PM,,,,,7,U,US,75716,,2019,Caddo
-93.8449321,32.8270742,97909,Gilliam Branch Library,Open,"12797 Main Street Gilliam, LA 71029",,Gilliam,LA,71029,3182964227,,Marilyn,Adcock,3183753975,Northwest Louisiana Food Bank,2019-05-01T04:00:00.000Z,2019-08-31T04:00:00.000Z,"M,T,W,TH,F",12:00PM-12:45PM,,12:00PM-12:45PM,,,,,7,U,US,114963,,2019,Caddo
-93.77209023,32.44200651,97910,Goodwill (Feeding Site),Open,"800 W. 70th St Shreveport, LA 71106",,Shreveport,LA,71106,3188692575,,Tamra,Bright,3186752400,Northwest Louisiana Food Bank,2019-05-01T04:00:00.000Z,2019-08-31T04:00:00.000Z,T,2:30PM-3:15PM,,2:30PM-3:15PM,,,,,7,U,US,134466,,2019,Caddo
-93.77424002,32.45640724,97911,Hollywood Union Ave Branch Library,Open,"2105 Hollywood Ave Shreveport, LA 71108",,Shreveport,LA,71108,3186365520,,Tenisha,Edwards,3186365520,Northwest Louisiana Food Bank,2019-05-01T04:00:00.000Z,2019-08-31T04:00:00.000Z,"M,T,W,TH,F",11:00AM-12:00PM,,11:00AM-12:00PM,,,,,7,U,US,115135,,2019,Caddo
-93.98425654,32.87731073,97912,North Caddo Branch Library,Open,"615 N. Pine St Vivian, LA 71082",,Vivian,LA,71082,3183753975,,Bernice,Bradshaw,3182843416,Northwest Louisiana Food Bank,2019-05-01T04:00:00.000Z,2019-08-31T04:00:00.000Z,"M,T,W,TH,F",11:00AM-12:00PM,,11:00AM-12:00PM,,,,,7,U,US,115783,,2019,Caddo
-93.99289417,32.97210253,97913,Rodessa Branch,Open,"10093 Main Street Rodessa, LA 71069",,Rodessa,LA,71069,3182234336,,Laura,Carroll,3182234376,Northwest Louisiana Food Bank,2019-05-01T04:00:00.000Z,2019-08-31T04:00:00.000Z,"M,T,W,TH,F",11:00AM-12:00PM,,11:00AM-12:00PM,,,,,7,U,US,116246,,2019,Caddo
-93.7205503,32.52174651,97914,The Plant A Seed,Open,"1518 Cox Street Bossier City, LA 71111",,Bossier City,LA,71111,3182120029,,Albert,Dyer,3182120029,Northwest Louisiana Food Bank,2019-05-01T04:00:00.000Z,2019-08-31T04:00:00.000Z,"M,T,W,TH,F",8:00AM-1:00PM,8:00AM-9:00AM,12:00PM-1:00PM,,,,,7,U,US,98588,,2019,Bossier
-93.76535107,32.45652549,97915,Paradise Baptist Church,Open,"1706 Hollywood Avenue Shreveport, LA 71108",,Shreveport,LA,71108,3189250884,,Gail,Samuels,3186754721,Northwest Louisiana Food Bank,2019-05-01T04:00:00.000Z,2019-08-31T04:00:00.000Z,"M,T,W,TH,F",7:30AM-1:00PM,7:30AM-8:30AM,12:00PM-1:00PM,,,,,7,U,US,20681,,2019,Caddo
-93.79735658,32.46064297,97916,Morning Star Baptist Church,Open,"5340 Jewella Avenue Shreveport, LA 71109",,Shreveport,LA,71109,3186366172,,Hillary,Hope,3185256141,"Open Hands Outreach Ministries, Inc.",2019-05-01T04:00:00.000Z,2019-08-31T04:00:00.000Z,"M,T,W,TH,F",8:30AM-2:00PM,8:30AM-9:30AM,12:00PM-2:00PM,,,,,7,U,US,37458,,2019,Caddo
-93.75882638,32.43042466,97917,Peaceful Rest Baptist Church,Open,"8200 St. Vincent Avenue Shreveport, LA 71106",,Shreveport,LA,71106,3188695011,,Sandra,Stewart,3185256141,"Open Hands Outreach Ministries, Inc.",2019-05-01T04:00:00.000Z,2019-08-31T04:00:00.000Z,"M,T,W,TH,F",8:30AM-2:00PM,8:30AM-9:30AM,12:00PM-2:00PM,,,,,7,U,US,38071,,2019,Caddo
-93.75459352,32.44034621,97918,New Star Baptist Chruch,Open,"7106 Southern Avenue Shreveport, LA 71108",,Shreveport,LA,71108,3185256141,,Erica,Payne,3185256141,"Open Hands Outreach Ministries, Inc.",2019-05-01T04:00:00.000Z,2019-08-31T04:00:00.000Z,"M,T,W,TH,F",8:30AM-2:00PM,8:30AM-9:30AM,12:00PM-2:00PM,,,,,7,U,US,108158,,2019,Caddo
-93.77428248,32.4419255,97919,Avenue Baptist Church,Open,"901 West 70th Street Shreveport, LA 71106",,Shreveport,LA,71106,3185733313,,Ricky,Johnson,3185256141,"Open Hands Outreach Ministries, Inc.",2019-05-01T04:00:00.000Z,2019-08-31T04:00:00.000Z,"M,T,W,TH,F",8:30AM-2:00PM,8:30AM-9:30AM,12:00PM-2:00PM,,,,,7,U,US,15348,,2019,Caddo
-92.16761259,32.47872258,97920,Boys and Girls Club of Northeast Louisiana,Open,"500 Evergreen Street West Monroe, LA 71292",,West Monroe,LA,71292,3183231644,,Brenda,Dick,3183231644,Ouachita Parish School Board,2019-05-01T04:00:00.000Z,2019-08-31T04:00:00.000Z,"M,T,W,TH,F",7:30AM-8:30AM,7:30AM-8:30AM,,,,,,7,U,US,34320,,2019,Ouachita
-92.128896,32.503419,97921,First Baptist Church of West Monroe,Open,"1 Stella/Mill Street West Monroe, LA 71291",,West Monroe,LA,71291,3182378254,,Morgan,Leblue,3183224804,Ouachita Parish School Board,2019-05-01T04:00:00.000Z,2019-08-31T04:00:00.000Z,"M,T,W,TH",7:30AM-11:30AM,7:30AM-8:30AM,11:00AM-11:30AM,,,,,7,U,US,35695,,2019,Ouachita
-92.1375287,32.52565758,97926,The YMCA of Northeast Louisiana,Open,"2411 Trenton Street West Monroe, LA 71291",,West Monroe,LA,71291,3183879622,,Robert,Blackman,3183879622,Ouachita Parish School Board,2019-05-01T04:00:00.000Z,2019-08-31T04:00:00.000Z,"M,T,W,TH,F",7:45AM-12:00PM,7:45AM-8:45AM,11:00AM-12:00PM,,,,,7,U,US,109066,,2019,Ouachita
-92.12424545,32.49452607,97927,West Monroe Community Center,Open,"400 South Fifth West Monroe, LA 71292",,West Monroe,LA,71292,3183874001,,Valisia,Tisdale,3183874001,Ouachita Parish School Board,2019-05-01T04:00:00.000Z,2019-08-31T04:00:00.000Z,"M,T,W,TH,F",1:00PM-1:30PM,,,,1:00PM-1:30PM,,,7,U,US,39792,,2019,Ouachita
-91.13177577,30.38185248,97928,Kenilworth Science and Technology Charter School,Open,"7600 Boone Drive Baton Rouge, LA 70808",,Baton Rouge,LA,70808,2257668111,,Tiffanny,Richardson,2257668111,Pelican Educational Foundation Inc,2019-05-01T04:00:00.000Z,2019-08-31T04:00:00.000Z,"M,T,W,TH,F",8:30AM-12:00PM,8:30AM-9:00AM,11:30AM-12:00PM,,,,,7,U,US,19646,,2019,East Baton Rouge
-89.77928371,30.27257922,97929,Boys and Girls Club - Slidell Youth Club,Open,"705 Dewey Avenue Slidell, LA 70458",,Slidell,LA,70458,9857078549,,Grace,Robinson,9856415527,Pentecost Missionary Baptist Church Slidell,2019-05-01T04:00:00.000Z,2019-08-31T04:00:00.000Z,"M,T,W,TH,F",11:00AM-4:00PM,,11:00AM-12:00PM,,3:30PM-4:00PM,,,7,U,US,34305,,2019,St. Tammany
-89.74207124,30.25564846,97930,Greater North Shore Full Gospel Church,Open,"39203 Voter's Rd Slidell, LA 70461",,Slidell,LA,70461,5049750966,,Orlando,Jones,9856415527,Pentecost Missionary Baptist Church Slidell,2019-05-01T04:00:00.000Z,2019-08-31T04:00:00.000Z,"M,T,W,TH,F",8:00AM-12:00PM,8:00AM-9:00AM,11:00AM-12:00PM,,,,,7,U,US,115005,,2019,St. Tammany
-89.79700319,30.28941844,97931,Pentecost Missionary Baptist Church Slidell,Open,"36138 Shady Lane Slidell, LA 70460",,Slidell,LA,70460,9856415527,,Amanda,Clark,9856415527,Pentecost Missionary Baptist Church Slidell,2019-05-01T04:00:00.000Z,2019-08-31T04:00:00.000Z,"M,T,W,TH,F",8:00AM-1:00PM,8:00AM-9:00AM,11:00AM-1:00PM,,,,,7,U,US,38092,,2019,St. Tammany
-90.4458797,30.87309148,97936,Quinn Chapel A.M.E. Church,Open,"70198 Martin Luther King St. Tangipahoa, LA 70465",,Tangipahoa,LA,70465,9852296990,,Margaret,Morris,9852296990,Quinn Chapel AME Church,2019-05-01T04:00:00.000Z,2019-08-31T04:00:00.000Z,"M,T,W,TH,F",11:00AM-12:30PM,,11:00AM-12:30PM,,,,,7,U,US,2133,,2019,Tangipahoa
-92.4306994,31.26511551,97942,Christian Love Baptist Church,Open,"3502 Hudson Boulevard Alexandria, LA 71302",,Alexandria,LA,71302,3185288743,,Patsy,Howard,3185288743,Rapides Parish School Board,2019-05-01T04:00:00.000Z,2019-08-31T04:00:00.000Z,"M,T,W,TH,F",8:00AM-12:00PM,8:00AM-8:30AM,11:30AM-12:00PM,,,,,7,U,US,73435,,2019,Rapides
-92.4128232,31.33329454,97943,City of Pineville Youth Center,Open,"2480 Highway 28 East Pineville, LA 71360",,Pineville,LA,71360,3184421578,,Alverez,Peychaud,3184421578,Rapides Parish School Board,2019-05-01T04:00:00.000Z,2019-08-31T04:00:00.000Z,"M,T,W,TH",12:00PM-12:30PM,,12:00PM-12:30PM,,,,,7,U,US,34856,,2019,Rapides
-92.44334181,31.30513789,97945,Cope,Open,"815 Casson St. Alexandria, LA 71301",,Alexandria,LA,71301,3187486783,,Yani,Dunkley,3187670707,Rapides Parish School Board,2019-05-01T04:00:00.000Z,2019-08-31T04:00:00.000Z,"M,T,W,TH,F",8:00AM-12:00PM,8:00AM-8:30AM,11:30AM-12:00PM,,,,,7,U,US,35031,,2019,Rapides
-92.44386445,31.2857345,97948,Greater St. Lawrence Baptist Church,Open,"2911 Cypress Street Alexandria, LA 71302",,Alexandria,LA,71302,3184437463,,Catherine,Johnson,3184167472,Rapides Parish School Board,2019-05-01T04:00:00.000Z,2019-08-31T04:00:00.000Z,"M,T,W,TH",8:00AM-11:30AM,8:00AM-8:30AM,11:00AM-11:30AM,,,,,7,U,US,107204,,2019,Rapides
-92.43582819,31.3039103,97950,Mt. Triumph Baptist Church,Open,"2200 Third Street Alexandria, LA 71301",,Alexandria,LA,71301,3184459130,,Bertha,Allen,3182907725,Rapides Parish School Board,2019-05-01T04:00:00.000Z,2019-08-31T04:00:00.000Z,"M,T,W,TH,F",8:00AM-11:30AM,8:00AM-8:30AM,11:00AM-11:30AM,,,,,7,U,US,37530,,2019,Rapides
-92.47099058,31.32166447,97955,Providence Family Ministry,Open,"1350 Enterprise Road Alexandria, LA 71301",,Alexandria,LA,71301,3184453455,,Barbara,Herman,3185422796,Rapides Parish School Board,2019-05-01T04:00:00.000Z,2019-08-31T04:00:00.000Z,"M,T,W,TH,F",8:00AM-11:30AM,8:00AM-8:30AM,11:00AM-11:30AM,,,,,7,U,US,38270,,2019,Rapides
-92.44621214,31.30555229,97957,Rose of Sharon Baptist Church,Open,"1401 Martin Luther King Drive Alexandria, LA 71301",,Alexandria,LA,71301,3184430969,,Kenya,Baker,3184423033,Rapides Parish School Board,2019-05-01T04:00:00.000Z,2019-08-31T04:00:00.000Z,"M,T,W,TH,F",8:00AM-11:30AM,8:00AM-8:30AM,11:00AM-11:30AM,,,,,7,U,US,38539,,2019,Rapides
-90.09838717,30.48725525,97965,Faith Bible Church,Open,"1117 N Columbia St Covington, LA 70433",,Covington,LA,70433,9858935880,,Alfred,"Young, Jr",9858935880,Solutions of Folsom,2019-05-01T04:00:00.000Z,2019-08-31T04:00:00.000Z,"M,T,W,TH,F",8:30AM-12:45PM,8:30AM-9:30AM,11:30AM-12:45PM,,,,,7,U,US,18769,,2019,St. Tammany
-90.0036361,29.95279773,97968,Maumus Center,Open,"721 Friscoville Avenue Arabi, LA 70032",,Arabi,LA,70032,5043010239,,Clara,Caserta,5043014012,St Bernard Parish School Board,2019-05-01T04:00:00.000Z,2019-08-31T04:00:00.000Z,"M,T,W,TH,F",12:00PM-2:00PM,,12:00PM-2:00PM,9:00AM-10:00AM,,,,7,U,US,104408,,2019,St. Bernard
-90.41244126,29.97438646,97972,Carver Early Learning Center,Open,"337 Gum Street Hahnville, LA 70057",,Hahnville,LA,70057,9857836617,,Geraldine,Williams,9857836617,St. Charles Parish Council,2019-05-01T04:00:00.000Z,2019-08-31T04:00:00.000Z,"M,T,W,TH",11:30AM-1:30PM,,11:30AM-1:30PM,,,,,7,U,US,117544,,2019,St. Charles
-90.03282263,29.97416558,97977,Ellis Marsalis Center for Music,Open,"1901 Barthomew Street New Orleans, LA 70112",,New Orleans,LA,70112,5049403400,,Ellen,Smith,5049403400,Volunteers of America Southeast Louisiana Inc,2019-05-01T04:00:00.000Z,2019-08-31T04:00:00.000Z,"M,T,W,TH,F",11:30AM-4:00PM,,11:30AM-1:30PM,,3:00PM-4:00PM,,,7,U,US,132696,,2019,Orleans
-90.11249367,29.96953219,97978,Trinity Christian Community,Open,"3908 Joliet St New Orleans, LA 70118",,New Orleans,LA,70118,5044827882,,Chantel,Dunn,5044827822,Volunteers of America Southeast Louisiana Inc,2019-05-01T04:00:00.000Z,2019-08-31T04:00:00.000Z,"M,T,W,TH,F",8:30AM-2:00PM,8:30AM-9:30AM,12:30PM-2:00PM,,,,,7,U,US,60475,,2019,Orleans
-90.05016938,29.96655996,97979,Roots of Music Inc,Open,"2624 Burgundy Street New Orleans, LA 70117",,New Orleans,LA,70117,9174455825,,Morgan,Stewart,9174455825,Volunteers of America Southeast Louisiana Inc,2019-05-01T04:00:00.000Z,2019-08-31T04:00:00.000Z,"M,T,W,TH",3:30PM-7:00PM,,,,3:30PM-4:30PM,6:30PM-7:00PM,,7,U,US,124659,,2019,Orleans
-93.82826784,32.23622359,97986,North DeSoto Middle School 6-8,Open,"2573 Highway 171 Stonewall, LA 71078",,Stonewall,LA,71078,3188724115,,Sherry,Brokenberry,3188724115,DeSoto Parish School Board,2019-05-29T04:00:00.000Z,2019-06-20T04:00:00.000Z,"M,T,W,TH",,7:00AM,10:45AM,,,,,7,U,US,129901,,2019,De Soto
-91.19509095,32.41853885,97987,Wright Elementary School,Open,"809 Wyche St Tallulah, LA 71282",,Tallulah,LA,71282,3183417310,,Wanda,Adams,3183417310,Madison Parish School Board,2019-05-29T04:00:00.000Z,2019-06-25T04:00:00.000Z,"M,T,W,TH,F",,7:15AM,10:45AM,,,,,7,U,US,39987,,2019,Madison
-91.09706236,30.46209977,97988,IDEA Bridge,Open,"1500 North Airway Drive Baton Rouge, LA 70815",,Baton Rouge,LA,70815,9563778000,,Fernando,Aguilar,9563778000,IDEA Public Schools,2019-06-03T04:00:00.000Z,2019-06-27T04:00:00.000Z,"M,T,W,TH",,7:30AM,11:30AM,,,,,7,U,US,129610,,2019,East Baton Rouge
-91.14410233,30.36322487,97989,IDEA Innovation,Open,"7800 Innovation Park Drive Baton Rouge, LA 70820",,Baton Rouge,LA,70820,9563778000,,Fernando,Aguilar,9563778000,IDEA Public Schools,2019-06-03T04:00:00.000Z,2019-06-27T04:00:00.000Z,"M,T,W,TH",,7:30AM,11:30AM,,,,,7,U,US,129611,,2019,East Baton Rouge
-91.04025262,30.55902902,124205,BREC Jackson Park,Open,"12250 Sullivan Road Central, LA 70818",,Central,LA,70818,2253889737,,Kia,Turner,2252296084,East Baton Rouge Parish School System,2019-05-01T04:00:00.000Z,2019-08-31T04:00:00.000Z,"M,F",11:00AM-12:30PM,,11:00AM-12:30PM,,,,,9,N,US,148110,,2019,East Baton Rouge
-91.1031937,30.42321306,124206,BREC Jefferson Highway,Open,"8133 Jefferson Highway Baton Rouge, LA 70809",,Baton Rouge,LA,70809,,,Imani,Harrell,2254399587,East Baton Rouge Parish School System,2019-05-01T04:00:00.000Z,2019-08-31T04:00:00.000Z,"M,F",11:00AM-12:30PM,,11:00AM-12:30PM,,,,,9,N,US,148111,,2019,East Baton Rouge
-91.01435234,30.44314687,124207,BREC Kathy Drive,Open,"1801 Kathy Drive Baton Rouge, LA 70816",,Baton Rouge,LA,70816,2259600340,,Krystal,Wilson,2259600340,East Baton Rouge Parish School System,2019-05-01T04:00:00.000Z,2019-08-31T04:00:00.000Z,"M,F",11:00AM-12:30PM,,11:00AM-12:30PM,,,,,9,N,US,148112,,2019,East Baton Rouge
-91.11582156,30.39904631,124208,BREC Perkins Road Community Park,Open,"7122 Perkins Road Baton Rouge, LA 70808",,Baton Rouge,LA,70808,2255719180,,Sarah,Soltau,2255719180,East Baton Rouge Parish School System,2019-05-01T04:00:00.000Z,2019-08-31T04:00:00.000Z,"M,F",11:00AM-12:30PM,,11:00AM-12:30PM,,,,,9,N,US,148113,,2019,East Baton Rouge
