long,lat,objectID,siteName,siteStatus,siteAddress,siteAddress2,siteCity,siteState,siteZip,sitePhone,ext,contactFirstName,contactLastName,contactPhone,sponsoringOrganization,startDate,endDate,daysofOperation,comments,breakfastTime,lunchTime,snackTimeAM,snackTimePM,dinnerSupperTime,mealTypesServed,cycleNumber,recordStatus,country,fnsid,created,season,county
-67.94815765,47.16706859,58702,Acadia Heights,Open,"Fulton Street Van Buren, ME 04785",,Van Buren,ME,4785,2078682746,,Clayton,Belanger,2078685274,RSU 88/MSAD 24,2019-06-24T07:00:00.000Z,2019-08-02T07:00:00.000Z,"M,T,W,TH,F",,,11:30 AM - 12:00 PM,,,,L,4,N,US,2770,,2019,Aroostook
-68.58956281,47.27329263,58703,Acap Headstart Center,Open,"40 Alfalfa Street Fort Kent, ME 04743",,Fort Kent,ME,4743,2078345135,,Connie,Montpetit,2078345540,MSAD 27,2019-06-24T07:00:00.000Z,2019-08-02T07:00:00.000Z,M-F,,07:30 am - 08:45 am,11:00 am - 12:15 pm,,,,"B,L",4,N,US,92743,,2019,Aroostook
-70.56974662,44.32693132,58705,Agnes Gray School,Open,"170 Main Street West Paris, ME 04289",,West Paris,ME,4289,2078904311,,Eileen,Stork,2077438914,RSU 17/MSAD 17,2019-06-17T07:00:00.000Z,2019-08-02T07:00:00.000Z,,,,,,,,,4,N,US,80564,,2019,Oxford
-69.63620484,44.55008403,58706,Albert S Hall School,Open,"27 Pleasant St Waterville, ME 04901",,Waterville,ME,4901,2078738071,,Lori,Hartin,2078734281,Waterville Public Schools,2019-07-01T07:00:00.000Z,2019-07-31T07:00:00.000Z,M-F,,08:30 am - 09:00 am,11:15 am - 11:35 am,,,,"B,L",4,N,US,80577,,2019,Kennebec
-69.63389333,44.56878637,58708,Armory Road Housing,Open,"Armory Road Waterville, ME 04901",,Waterville,ME,4901,2078732751,,Lori,Hartin,2078734281,Waterville Public Schools,2019-06-24T07:00:00.000Z,2019-08-16T07:00:00.000Z,M-F,,,10:50 am - 11:10 am,,,,L,4,N,US,80637,,2019,Kennebec
-68.03205158,46.69745622,58709,Aroostook band of Micmacs Summer Program,Open,"56 Micmac Drive Presque Isle, ME 04769",,Presque Isle,ME,4769,2075513884,,Fenton,Jones,2077683218,Aroostook Band of Micmacs,2019-06-24T07:00:00.000Z,2019-09-06T07:00:00.000Z,,,,,,,,,4,N,US,80638,,2019,Aroostook
-69.796141,44.31192887,58712,Augusta Boys & Girls Club,Open,"22 Armory St Augusta, ME 04330",,Augusta,ME,4330,2076220452,,Charles,Huerth,2076910705,Augusta Boys@ Girls Club,2019-06-17T07:00:00.000Z,2019-08-30T07:00:00.000Z,M-F,,10:00 am - 10:30 am,11:30 am - 12:00 pm,,,04:00 pm - 04:30 pm 02:00 pm - 02:30 pm,"B,S",4,N,US,80674,,2019,Kennebec
-68.82544642,44.84233305,58713,Bangor Housing Authority,Open,"161 Davis Road Bangor, ME 04401",,Bangor,ME,4401,2074044519,,Renee,Butler,2077823554,Good Shepard Food Bank,2019-06-24T07:00:00.000Z,2019-08-23T07:00:00.000Z,M-F,,,12:00 pm - 01:00 pm,,,,L,4,N,US,80708,,2019,Penobscot
-68.77175918,44.80405342,58714,Bangor Public Library,Open,"145 Harlow Street Bangor, ME 04401",,Bangor,ME,4401,2079478336,,Christine,Erickson,2077823554,Good Shepard Food Bank,2019-06-25T07:00:00.000Z,2019-08-30T07:00:00.000Z,M-F,,,12:00 pm - 01:00 pm,,,,L,4,N,US,80709,,2019,Penobscot
-69.62452695,44.54528716,58715,Bellevue Street Park,Open,"Bellevue Street Winslow, ME 04901",,Winslow,ME,4901,2078732751,,Lori,Hartin,2078721987,Winslow Schools,2019-06-24T07:00:00.000Z,2019-08-16T07:00:00.000Z,M-F,,,11:30 am - 11:50 am,,,,L,4,N,US,2781,,2019,Kennebec
-69.57878659,44.58818934,58716,Benton Elementary School,Open,"68 School Drive Benton, ME 04901",,Benton,ME,4901,2074534256,,Jane,Reardon,2074534200,RSU 49/MSAD 49,2019-06-24T07:00:00.000Z,2019-08-16T07:00:00.000Z,M-F,,07:30 AM - 08:00 AM,11:30 AM - 12:15 PM,,,,"B,L",4,N,US,80759,,2019,Kennebec
-68.00556631,46.69202173,58717,Birch Street Apartments,Open,"79 Birch Street Presque Isle, ME 04769",,Presque Isle,ME,4769,,,Denise,Hatcher,2077640792,RSU 79/MSAD 01,2019-06-24T07:00:00.000Z,2019-08-30T07:00:00.000Z,M-F,,08:00 am - 08:20 am,11:00 am - 11:25 am,,,,"B,L",4,N,US,80798,,2019,Aroostook
-67.79874734,46.76718282,58718,Borderview Housing,Open,"Boundary Line Road Fort Fairfield, ME 04742",,Fort Fairfield,ME,4742,2074723290,,Tosha,Rogeski,2074723290,RSU 86/MSAD 20,2019-06-24T07:00:00.000Z,2019-08-01T07:00:00.000Z,"M,T,W,TH",,07:30 am - 09:00 am,10:45 am - 12:00 pm,,,,"B,L",4,N,US,80834,,2019,Aroostook
-70.31021555,43.63666414,58885,Brick Hill Community Room,Open,"Brick Hill Avenue South Portland, ME 04106",,South Portland,ME,4106,2072390386,,Martha,Spencer,2077673266,South Portland Public Schools,2019-07-01T07:00:00.000Z,2019-08-23T07:00:00.000Z,M-F,,08:30 AM - 09:30 AM,,,,,B,4,N,US,80898,,2019,Cumberland
-70.70429675,44.05436689,58887,Bridgton Rec,Open,"10 Chase Street Bridgton, ME 04009",,Bridgton,ME,4009,,,Gary,Colello,2074152293,RSU 61/MSAD 61,2019-06-24T07:00:00.000Z,2019-08-23T07:00:00.000Z,M-F,,07:30 AM - 08:30 AM,11:00 AM - 12:30 PM,,,,"B,L",4,N,US,80907,,2019,Cumberland
-69.796141,44.31192887,58888,Buker Rec Program,Open,"22 Armory Street Augusta, ME 04330",,Augusta,ME,4330,2076262350,,Paul,Heron,2076262468,Augusta Public Schools,2019-06-24T07:00:00.000Z,2019-08-16T07:00:00.000Z,"M,T,W,TH,F",,07:30 am - 08:00 am,11:00 am - 11:30 am,,,,"B,L",4,N,US,80951,,2019,Kennebec
-69.77684062,44.32940647,58889,Calumet Playground,Open,"Northern Avenue Augusta, ME 04330",,Augusta,ME,4330,2076208086,,Paul,Heron,2076262468,Augusta Public Schools,2019-06-24T07:00:00.000Z,2019-08-16T07:00:00.000Z,"M,T,W,TH,F",,,12:40 pm - 01:00 pm,,,,L,4,N,US,80983,,2019,Kennebec
-70.35783898,43.6703551,58893,Canal Elementary School,Open,"102 Glenwood Ave Westbrook, ME 04092",,Westbrook,ME,4092,2078540840,,Sally,Hume,2078540800,Westbrook Public Schools,2019-06-24T07:00:00.000Z,2019-08-16T07:00:00.000Z,M-F,,08:30 AM - 09:00 AM,12:00 PM - 01:00 PM,,,,"B,L",4,N,US,120655,,2019,Cumberland
-68.00468152,46.69272355,58897,Carmicheal Housing,Open,"60 Carmicheal Street Presque Isle, ME 04769",,Presque Isle,ME,4769,,,DENISE,HATCHER,2077640792,RSU 79/MSAD 01,2019-06-24T07:00:00.000Z,2019-08-30T07:00:00.000Z,M-F,,08:25 AM - 08:35 AM,11:30 AM - 11:45 AM,,,,"B,L",4,N,US,81047,,2019,Aroostook
-70.75471239,43.43829024,58898,Carpentier Park,Open,"High Street Sanford, ME 04073",,Sanford,ME,4073,2076088760,,Angie,Mitchell,2076088760,Sanford Public Schools,2019-06-24T07:00:00.000Z,2019-08-09T07:00:00.000Z,,,,,,,,,4,N,US,81049,,2019,York
-70.51729231,43.98246613,58901,Casco Recreation,Open,"Meadow Road Casco, ME 04015",,Casco,ME,4015,,,Beth,Latsy,2074152293,RSU 61/MSAD 61,2019-06-24T07:00:00.000Z,2019-08-23T07:00:00.000Z,,,,,,,,,4,N,US,81067,,2019,Cumberland
-69.63103949,44.557722,58904,Chaplin Street Playground,Open,"Chaplin Street Waterville, ME 04901",,Waterville,ME,4901,2078732751,,Lori,Hartin,2078734281,Waterville Public Schools,2019-06-24T07:00:00.000Z,2019-08-16T07:00:00.000Z,M-F,,,11:10 am - 11:30 am,,,,L,4,N,US,81135,,2019,Kennebec
-69.69854255,44.26768924,58905,Chelsea Elementary School,Open,"566 Togus Road Chelsea, ME 04330",,Chelsea,ME,4330,2075921965,,Mike,Flynn,2070000000,RSU 12,2019-07-08T07:00:00.000Z,2019-08-16T07:00:00.000Z,"M,T,W,TH",,07:30 am - 09:30 am,11:00 am - 01:00 pm,,,,"B,L",4,N,US,134047,,2019,Kennebec
-69.58232295,44.55781773,58907,Clinton Avenue Playground,Open,"Clinton Avenue Winslow, ME 04901",,Winslow,ME,4901,2078732751,,Lori,Hartin,2078721987,Winslow Schools,2019-06-24T07:00:00.000Z,2019-08-16T07:00:00.000Z,M-F,,,12:15 pm - 12:35 pm,,,,L,4,N,US,2798,,2019,Kennebec
-69.50129127,44.64017757,58908,Clinton Elementary School,Open,"75 Morrison Ave Clinton, ME 04927",,Clinton,ME,4927,2074534256,,Jane,Reardon,2074534200,RSU 49/MSAD 49,2019-06-24T07:00:00.000Z,2019-08-16T07:00:00.000Z,M-F,,,11:15 AM - 11:45 AM,,,,L,4,N,US,81234,,2019,Kennebec
-67.82038994,46.97978139,58918,Dawn F Barnes Elementary Sch,Open,"1025 Van Buren Rd (1025 Van Buren Road) Caswell, ME 04750",1025 Van Buren Road,Caswell,ME,4750,2073254611,,Rebecca,Fuller,2073254644,Caswell Public Schools,2019-06-17T07:00:00.000Z,2019-07-18T07:00:00.000Z,"M,T,W,TH",,07:30 AM - 08:00 AM,12:00 PM - 12:30 PM,,,,"B,L",4,N,US,81428,,2019,Aroostook
-68.6811876,44.24095435,58919,Deer Isle-Stonington Elementary Sch,Open,"249 North Deer Isle RD Deer Isle, ME 04627",,Deer Isle,ME,4627,2073486303,,Sheila,Nevells,2073486301,Deer Isle-Stonington CSD,2019-07-15T07:00:00.000Z,2019-08-09T07:00:00.000Z,M-F,,08:00 am - 08:30 am,11:30 am - 12:00 pm,,,,"B,L",4,N,US,81441,,2019,Hancock
-68.28017668,44.67806489,58920,DEFYMCA Camp Discovery,Open,"125 Silver Hill Farm Road Eastbrook, ME 04634",,Eastbrook,ME,4634,2075653100,,Roman,Perez,2073070324,Downeast Family YMCA,2019-06-24T07:00:00.000Z,2019-08-30T07:00:00.000Z,M-F,,,11:00 AM - 01:00 PM,,,,L,4,N,US,81447,,2019,Hancock
-70.45313773,44.52337482,58924,Dirigo Elementary School,Open,"117 Auburn Road Peru, ME 04290",,Peru,ME,4290,2075624207,,Gena,Cloutier,2075624300,RSU 56,2019-07-08T07:00:00.000Z,2019-08-01T07:00:00.000Z,"M,T,W,TH",,08:00 am - 08:30 am,11:30 am - 01:00 pm,,,,"B,L",4,N,US,106745,,2019,Oxford
-70.44969405,43.79293141,58926,Dundee Park,Open,"79 Presumpscot Road Windham, ME 04062",,Windham,ME,4062,2077750026,,Marge,Govoni,2078540800,Westbrook Public Schools,2019-07-08T07:00:00.000Z,2019-08-16T07:00:00.000Z,,,,,,,,,4,N,US,81526,,2019,Cumberland
-68.60052719,47.04366411,58927,Eagle Lake Town Office,Open,"36 Devoe Rood Eagle Lake, ME 04739",,Eagle Lake,ME,4739,2074445125,,Melanie,Lagasse,2078345540,MSAD 27,2019-06-24T07:00:00.000Z,2019-08-02T07:00:00.000Z,M-F,,07:30 am - 08:45 am,11:00 am - 12:15 pm,,,,"B,L",4,N,US,93140,,2019,Aroostook
-67.86510172,45.66094905,58928,East Grand School,Open,"31 Houlton road Danforth, ME 04424",,Danforth,ME,4424,2074482260,,Judith,Crone,2074482260,RSU 84/MSAD 14,2019-06-24T07:00:00.000Z,2019-07-19T07:00:00.000Z,"M,T,W,TH",,07:30 am - 08:00 am,12:00 pm - 12:30 pm,,,,"B,L",4,N,US,35383,,2019,Washington
-68.57252337,45.63193737,58929,East Millinocket Recreation Complex,Open,"45 North Street East Millinocket, ME 04430",,East Millinocket,ME,4430,,,Jody,Nelson,2077236439,Millinocket Public Schools,2019-06-24T07:00:00.000Z,2019-08-02T07:00:00.000Z,,,,,,,,,4,N,US,18608,,2019,Penobscot
-67.91245477,46.6430909,58930,Easton Rec. Program,Open,"23 Station Street Easton, ME 04740",,Easton,ME,4740,2075517737,,HILLARY,HALLETT,2077640792,RSU 79/MSAD 01,2019-06-24T07:00:00.000Z,2019-08-09T07:00:00.000Z,M-F,,09:00 AM - 09:20 AM,12:00 PM - 12:30 PM,,,,"B,L",4,N,US,81574,,2019,Aroostook
-69.98652693,43.79992644,58934,Elijah Kellogg Church,Open,"917 Harpswell Neck Rd Harpswell, ME 04079",,Harpswell,ME,4079,2078336026,,Denise,Perry,2077252716,Mid Coast Hunger Prevention,2019-07-01T07:00:00.000Z,2019-08-16T07:00:00.000Z,M-F,,,12:00 pm - 01:00 pm,,,,L,4,N,US,134322,,2019,Cumberland
-68.00413875,46.68709121,58937,Eva Hoyt Zippel School,Open,"42 Griffin St Presque Isle, ME 04769",,Presque Isle,ME,4769,,,JUSTINE,FITZHERBERT,2077640792,RSU 79/MSAD 01,2019-06-24T07:00:00.000Z,2019-08-30T07:00:00.000Z,M-F,,08:45 AM - 09:00 AM,11:45 AM - 12:05 PM,,,,"B,L",4,N,US,81650,,2019,Aroostook
-69.59915685,44.5892281,58938,Fairfield Primary School,Open,"63 High Street Fairfield, ME 04937",,Fairfield,ME,4937,2074534256,,Jane,Reardon,2074534200,RSU 49/MSAD 49,2019-06-24T07:00:00.000Z,2019-08-16T07:00:00.000Z,M-F,,07:30 AM - 08:00 AM,11:00 AM - 11:30 AM,,,,"B,L",4,N,US,81667,,2019,Somerset
-68.79097163,44.80158984,58939,Fairmount School,Open,"58 Thirteenth St Bangor, ME 04401",,Bangor,ME,4401,2079416260,,Tiffani,Lyndsay,2077823554,Good Shepard Food Bank,2019-07-01T07:00:00.000Z,2019-07-26T07:00:00.000Z,M-F,,08:30 am - 09:00 am,12:00 pm - 12:30 pm,,,,"B,L",4,N,US,81673,,2019,Penobscot
-70.19092623,44.09735487,58941,Farwell Elementary School,Open,"84-110 Farwell St Lewiston, ME 04240",,Lewiston,ME,4240,2077954110,,april,caron,2074954106,Lewiston Public Schools,2019-07-08T07:00:00.000Z,2019-08-01T07:00:00.000Z,,,,,,,,,4,N,US,81701,,2019,Androscoggin
-68.58642368,47.24861098,58943,Fort Kent Community High School,Open,"84 PLEASANT ST Fort Kent, ME 04743",,Fort Kent,ME,4743,2078345540,,Melanie,Lagasse,2078345540,MSAD 27,2019-06-24T07:00:00.000Z,2019-08-02T07:00:00.000Z,M-F,,07:30 am - 08:45 am,11:00 am - 12:15 pm,,,,"B,L",4,N,US,81777,,2019,Aroostook
-68.78696934,44.5756111,58944,G Herbert Jewett School,Open,"66 Bridge St Bucksport, ME 04416",,Bucksport,ME,4416,2074696644,,Glenn,Redman,2074696647,RSU 25,2019-06-24T07:00:00.000Z,2019-08-23T07:00:00.000Z,SA,,,12:00 pm - 01:00 pm,,,,L,4,N,US,81825,,2019,Hancock
-69.89286664,44.79582868,58946,Garret Schenck School,Open,"19 Ken Taylor St Anson, ME 04911",,Anson,ME,4911,2076963100,,Angela,Hawkins,2076352727,RSU 74/MSAD 74,2019-07-08T07:00:00.000Z,2019-07-25T07:00:00.000Z,"M,T,W,TH",,08:30 am - 09:00 am,11:30 am - 12:00 pm,,,,"B,L",4,N,US,81845,,2019,Somerset
-70.21608018,44.09462578,58947,Gateway Tutor 3,Open,"245 Lisbon Street Lewiston, ME 04240",,Lewiston,ME,4240,2078092918,,Ali,Aden,2078092918,Gateway tutor Academy,2019-06-20T07:00:00.000Z,2019-08-30T07:00:00.000Z,SA,,09:00 AM - 10:30 AM,12:00 PM - 01:30 PM,,,,"B,L",4,N,US,107105,,2019,Androscoggin
-70.21609113,44.09464378,58948,Gateway Tutuor 1,Open,"243 Lisbon Street Lewiston, ME 04240",,Lewiston,ME,4240,2078092918,,Ali,Aden,2078092918,Gateway tutor Academy,2019-06-20T07:00:00.000Z,2019-08-30T07:00:00.000Z,SA,,09:00 AM - 10:30 AM,12:00 PM - 01:30 PM,,,,"B,L",4,N,US,81853,,2019,Androscoggin
-69.62947839,44.56689239,58949,George J Mitchell School,Open,"58 Drummond Ave Waterville, ME 04901",,Waterville,ME,4901,2078730695,,Lori,Hartin,2078734281,Waterville Public Schools,2019-06-24T07:00:00.000Z,2019-08-16T07:00:00.000Z,M-F,,08:00 am - 10:00 am,11:00 am - 12:00 pm,,,,"B,L",4,N,US,81872,,2019,Kennebec
-70.20737242,44.09434219,58951,Governor James B Longley Elem Sch,Open,"145 Birch Street Lewiston, ME 04240",,Lewiston,ME,4240,2077954120,,Monica,Miller,2074954106,Lewiston Public Schools,2019-07-08T07:00:00.000Z,2019-08-01T07:00:00.000Z,"M,T,W,TH",,08:00 AM - 09:00 AM,11:00 AM - 12:00 PM,,,,"B,L",4,N,US,81919,,2019,Androscoggin
-68.70375974,45.65276319,58952,Granite Street School,Open,"191 Granite Street Millinocket, ME 04462",,Millinocket,ME,4462,2077236425,,Danielle,McNally,2077236439,Millinocket Public Schools,2019-07-08T07:00:00.000Z,2019-08-01T07:00:00.000Z,"M,T,W,TH",,07:45 am - 08:15 am,10:45 am - 11:30 am,,,,"B,L",4,N,US,81937,,2019,Penobscot
-69.6184659,44.54172317,58956,Halifax Street Playground,Open,"Halifax Street Winslow, ME 04901",,Winslow,ME,4901,2078732751,,Lori,Hartin,2078721987,Winslow Schools,2019-06-24T07:00:00.000Z,2019-08-16T07:00:00.000Z,M-F,,,11:50 am - 12:10 pm,,,,L,4,N,US,2816,,2019,Kennebec
-69.54774953,44.97683864,58957,Harmony Elementary,Open,"18 Main St Harmony, ME 04942",,Harmony,ME,4942,2076832211,,Jay,Bevis,2076832211,Harmony Public Schools,2019-06-25T07:00:00.000Z,2019-07-19T07:00:00.000Z,"M,T,W,TH",,08:00 am - 08:20 am,11:00 am - 11:30 am,,,,"B,L",4,N,US,90765,,2019,Somerset
-70.71923123,44.07114907,58961,Highland lake Park/Beach,Open,"Highland Road Bridgton, ME 04009",,Bridgton,ME,4009,,,Carmon,Lone,2074152293,RSU 61/MSAD 61,2019-06-24T07:00:00.000Z,2019-08-23T07:00:00.000Z,M-F,,,11:30 AM - 12:30 PM,,,,L,4,N,US,82094,,2019,Cumberland
-70.16597003,44.09870224,58962,Hillview,Open,"77 Rideout Avenue Lewiston, ME 04240",,Lewiston,ME,4240,2077838539,,Carla,Harris,2074954106,Lewiston Public Schools,2019-07-01T07:00:00.000Z,2019-08-16T07:00:00.000Z,M-F,,08:15 AM - 09:15 AM,11:30 AM - 12:30 PM,,,,"B,L",4,N,US,82111,,2019,Androscoggin
-69.622603,44.56815198,58963,Home Place Housing,Open,"148 College Avenue Waterville, ME 04901",,Waterville,ME,4901,2078732751,,Lori,Hartin,2078734281,Waterville Public Schools,2019-06-24T07:00:00.000Z,2019-08-16T07:00:00.000Z,M-F,,,12:10 pm - 12:30 pm,,,,L,4,N,US,82134,,2019,Kennebec
-68.66655788,44.15790457,58965,Island Community Center,Open,"6 Memorial Ln Stonington, ME 04681",,Stonington,ME,4681,,,Jeannie,Hatch,2073486301,Deer Isle-Stonington CSD,2019-07-08T07:00:00.000Z,2019-08-09T07:00:00.000Z,M-F,,08:00 am - 08:30 am,12:00 pm - 12:30 pm,,,,"B,L",4,N,US,82216,,2019,Hancock
-67.83140596,46.13177083,58966,JUST FOR KIDS FUN PARK,Open,"RANDALL AVENUE Houlton, ME 04730",,Houlton,ME,4730,2075321013,,MARIE,CARMICHAEL,2072510358,RSU 29/MSAD 29,2019-06-19T07:00:00.000Z,2019-07-31T07:00:00.000Z,"M,T,W,TH",,,11:30 AM - 12:00 PM,,,,L,4,N,US,2824,,2019,Aroostook
-67.98984463,47.20592038,58967,Kennedy Terrace,Open,"Main Street Van Buren, ME 04785",,Van Buren,ME,4785,2078682746,,Clayton,Belanger,2078685274,RSU 88/MSAD 24,2019-06-24T07:00:00.000Z,2019-08-02T07:00:00.000Z,"M,T,W,TH,F",,,11:00 AM - 11:30 AM,,,,L,4,N,US,82326,,2019,Aroostook
-70.23369786,44.59180625,58968,Kineowatha Park,Open,"High Street Wilton, ME 04294",,Wilton,ME,4294,2079395323,,Dianne,Degone,2074912953,RSU 09,2019-07-01T07:00:00.000Z,2019-08-01T07:00:00.000Z,"M,T,W,TH",,,11:30 am - 12:10 pm,01:00 pm - 01:15 pm,,,"L,A",4,N,US,82346,,2019,Franklin
-70.73841262,43.09726625,58969,Kittery Community Center,Open,"120 Rogers RD Kittery, ME 03904",,Kittery,ME,3904,2074500531,,Wendy,Collins,2074394846,Kittery Public Schools,2019-06-24T07:00:00.000Z,2019-08-23T07:00:00.000Z,M-F,,,12:00 pm - 12:30 pm,,,,L,4,N,US,90955,,2019,York
-70.6531445,44.00214706,58971,Lake Region Middle School,Open,"204 Kansas Road Naples, ME 04055",,Naples,ME,4055,,,Troy,Bell,2074152293,RSU 61/MSAD 61,2019-06-24T07:00:00.000Z,2019-08-23T07:00:00.000Z,M-F,,08:00 AM - 09:00 AM,11:00 AM - 12:00 PM,,,,"B,L",4,N,US,82394,,2019,Cumberland
-69.60447221,44.58900282,58972,Lawrence Jr High School,Open,"7 School Street Fairfield, ME 04937",,Fairfield,ME,4937,2074534200,,Penny,Jackman,2074534200,RSU 49/MSAD 49,2019-06-24T07:00:00.000Z,2019-08-02T07:00:00.000Z,M-F,,08:30 AM - 09:00 AM,11:15 AM - 12:00 PM,,,,"B,L",4,N,US,82439,,2019,Somerset
-70.1992149,44.09494224,58974,Lewiston High School,Open,"156 East Avenue Lewiston, ME 04240",,Lewiston,ME,4240,2077954141,,Tammy,Thibodeau,2074954106,Lewiston Public Schools,2019-07-01T07:00:00.000Z,2019-08-16T07:00:00.000Z,M-F,,08:15 AM - 09:15 AM,09:40 AM - 12:00 PM,,,,"B,L",4,N,US,82471,,2019,Androscoggin
-69.77778959,44.31518334,58979,Lithgow Library,Open,"45 Winthrop Street Augusta, ME 04330",,Augusta,ME,4330,2076262415,,Paul,Heron,2076262468,Augusta Public Schools,2019-06-24T07:00:00.000Z,2019-08-16T07:00:00.000Z,"M,T,W,TH,F",,,11:30 am - 11:45 am,,,,L,4,N,US,134803,,2019,Kennebec
-69.84754161,44.80000652,58980,Madison Area Memorial H S,Open,"486 Main Street Madison, ME 04950",,Madison,ME,4950,2076963395,,JOSH,BISHOP,2076352727,RSU 74/MSAD 74,2019-06-25T07:00:00.000Z,2019-07-18T07:00:00.000Z,"T,W,TH",,08:30 am - 09:00 am,11:30 am - 12:00 pm,,,,"B,L",4,N,US,91099,,2019,Somerset
-69.88459115,44.80684096,58981,Madison Elementary School,Open,"43 Learners Lane Madison, ME 04950",,Madison,ME,4950,2076963911,,Jessica,Foss,2076352727,RSU 74/MSAD 74,2019-06-25T07:00:00.000Z,2019-07-18T07:00:00.000Z,"T,W,TH",,08:30 am - 09:00 am,11:30 am - 12:00 pm,,,,"B,L",4,N,US,19957,,2019,Somerset
-69.87372878,44.79844768,58982,MADISON JHS FIELD,Open,"205 MAIN STREET Madison, ME 04950",,Madison,ME,4950,2076352727,,Myra,Roderick,2076352727,RSU 74/MSAD 74,2019-08-05T07:00:00.000Z,2019-08-09T07:00:00.000Z,M-F,,,11:30 am - 12:00 pm,,,,L,4,N,US,82599,,2019,Somerset
-69.87372878,44.79844768,58983,Madison Junior High School,Open,"205 Main Street Madison, ME 04950",,Madison,ME,4950,2076963381,,Albert,Veneziano,2076352727,RSU 74/MSAD 74,2019-06-19T07:00:00.000Z,2019-07-18T07:00:00.000Z,M-F,,08:30 am - 09:00 am,11:30 am - 12:00 pm,,,,"B,L",4,N,US,82602,,2019,Somerset
-69.85955509,44.80011,58984,MADISON MAIN STREET PARK,Open,"MAIN ST Madison, ME 04950",,Madison,ME,4950,2076352727,,Tamara,Lane,2076352727,RSU 74/MSAD 74,2019-07-09T07:00:00.000Z,2019-07-30T07:00:00.000Z,"T, TH",,,11:30 am - 12:00 pm,,,,L,4,N,US,82603,,2019,Somerset
-69.63766342,44.5451728,58985,Maine Children's Home for little wanderers,Open,"93 Silver Street Waterville, ME 04901",,Waterville,ME,4901,2078732751,,Lori,Hartin,2078734281,Waterville Public Schools,2019-06-24T07:00:00.000Z,2019-08-16T07:00:00.000Z,M-F,,,11:30 am - 12:00 pm,02:00 pm - 02:30 pm,,,"L,A",4,N,US,93544,,2019,Kennebec
-69.38245553,44.78053796,58988,Manson Park School,Open,"179 Lancey Street Pittsfield, ME 04967",,Pittsfield,ME,4967,2074872281,,Patricia,Roy,2074875201,RSU 53/MSAD 53,2019-07-01T07:00:00.000Z,2019-08-02T07:00:00.000Z,,,,,,,,,4,N,US,82623,,2019,Somerset
-68.16344624,46.68356613,58989,Mapleton Rec. Program,Open,"27 Pool Street Mapleton, ME 04757",,Mapleton,ME,4757,,,JAKE,GRAHAM,2077640792,RSU 79/MSAD 01,2019-06-24T07:00:00.000Z,2019-08-09T07:00:00.000Z,M-F,,,11:45 AM - 12:15 PM,,,,L,4,N,US,82627,,2019,Aroostook
-69.80714858,44.08464304,58990,Marcia Buker,Open,"28 High St Richmond, ME 04357",,Richmond,ME,4357,2074492880,,Kim,Lane,2077252716,Mid Coast Hunger Prevention,2019-07-08T07:00:00.000Z,2019-08-16T07:00:00.000Z,"M,T,W,TH,F",,07:30 am - 08:00 am,12:00 pm - 01:00 pm,,,,"B,L",4,N,US,134853,,2019,Sagadahoc
-70.70604238,43.58103563,58992,Massabesic Middle School,Open,"134 Old Alfred Road East Waterboro, ME 04030",,East Waterboro,ME,4030,2072470772,,Linda,Parker,2072473221,RSU 57/MSAD 57,2019-06-24T07:00:00.000Z,2019-08-09T07:00:00.000Z,M-F,,08:00 am - 09:00 am,11:30 am - 12:30 pm,,,,"B,L",4,N,US,82661,,2019,York
-69.92010062,43.90773041,58998,Merrymeeting Community,Open,"2 A st. Brunswick, ME 04011",,Brunswick,ME,4011,2074493530,,Betty,Maylin,2077252716,Mid Coast Hunger Prevention,2019-06-24T07:00:00.000Z,2019-08-30T07:00:00.000Z,"T, TH",,,12:00 pm - 01:00 pm,,,,L,4,N,US,134930,,2019,Cumberland
-69.71701944,44.55209422,59000,Messalonskee Middle School,Open,"33 School Bus Dr Oakland, ME 04963",,Oakland,ME,4963,2074652167,,Barbara,Bonnell,2074657384,RSU 18,2019-06-24T07:00:00.000Z,2019-08-09T07:00:00.000Z,M-F,,07:30 AM - 10:30 AM,11:00 AM - 12:00 PM,,,,"B,L",4,N,US,82734,,2019,Kennebec
-67.83797383,46.12432198,59001,METHODIST CHURCH SUMMER FEEDING,Open,"57 MILITARY ST Houlton, ME 04730",,Houlton,ME,4730,2075380778,,VICTOR,HANS,2072510358,RSU 29/MSAD 29,2019-06-19T07:00:00.000Z,2019-07-31T07:00:00.000Z,"M,T,W,TH",,,11:30 AM - 12:00 PM,,,,L,4,N,US,82736,,2019,Aroostook
-68.03205158,46.69745622,59002,Micmac Housing,Open,"56 Micmac Drive Presque Isle, ME 04769",,Presque Isle,ME,4769,,,TINA,CYR,2077640792,RSU 79/MSAD 01,2019-06-24T07:00:00.000Z,2019-08-10T07:00:00.000Z,M-F,,08:00 AM - 08:20 AM,11:00 AM - 11:20 AM,,,,"B,L",4,N,US,82740,,2019,Aroostook
-68.71135374,45.6569557,59005,Millinocket Memorial Library,Open,"5 Main Avenue Millinocket, ME 04462",,Millinocket,ME,4462,2077237020,,Matt,DeLaney,2077236439,Millinocket Public Schools,2019-06-24T07:00:00.000Z,2019-08-02T07:00:00.000Z,M-F,,,11:00 am - 01:00 pm,,,,L,4,N,US,108008,,2019,Penobscot
-68.98176749,45.25067845,59007,Milo Elementary School,Open,"18 Belmont Street Milo, ME 04463",,Milo,ME,4463,2079432122,,MARILYN,LYFORD,2079437349,RSU 41/MSAD 41,2019-07-09T07:00:00.000Z,2019-07-25T07:00:00.000Z,"T,W,TH",,07:45 am - 08:15 am,11:00 am - 11:30 am,,,,"B,L",4,N,US,20155,,2019,Piscataquis
-70.18711902,44.10827428,59010,Montello School,Open,"407 East Avenue Lewiston, ME 04240",,Lewiston,ME,4240,2077954150,,Steve,Maroon,2074954106,Lewiston Public Schools,2019-07-01T07:00:00.000Z,2019-08-01T07:00:00.000Z,"M,T,W,TH",,08:00 AM - 09:00 AM,11:30 AM - 12:30 PM,,,,"B,L",4,N,US,66606,,2019,Androscoggin
-67.80120932,46.76865515,59011,Morningview Housing,Open,"Sunrise Terrace Fort Fairfield, ME 04742",,Fort Fairfield,ME,4742,2074723290,,Tosha,Rogeski,2074723290,RSU 86/MSAD 20,2019-06-24T07:00:00.000Z,2019-08-01T07:00:00.000Z,"M,T,W,TH",,07:30 am - 09:00 am,10:45 am - 12:00 pm,,,,"B,L",4,N,US,82832,,2019,Aroostook
-70.12993076,44.63921288,59013,Mt Blue High School,Open,"129 Seamon Rd Farmington, ME 04938",,Farmington,ME,4938,2077799720,,Amanda,Barry,2074912953,RSU 09,2019-07-01T07:00:00.000Z,2019-08-01T07:00:00.000Z,"M,T,W,TH",,08:30 am - 09:10 am,11:20 am - 12:00 pm,,,,"B,L",4,N,US,82861,,2019,Franklin
-69.65420061,44.55371332,59016,Mt. Merici School,Open,"152 Western Ave. Waterville, ME 04901",,Waterville,ME,4901,2078732751,,Lori,Hartin,2078734281,Waterville Public Schools,2019-06-24T07:00:00.000Z,2019-08-16T07:00:00.000Z,M-F,,,11:30 am - 12:00 pm,02:00 pm - 02:30 pm,,,"L,A",4,N,US,93660,,2019,Kennebec
-70.60917784,43.97173414,59018,Naples Beach,Open,"Kents Landing Naples, ME 04055",,Naples,ME,4055,,,Connie,Madura,2074152293,RSU 61/MSAD 61,2019-06-24T07:00:00.000Z,2019-08-23T07:00:00.000Z,M-F,,07:30 AM - 08:30 AM,12:00 PM - 01:00 PM,,,,"B,L",4,N,US,82907,,2019,Cumberland
-69.97275626,44.30921665,59019,NorcrossPoint Pavilion,Open,"Bowdoin Street Winthrop, ME 04364",,Winthrop,ME,4364,2074415987,,Cindy,LaMarca,2073772296,Winthrop Public Schools,2019-06-18T07:00:00.000Z,2019-08-16T07:00:00.000Z,,,,,,,,,4,N,US,83006,,2019,Kennebec
-69.64211104,44.56001138,59022,North Street Playground,Open,"North Street Waterville, ME 04901",,Waterville,ME,4901,2078732751,,Lori,Hartin,2078734281,Waterville Public Schools,2019-06-24T07:00:00.000Z,2019-08-16T07:00:00.000Z,M-F,,,11:30 am - 11:50 am,,,,L,4,N,US,2846,,2019,Kennebec
-70.79441808,43.46715425,59023,Notre Dame Church,Open,"10 Payne Street Springvale, ME 04083",,Springvale,ME,4083,2076088760,,Jeanne,Badger,2076088760,Sanford Public Schools,2019-06-24T07:00:00.000Z,2019-08-09T07:00:00.000Z,,,,,,,,,4,N,US,135144,,2019,York
-70.0576247,44.13618893,59024,Oak Hill High School,Open,"56 School Road Wales, ME 04280",,Wales,ME,4280,2077136614,,Susan,Wade,2073754273,RSU 04,2019-07-01T07:00:00.000Z,2019-08-16T07:00:00.000Z,,,,,,,,,4,N,US,83064,,2019,Androscoggin
-69.78628803,44.26519346,59027,Orchard Hill Apartments,Open,"19 Louden Street Augusta, ME 04330",,Augusta,ME,4330,2076208086,,Paul,Heron,2076262468,Augusta Public Schools,2019-06-24T07:00:00.000Z,2019-08-16T07:00:00.000Z,"M,T,W,TH,F",,,11:05 am - 11:20 am,,,,L,4,N,US,119181,,2019,Kennebec
-70.49489656,44.13348297,59028,Oxford Elementary School,Open,"79 Pleasant Street Oxford, ME 04270",,Oxford,ME,4270,2075394456,,Tiffany,Atkisson,2077438914,RSU 17/MSAD 17,2019-07-08T07:00:00.000Z,2019-08-07T07:00:00.000Z,,,,,,,,,4,N,US,135183,,2019,Oxford
-70.52708336,44.21303701,59029,Oxford Hills Comprehensive H S,Open,"256 Main Street Paris, ME 04271",,Paris,ME,4271,2077438914,,Dawn,Kimball,2077438914,RSU 17/MSAD 17,2019-07-08T07:00:00.000Z,2019-08-09T07:00:00.000Z,,,,,,,,,4,N,US,83129,,2019,Oxford
-68.99530415,45.25133652,59033,Penquis Valley Middle/High School,Open,"48 Penquis Drive Milo, ME 04463",,Milo,ME,4463,2079437349,,SUSAN,MULHERIN,2079437349,RSU 41/MSAD 41,2019-07-09T07:00:00.000Z,2019-07-25T07:00:00.000Z,"T,W,TH",,07:45 am - 08:15 am,11:00 am - 11:30 am,,,,"B,L",4,N,US,108367,,2019,Piscataquis
-69.91094769,43.90389259,59034,Perryman Village,Open,"Perryman Dr Brunswick, ME 04011",,Brunswick,ME,4011,2077518519,,Andrea,Wilson,2077252716,Mid Coast Hunger Prevention,2019-06-24T07:00:00.000Z,2019-08-30T07:00:00.000Z,"M,T,W,TH,F",,,12:00 pm - 01:00 pm,,,,L,4,N,US,83197,,2019,Cumberland
-67.83082885,46.97089884,59039,Radar Site,Open,"1 Pleasant Ridge Road Caswell, ME 04750",,Caswell,ME,4750,2073254611,,Rebecca,Fuller,2073254644,Caswell Public Schools,2019-06-17T07:00:00.000Z,2019-07-18T07:00:00.000Z,"M,T,W,TH",,,12:00 PM - 12:30 PM,,,,L,4,N,US,83345,,2019,Aroostook
-70.18955734,44.12334387,59040,Raymond A. Geiger Elementary School,Open,"601 College Street Lewiston, ME 04240",,Lewiston,ME,4240,2077954160,,Kelsey,Nadeau,2074954106,Lewiston Public Schools,2019-07-08T07:00:00.000Z,2019-08-01T07:00:00.000Z,"M,T,W,TH",,08:30 AM - 09:30 AM,11:30 AM - 12:30 PM,,,,"B,L",4,N,US,83368,,2019,Androscoggin
-69.2719355,45.01280389,59042,Ridge View Community School,Open,"175 Fern Road (Suite 1) Dexter, ME 04930",Suite 1,Dexter,ME,4930,2079246000,,Nancy,Price,2079246000,MSAD 46,2019-07-01T07:00:00.000Z,2019-08-01T07:00:00.000Z,,,,,,,,,4,N,US,83436,,2019,Penobscot
-68.01747839,46.67885213,59045,Riverside Park/PI Recreation,Open,"24 Chapman Road Presque Isle, ME 04769",,Presque Isle,ME,4769,,,TINA,CYR,2077640792,RSU 79/MSAD 01,2019-06-24T07:00:00.000Z,2019-08-30T07:00:00.000Z,M-F,,,11:55 AM - 12:15 PM,,,,L,4,N,US,83461,,2019,Aroostook
-67.82553029,46.90941245,59046,Robert A Frost Memorial Library,Open,"42 Maine Street Limestone, ME 04750",,Limestone,ME,4750,2073254611,,Rebecca,Fuller,2073254644,Caswell Public Schools,2019-06-17T07:00:00.000Z,2019-07-18T07:00:00.000Z,"M,T,W,TH",,,12:00 PM - 12:30 PM,,,,L,4,N,US,83472,,2019,Aroostook
-68.81521421,44.82927404,59047,Rock Church,Open,"1195 Ohio Street Bangor, ME 04401",,Bangor,ME,4401,6316261386,,Dorothy,Mendoza,2077823554,Good Shepard Food Bank,2019-06-24T07:00:00.000Z,2019-06-28T07:00:00.000Z,M-F,,,12:00 pm - 01:00 pm,,,,L,4,N,US,83483,,2019,Penobscot
-70.71235584,44.03235463,59050,Sawyer Circle Housing,Open,"41 Sawyer Circle Bridgton, ME 04009",,Bridgton,ME,4009,,,Carmon,Lone,2074152293,RSU 61/MSAD 61,2019-06-24T07:00:00.000Z,2019-08-23T07:00:00.000Z,M-F,,,11:30 AM - 12:30 PM,,,,L,4,N,US,83617,,2019,Cumberland
-68.57252337,45.63193737,59051,Schenck High School,Open,"45 North Street East Millinocket, ME 04430",,East Millinocket,ME,4430,2077463500,,Brenda,Angotti,2077236439,Millinocket Public Schools,2019-06-17T07:00:00.000Z,2019-07-12T07:00:00.000Z,,,,,,,,,4,N,US,83620,,2019,Penobscot
-69.22821679,45.19317608,59052,Se Do Mo Cha School,Open,"63 Harrison Avenue, Suite B Dover-Foxcroft, ME 04426",,Dover-Foxcroft,ME,4426,2075646535,,Heather,Whitten,2074566535,RSU 68/MSAD 68,2019-06-18T07:00:00.000Z,2019-08-16T07:00:00.000Z,M-F,,08:00 am - 09:00 am,11:00 am - 12:00 pm,,,,"B,L",4,N,US,83629,,2019,Piscataquis
-69.73330495,44.75145099,59055,Skowhegan Area Middle School,Open,"155 Academy Circle Skowhegan, ME 04976",,Skowhegan,ME,4976,2074743339,,Jana,Wacome,2074749508,RSU 54/MSAD 54,2019-06-24T07:00:00.000Z,2019-07-26T07:00:00.000Z,M-F,,07:45 am - 08:10 am,11:20 am - 12:00 pm,,,,"B,L",4,N,US,83715,,2019,Somerset
-68.18181645,46.08645408,59058,So Aroostook School,Open,"922 Dyer Brook Road Dyer Brook, ME 04747",,Dyer Brook,ME,4747,2077578223,,Gayle,Glidden,2077311247,RSU 50,2019-07-01T07:00:00.000Z,2019-07-26T07:00:00.000Z,"M,T,W,TH",,08:00 AM - 08:30 AM,12:00 PM - 12:30 PM,,,,"B,L",4,N,US,83732,,2019,Aroostook
-69.8543359,44.94613488,59059,Solon Elementary School,Open,"76 S Main St Solon, ME 04979",,Solon,ME,4979,2076432491,,Laura,Layman,2076352727,RSU 74/MSAD 74,2019-07-08T07:00:00.000Z,2019-08-01T07:00:00.000Z,"M,T,W,TH",,08:30 am - 09:00 am,11:30 am - 12:00 pm,,,,"B,L",4,N,US,83737,,2019,Somerset
-69.63603623,44.54125732,59061,South End Teen Center,Open,"5 Libby Court Waterville, ME 04901",,Waterville,ME,4901,2078732751,,Lori,Hartin,2078734281,Waterville Public Schools,2019-06-24T07:00:00.000Z,2019-08-16T07:00:00.000Z,M-F,,,11:30 am - 12:00 pm,,,,L,4,N,US,83746,,2019,Kennebec
-70.79693692,43.46309525,59062,Springvale Playground,Open,"Edmund Street Sanford, ME 04073",,Sanford,ME,4073,2076088760,,Debbie,Mello,2076088760,Sanford Public Schools,2019-06-24T07:00:00.000Z,2019-08-09T07:00:00.000Z,,,,,,,,,4,N,US,83808,,2019,York
-68.59149083,47.25352582,59063,St. John Vianney Parish,Open,"26 E Main Street Fort Kent, ME 04743",,Fort Kent,ME,4743,2078345656,,Melanie,Lagasse,2078345540,MSAD 27,2019-06-24T07:00:00.000Z,2019-06-28T07:00:00.000Z,M-F,,07:30 am - 08:45 am,11:00 am - 12:15 pm,,,,"B,L",4,N,US,135547,,2019,Aroostook
-70.70226289,44.05209052,59065,Stevens Brook School,Open,"14 Frances Bell Lane Bridgton, ME 04009",,Bridgton,ME,4009,,,Lori,Andrews,2074152293,RSU 61/MSAD 61,2019-06-24T07:00:00.000Z,2019-08-23T07:00:00.000Z,,,,,,,,,4,N,US,83874,,2019,Cumberland
-70.16139719,44.10909441,59069,Thomas J McMahon Elementary Sch,Open,"151 North Temple Street Lewiston, ME 04240",,Lewiston,ME,4240,2077954120,,Jenn,Carter,2074954106,Lewiston Public Schools,2019-07-08T07:00:00.000Z,2019-08-02T07:00:00.000Z,M-F,,08:20 AM - 08:50 AM,11:50 AM - 12:50 PM,,,,"B,L",4,N,US,84020,,2019,Androscoggin
-68.36795753,44.45491963,59070,Trenton Elementary School,Open,"51 School Road Trenton, ME 04605",,Trenton,ME,4605,2076678447,,Teresa,Gray,2076678447,Trenton Public Schools,2019-07-08T07:00:00.000Z,2019-08-08T07:00:00.000Z,"M,T,W,TH",,08:00 am - 08:15 am,,,,,B,4,N,US,84081,,2019,Hancock
-67.94046672,47.16139154,59073,Van Buren Secondary School Cafateria,Open,"169 Main St., Suite 102 Van Buren, ME 04785",,Van Buren,ME,4785,2078682746,,Clayton,Belanger,2078685274,RSU 88/MSAD 24,2019-06-24T07:00:00.000Z,2019-08-09T07:00:00.000Z,"M,T,W,TH,F",,07:30 AM - 08:00 AM,11:00 AM - 12:30 PM,,,,"B,L",4,N,US,84165,,2019,Aroostook
-69.65223244,44.4374339,59074,Vassalboro Community School,Open,"1116 Webber Pond Rd Vassalboro, ME 04989",,Vassalboro,ME,4989,2078732751,,Lori,Hartin,2078721987,Winslow Schools,2019-06-24T07:00:00.000Z,2019-08-16T07:00:00.000Z,M-F,,08:00 am - 09:00 am,11:00 am - 11:25 am,,,,"B,L",4,N,US,84169,,2019,Kennebec
-69.39284967,44.78760079,59075,Vickery School,Open,"170 School Street Pittsfield, ME 04967",,Pittsfield,ME,4967,2074875575,,Patricia,Roy,2074875201,RSU 53/MSAD 53,2019-07-01T07:00:00.000Z,2019-08-02T07:00:00.000Z,,,,,,,,,4,N,US,67283,,2019,Somerset
-70.11127125,43.8546915,59076,Village View,Open,"Village View Lane Freeport, ME 04032",,Freeport,ME,4032,2078653985,,Sarah,Lundin,2078653985,Freeport Community Service,2019-06-24T07:00:00.000Z,2019-08-23T07:00:00.000Z,M-F,,,11:30 AM - 12:00 PM,,,,L,4,N,US,84191,,2019,Cumberland
-70.30654349,43.62588748,59078,Waldo T Skillin Elementary School,Open,"180 Wescott Road South Portland, ME 04106",,South Portland,ME,4106,2077737373,,Martha,Spencer,2077673266,South Portland Public Schools,2019-06-24T07:00:00.000Z,2019-08-08T07:00:00.000Z,M-F,,08:00 AM - 08:30 AM,11:30 AM - 12:00 PM,,,,"B,L",4,N,US,109252,,2019,Cumberland
-70.36473026,43.68010592,59079,Walker Field,Open,"2 Walker Street Westbrook, ME 04092",,Westbrook,ME,4092,2075537780,,Marguerite,Walz,2078540800,Westbrook Public Schools,2019-06-24T07:00:00.000Z,2019-08-16T07:00:00.000Z,M-F,,,11:40 AM - 12:00 PM,,,,L,4,N,US,84206,,2019,Cumberland
-70.3637583,43.67634266,59080,Walker Memorial Library,Open,"800 Main Street Westbrook, ME 04092",,Westbrook,ME,4092,2078540630,,Cara,Gould,2078540800,Westbrook Public Schools,2019-06-24T07:00:00.000Z,2019-08-16T07:00:00.000Z,M-F,,,11:30 AM - 12:00 PM,,,,L,4,N,US,84207,,2019,Cumberland
-69.3927744,44.78760724,59082,Warsaw Middle School,Open,"167 School Street Pittsfield, ME 04967",,Pittsfield,ME,4967,2074875145,,Patricia,Roy,2074875201,RSU 53/MSAD 53,2019-07-01T07:00:00.000Z,2019-08-02T07:00:00.000Z,,,,,,,,,4,N,US,84225,,2019,Somerset
-67.38914502,44.73420493,59084,Washington Academy,Open,"66 Cutler Road East Machias, ME 04630",,East Machias,ME,4630,2072558301,,Patricia,Ingalls,2072558301,Washington Academy,2019-06-17T07:00:00.000Z,2019-08-30T07:00:00.000Z,M-F,,07:30 AM - 08:30 AM,11:30 AM - 12:30 PM,,,,"B,L",4,N,US,84228,,2019,Washington
-69.64208007,44.55082733,59086,Waterville Senior High School,Open,"1 Brooklyn Ave Waterville, ME 04901",,Waterville,ME,4901,2078732751,,Lori,Hartin,2078734281,Waterville Public Schools,2019-06-24T07:00:00.000Z,2019-08-16T07:00:00.000Z,M-F,,08:00 am - 10:30 am,11:00 am - 11:30 am,,,,"B,L",4,N,US,84250,,2019,Kennebec
-69.85982709,43.92308376,59088,West Bath School,Open,"126 New Meadows Road West Bath, ME 04530",,West Bath,ME,4530,2073194931,,Lori,Franklin,2074439145,West Bath Public Schools,2019-07-08T07:00:00.000Z,2019-08-01T07:00:00.000Z,"M,T,W,TH",,08:00 am - 08:30 am,,,,,B,4,N,US,116796,,2019,Sagadahoc
-70.35912307,43.69020349,59089,Westbrook Community Center,Open,"426 Bridge Street Westbrook, ME 04092",,Westbrook,ME,4092,2078540676,,Anthony,Dahms,2078540800,Westbrook Public Schools,2019-06-24T07:00:00.000Z,2019-08-16T07:00:00.000Z,M-F,,08:30 AM - 09:00 AM,11:30 AM - 12:00 PM,,,,"B,L",4,N,US,48455,,2019,Cumberland
-70.35154604,43.67295858,59090,Westbrook High School,Open,"125 Stroudwater Street Westbrook, ME 04092",,Westbrook,ME,4092,2075916241,,Mary,Emerson,2078540800,Westbrook Public Schools,2019-06-24T07:00:00.000Z,2019-07-25T07:00:00.000Z,"M,T,W,TH",,08:30 am - 09:00 am,11:30 am - 12:00 pm,,,,"B,L",4,N,US,48456,,2019,Cumberland
-70.34602377,43.66518273,59091,Westbrook Middle School,Open,"471 Stroudwater Street Westbrook, ME 04092",,Westbrook,ME,4092,2078573838,,Sally,Hume,2078540800,Westbrook Public Schools,2019-06-25T07:00:00.000Z,2019-07-25T07:00:00.000Z,"M,T,W,TH",,08:30 am - 09:00 am,11:00 am - 11:30 am,,,,"B,L",4,N,US,48457,,2019,Cumberland
-70.36795846,43.6693,59092,Westbrook Pointe,Open,"26 Prospect Street Westbrook, ME 04092",,Westbrook,ME,4092,2078546338,,Mary,Emerson,2078540800,Westbrook Public Schools,2019-06-24T07:00:00.000Z,2019-08-16T07:00:00.000Z,M-F,,,11:00 am - 11:20 am,,,,L,4,N,US,84304,,2019,Cumberland
-69.64584154,44.55004446,59093,Western Avenue Playground,Open,"Western Avenue Waterville, ME 04901",,Waterville,ME,4901,2078732751,,Lori,Hartin,2078734281,Waterville Public Schools,2019-06-24T07:00:00.000Z,2019-08-16T07:00:00.000Z,M-F,,,11:45 am - 12:15 pm,,,,L,4,N,US,84305,,2019,Kennebec
-69.60481716,44.2242943,59094,Whitefield Elementary School,Open,"164 Grand Army Road Whitefield, ME 04353",,Whitefield,ME,4353,2075921965,,Mike,Flynn,2070000000,RSU 12,2019-07-08T07:00:00.000Z,2019-08-16T07:00:00.000Z,"M,T,W,TH",,07:30 am - 09:30 am,11:00 am - 01:00 pm,,,,"B,L",4,N,US,135828,,2019,Lincoln
-70.10372856,43.8592742,59095,Wildwood Acres,Open,"12 Elm Street Freeport, ME 04032",,Freeport,ME,4032,2078653985,,Sarah,Lundin,2078653985,Freeport Community Service,2019-06-24T07:00:00.000Z,2019-08-23T07:00:00.000Z,M-F,,,11:30 AM - 12:00 PM,,,,L,4,N,US,84344,,2019,Cumberland
-69.71742684,44.54994031,59096,Williams Elementary School,Open,"55 Pleasant St Oakland, ME 04963",,Oakland,ME,4963,2074653411,,Barbara,Bonnell,2074657384,RSU 18,2019-06-24T07:00:00.000Z,2019-08-09T07:00:00.000Z,M-F,,07:30 AM - 10:00 AM,,,,,B,4,N,US,84360,,2019,Kennebec
-69.62007853,44.5558904,59099,Winslow Elementary School,Open,"285 Benton Ave Winslow, ME 04901",,Winslow,ME,4901,2078732751,,Lori,Hartin,2078721987,Winslow Schools,2019-06-24T07:00:00.000Z,2019-08-16T07:00:00.000Z,M-F,,08:00 am - 09:30 am,11:00 am - 12:30 pm,,,,"B,L",4,N,US,84386,,2019,Kennebec
-69.9676135,44.30586077,59100,Winthrop Grade School,Open,"23 Highland AVE Winthrop, ME 04364",,Winthrop,ME,4364,2073772241,,Diane,DeBlois,2073772296,Winthrop Public Schools,2019-06-18T07:00:00.000Z,2019-08-16T07:00:00.000Z,,,,,,,,,4,N,US,84387,,2019,Kennebec
-68.31438345,47.24314452,59101,Wisdom Middle High School,Open,"368 Main Street Saint Agatha, ME 04772",,Saint Agatha,ME,4772,2075437717,,Melanie,Lagasse,2075437717,RSU 33/MSAD 33,2019-06-24T07:00:00.000Z,2019-08-02T07:00:00.000Z,M-F,,07:30 am - 08:45 am,11:30 am - 12:45 pm,,,,"B,L",4,N,US,109405,,2019,Aroostook
-70.70703518,43.12646281,59102,Woodland Commons,Open,"500 Ledgewood Drive Kittery, ME 03904",,Kittery,ME,3904,2074389060,,Amber,Vargonen,2074394846,Kittery Public Schools,2019-06-24T07:00:00.000Z,2019-08-23T07:00:00.000Z,M-F,,,12:00 pm - 12:30 pm,,,,L,4,N,US,92211,,2019,York
-70.71453499,44.02265506,59103,Woods Pond Park/Beach,Open,"South High Street Bridgton, ME 04009",,Bridgton,ME,4009,,,Camon,Lone,2074152293,RSU 61/MSAD 61,2019-06-24T07:00:00.000Z,2019-08-23T07:00:00.000Z,M-F,,,11:30 AM - 12:30 PM,,,,L,4,N,US,84415,,2019,Cumberland
-69.82648613,43.91286492,87292,Bath Area Family YMCA,Open,"303 Centre St Bath, ME 04530",,Bath,ME,4530,2074434112,,Kerrie,Benedict,2074434112,Bath YMCA,2019-06-24T04:00:00.000Z,2019-08-23T04:00:00.000Z,M-F,,08:30 am - 09:30 am,12:00 pm - 01:00 pm,,,,,7,N,US,80723,,2019,Sagadahoc
-68.64202096,44.92301524,87293,Binette Park,Open,"Main Street Old Town, ME 04468",,Old Town,ME,4468,2078273908,,Stephanie,Salley,2078273908,RSU 34,2019-07-08T04:00:00.000Z,2019-08-16T04:00:00.000Z,M-F,,,11:00 am - 11:20 am,,,,,7,N,US,80796,,2019,Penobscot
-69.59797601,45.45902159,87295,Greenville Consolidated School,Open,"130 Pritham Ave. Greenville, ME 04441",,Greenville,ME,4441,2076953708,,Linda,Hamilton,2076952666,Greenville Public Schools,2019-06-24T04:00:00.000Z,2019-08-16T04:00:00.000Z,"M,T,W,TH",,,11:30 am - 12:30 pm,,,,,7,N,US,81989,,2019,Piscataquis
-68.66036896,44.9288653,87296,Lincoln Green Apartments,Open,"Shelter Lane Old Town, ME 04468",,Old Town,ME,4468,2078273908,,Stephanie,Salley,2078273908,RSU 34,2019-07-08T04:00:00.000Z,2019-08-16T04:00:00.000Z,M-F,,,11:50 am - 12:10 pm,,,,,7,N,US,143723,,2019,Penobscot
-69.49942829,45.28564232,87297,Monson Town Hall/Park,Open,"10 Tenney Hill Road Monson, ME 04464",,Monson,ME,4464,2076953708,,Linda,Hamilton,2076952666,Greenville Public Schools,2019-06-26T04:00:00.000Z,2019-08-14T04:00:00.000Z,W,,,11:30 am - 12:30 pm,,,,,7,N,US,82818,,2019,Piscataquis
-69.11256198,44.11547431,87298,Oceanside High School,Open,"400 Broadway Rockland, ME 04841",,Rockland,ME,4841,2073700033,,Scott,Browning,2075962002,RSU 13,2019-06-21T04:00:00.000Z,2019-07-16T04:00:00.000Z,M-F,,07:15 AM - 07:30 AM,10:30 AM - 11:00 AM,,,,,7,N,US,83081,,2019,Knox
-69.11256198,44.11547431,87299,Oceanside High School,Open,"400 Broadway Rockland, ME 04841",,Rockland,ME,4841,2075962010,,Colleen,Rickard,2075962002,RSU 13,2019-07-09T04:00:00.000Z,2019-08-01T04:00:00.000Z,"T,W,TH",,09:30 AM - 10:00 AM,11:15 AM - 11:45 AM,,,,,7,N,US,83081,,2019,Knox
-68.6689543,44.92540208,87300,Old Town Elementary School,Open,"576 Stillwater Avenue Old Town, ME 04468",,Old Town,ME,4468,2078271544,,Stephanie,Salley,2078273908,RSU 34,2019-07-16T04:00:00.000Z,2019-08-14T04:00:00.000Z,"T,W,TH",,08:00 am - 08:20 am,11:30 am - 11:50 am,,,,,7,N,US,37880,,2019,Penobscot
-68.68761168,44.91024758,87301,Old Town Recreation Center,Open,"342 Bennoch Road Old Town, ME 04468",,Old Town,ME,4468,2078273961,,Connor,Archer,2078273908,RSU 34,2019-07-08T04:00:00.000Z,2019-08-16T04:00:00.000Z,M-F,,07:15 am - 08:00 am,11:30 am - 12:00 pm,,,,,7,N,US,83091,,2019,Penobscot
-68.6530845,44.928081,87302,Perkins Avenue Park,Open,"Cor. Perkins Avenue & Lincoln Street Old Town, ME 04468",,Old Town,ME,4468,2078273908,,Stephanie,Salley,2078273908,RSU 34,2019-07-08T04:00:00.000Z,2019-08-16T04:00:00.000Z,M-F,,,11:25 am - 11:45 pm,,,,,7,N,US,91483,,2019,Penobscot
-69.611976,45.4600935,87304,Red Cross Beach,Open,"Pritham Avenue Greenville, ME 04441",,Greenville,ME,4441,2076953708,,Linda,Hamilton,2076952666,Greenville Public Schools,2019-06-28T04:00:00.000Z,2019-08-16T04:00:00.000Z,F,,,11:30 am - 12:30 pm,,,,,7,N,US,83400,,2019,Piscataquis
-69.11591456,44.09600047,87305,South School,Open,"30 Broadway Rockland, ME 04841",,Rockland,ME,4841,2076915307,,Cathy,Dinsmore,2075962002,RSU 13,2019-06-24T04:00:00.000Z,2019-08-16T04:00:00.000Z,M-F,,08:30 AM - 09:30 AM,11:30 AM - 01:00 pm,,,,,7,N,US,83759,,2019,Knox
-69.11321526,44.10194335,87306,The Landing Place,Open,"61 Park Street Rockland, ME 04841",,Rockland,ME,4841,2076516593,,K,Bernard,2075962002,RSU 13,2019-06-25T04:00:00.000Z,2019-08-15T04:00:00.000Z,"T, TH",,,12:00 PM - 01:00 PM,,,,,7,N,US,145025,,2019,Knox
-69.1837105,44.08254752,87307,Thomaston Grammar School,Open,"65 Watts Lane Thomaston, ME 04861",,Thomaston,ME,4861,2073546353,,Amanda,Downer,2075962002,RSU 13,2019-07-09T04:00:00.000Z,2019-08-01T04:00:00.000Z,"T,W,TH",,08:30 AM - 09:00 AM,11:10 AM - 11:40 AM,,,,,7,N,US,84025,,2019,Knox
-69.17571642,44.08018875,87308,Thomaston Public Library,Open,"60 Main Street Thomaston, ME 04861",,Thomaston,ME,4861,2073542453,,Caroline,Ward Nesbit,2075962002,RSU 13,2019-06-24T04:00:00.000Z,2019-08-15T04:00:00.000Z,M-F,,,12:00 PM - 12:30 PM,,,,,7,N,US,39367,,2019,Knox
-69.1851515,44.07942753,87309,Thomaston Recreation,Open,"13 Valley Street Thomaston, ME 04861",,Thomaston,ME,4861,2079752544,,Coby,Dorr,2075962002,RSU 13,2019-06-24T04:00:00.000Z,2019-08-16T04:00:00.000Z,M-F,,08:00 AM - 09:00 AM,11:30 AM - 12:30 PM,,,,,7,N,US,84026,,2019,Knox
-68.67444639,44.92343852,87310,Whistle Way & Anderson,Open,"25 Pembroke Drive Old Town, ME 04468",,Old Town,ME,4468,2078273908,,Stephanie,Salley,2078273908,RSU 34,2019-07-08T04:00:00.000Z,2019-08-16T04:00:00.000Z,M-F,,,11:30 am - 11:50 am,,,,,7,N,US,84325,,2019,Penobscot
-70.52811659,44.21510718,87311,Alpine Park,Open,"32 Alpine Street Norway, ME 04268",,Norway,ME,4268,2077438049,,Izabel,Wales,2077438049,The Progress Center Inc,2019-06-24T04:00:00.000Z,2019-08-19T04:00:00.000Z,M-F,,,11:30 AM - 12:00 PM,,,,,7,N,US,141988,,2019,Oxford
-70.31726334,43.67837906,87312,Amanda C Rowe School,Open,"23 Orono Rd Portland, ME 04102",,Portland,ME,4102,2078748205,,Katie,Doherty,2078748231,Portland Public Schools,2019-07-08T04:00:00.000Z,2019-08-08T04:00:00.000Z,"M,T,W,TH",,08:00 am - 08:30 am,11:30 am - 12:00 pm,,,,,7,N,US,141993,,2019,Cumberland
-67.04017776,44.9560484,87313,Beatrice Rafferty School,Open,"22 Bayview Drive Pleasant Point, ME 04667",,Pleasant Point,ME,4667,2078536085,,Amy,Francis,2078536085,Pleasant Point,2019-06-17T04:00:00.000Z,2019-08-16T04:00:00.000Z,M-F,,08:30 AM - 09:30 AM,11:30 AM - 01:00 PM,,,,,7,N,US,80730,,2019,Washington
-70.53932977,44.21708354,87314,Cottage Street Recreational Area,Open,"58 Cottage Street Norway, ME 04268",,Norway,ME,4268,,,Izabel,Wales,2077438049,The Progress Center Inc,2019-06-24T04:00:00.000Z,2019-08-19T04:00:00.000Z,M-F,,,12:00 PM - 12:30 PM,,,,,7,N,US,142679,,2019,Oxford
-70.29506064,43.67121313,87315,Deering High School,Open,"370 Stevens Avenue Portland, ME 04103",,Portland,ME,4103,2078748260,,Bonnie,Roast,2078748231,Portland Public Schools,2019-07-08T04:00:00.000Z,2019-08-15T04:00:00.000Z,M-F,,07:45 am - 09:00 am,11:30 am - 12:30 pm,,,,,7,N,US,81445,,2019,Cumberland
-70.26912749,43.65715037,87316,Deering Oaks Park,Open,"Park Ave Portland, ME 04101",,Portland,ME,4101,2078381220,,Jay,Townsend,2078748231,Portland Public Schools,2019-06-24T04:00:00.000Z,2019-08-21T04:00:00.000Z,M-F,,,11:30 am - 12:30 pm,,,,,7,N,US,81446,,2019,Cumberland
-70.25411203,43.67126773,87317,East End Community School,Open,"195 North ST Portland, ME 04101",,Portland,ME,4101,2074320642,,Peter,Gerard,2075535800,Kids Katering/Opportunity Allicance,2019-06-25T04:00:00.000Z,2019-08-08T04:00:00.000Z,"M,T,W,TH",,08:30 am - 09:00 am,11:30 am - 12:00 pm,,,,,7,N,US,81555,,2019,Cumberland
-67.38960604,44.74068353,87318,Elm Street School,Open,"38 Jacksonville Road East Machias, ME 04630",,East Machias,ME,4630,2072556585,,Nancy,Sprague,2072556585,Machias Public Schools,2019-06-25T04:00:00.000Z,2019-07-25T04:00:00.000Z,"T,W,TH",,08:00 am - 08:30 am,11:00 am - 11:30 am,,,,,7,N,US,106908,,2019,Washington
-67.39820454,44.68899427,87319,Fort O'Brien School,Open,"492 Port Road Machiasport, ME 04655",,Machiasport,ME,4655,2072556585,,Nancy,Sprague,2072556585,Machias Public Schools,2019-06-24T04:00:00.000Z,2019-07-11T04:00:00.000Z,"M,T,W,TH",,08:00 am - 08:30 am,11:00 am - 11:30 am,,,,,7,N,US,143047,,2019,Washington
-70.26262715,43.68063814,87320,Front St. Housing,Open,"Front St. Portland, ME 04101",,Portland,ME,4101,,,Anna,Kiselevich,2075535800,Kids Katering/Opportunity Allicance,2019-06-24T04:00:00.000Z,2019-08-23T04:00:00.000Z,M-F,,,12:00 pm - 01:00 pm,,,,,7,N,US,81819,,2019,Cumberland
-69.77079941,44.22881836,87321,Gardiner Public Library,Open,"152 Water Street Gardiner, ME 04345",,Gardiner,ME,4345,2075853312,,Vanessa,Knipping,2075823110,Southern Kennebec Child Development Center,2019-06-18T04:00:00.000Z,2019-08-20T04:00:00.000Z,T,,,10:15 AM - 11:15 AM,,,,,7,N,US,143117,,2019,Kennebec
-68.64898968,44.94730088,87323,Indian Island School,Open,"10 Wabanaki Way Indian Island, ME 04468",,Indian Island,ME,4468,2078274285,,Amy,Francis,2078274285,Indian Island,2019-06-17T04:00:00.000Z,2019-06-28T04:00:00.000Z,M-F,,08:30 AM - 09:30 AM,11:30 AM - 12:30 PM,,,,,7,N,US,82193,,2019,Penobscot
-67.63166783,45.21205633,87324,Indian Township Summer Camp,Open,"13 School Drive Indian Township-Passamaquoddy Tribe, ME 04668",,Indian Township-Passamaquoddy Tribe,ME,4668,2077962362,,Donna,Meader York,2077962362,Indian Township,2019-06-24T04:00:00.000Z,2019-08-16T04:00:00.000Z,M-F,,08:00 am - 08:30 am,11:30 am - 12:00 pm,,,,,7,N,US,82197,,2019,Washington
-67.58355833,44.65382969,87325,Jonesboro Elementary School,Open,"57 School Road Jonesboro, ME 04648",,Jonesboro,ME,4648,2074342602,,Nancy,Sprague,2072556585,Machias Public Schools,2019-06-24T04:00:00.000Z,2019-07-18T04:00:00.000Z,"M,T,W,TH",,08:30 am - 09:00 am,11:00 am - 11:30 am,,,,,7,N,US,82285,,2019,Washington
-70.2556211,43.66293953,87326,Kennedy Park Playground,Open,"Boyd St Portland, ME 04101",,Portland,ME,4101,,,Kellie,Smith,2075535800,Kids Katering/Opportunity Allicance,2019-06-24T04:00:00.000Z,2019-08-23T04:00:00.000Z,M-F,,,12:45 pm - 01:15 pm,,,,,7,N,US,143547,,2019,Cumberland
-70.28993475,43.70577839,87327,Lyman Moore Middle School,Open,"171 Auburn Street Portland, ME 04103",,Portland,ME,4103,2078748150,,Ben,Donaldson,2078748231,Portland Public Schools,2019-06-18T04:00:00.000Z,2019-06-28T04:00:00.000Z,"T,W,TH,F",,09:00 AM - 09:30 AM,11:30 AM - 12:00 PM,,,,,7,N,US,82577,,2019,Cumberland
-70.51544237,44.22689097,87328,Moore Park,Open,"59 High St South Paris, ME 04281",,South Paris,ME,4281,,,Izabel,Wales,2077438049,The Progress Center Inc,2019-06-24T04:00:00.000Z,2019-08-23T04:00:00.000Z,M-F,,,11:30 AM - 12:00 PM,,,,,7,N,US,82825,,2019,Oxford
-70.24615865,43.6633889,87329,Munjoy South Housing Playground,Open,"Adams St. Portland, ME 04101",,Portland,ME,4101,,,Janine,Kassermen,2075535800,Kids Katering/Opportunity Allicance,2019-07-01T04:00:00.000Z,2019-08-16T04:00:00.000Z,M-F,,,12:00 pm - 12:30 pm,,,,,7,N,US,96158,,2019,Cumberland
-70.29109316,43.71034982,87330,North Deering Gardens,Open,"246 Auburn Street Portland, ME 04103",,Portland,ME,4103,2077974410,,Jeanne,Smith,2078748231,Portland Public Schools,2019-06-24T04:00:00.000Z,2019-08-08T04:00:00.000Z,"M,T, TH",,,11:15 am - 12:00 pm,,,,,7,N,US,83014,,2019,Cumberland
-70.28181218,43.67651761,87331,Ocean Avenue Elementary School,Open,"150 Ocean Avenue Portland, ME 04103",,Portland,ME,4103,2078748100,,Wendy,Boyle,2078748231,Portland Public Schools,2019-07-08T04:00:00.000Z,2019-08-08T04:00:00.000Z,"M,T,W,TH",,09:00 am - 09:30 am,12:30 pm - 01:00 pm,,,,,7,N,US,108254,,2019,Cumberland
-70.49524803,44.15101621,87332,Oxford Regency Mobile Home Park,Open,"100 Carol St Oxford, ME 04270",,Oxford,ME,4270,,,Izabel,Wales,2077438049,The Progress Center Inc,2019-06-24T04:00:00.000Z,2019-08-23T04:00:00.000Z,M-F,,,12:00 PM - 12:30 PM,,,,,7,N,US,83130,,2019,Oxford
-67.62873375,45.26471782,87333,Passamaquoddy Recreational Department,Open,"US Route 1 Indian Township-Passamaquoddy Tribe, ME 04668",,Indian Township-Passamaquoddy Tribe,ME,4668,2077962362,,Donna,Meader York,2077962362,Indian Township,2019-06-24T04:00:00.000Z,2019-08-16T04:00:00.000Z,M-F,,,12:15 pm - 12:45 pm,,,,,7,N,US,83161,,2019,Washington
-70.2589649,43.65942276,87335,Portland High School,Open,"284 Cumberland AV Portland, ME 04101",,Portland,ME,4101,2078748250,,Carol,Ridlon,2078748231,Portland Public Schools,2019-07-08T04:00:00.000Z,2019-08-08T04:00:00.000Z,"M,T,W,TH",,09:00 AM - 09:30 AM,12:00 PM - 12:30 PM,,,,,7,N,US,123396,,2019,Cumberland
-70.2668366,43.6507412,87336,Reiche Summer Program,Open,"166 Brackett St. Portland, ME 04101",,Portland,ME,4101,,,Sarah,Colton,2075535800,Kids Katering/Opportunity Allicance,2019-06-24T04:00:00.000Z,2019-08-16T04:00:00.000Z,M-F,,08:30 am - 09:00 am,12:00 pm - 01:00 pm,,,,,7,N,US,83413,,2019,Cumberland
-70.32039399,43.69900412,87337,Riverton Community Center,Open,"2 Riverton Dr Portland, ME 04103",,Portland,ME,4103,,,Emily,Mancini Fitch,2075535800,Kids Katering/Opportunity Allicance,2019-06-24T04:00:00.000Z,2019-08-23T04:00:00.000Z,M-F,,,12:00 pm - 01:00 pm,,,,,7,N,US,83463,,2019,Cumberland
-67.46920563,44.71451533,87338,Rose M Gaffney School,Open,"15 Rose Gaffney Rd Machias, ME 04654",,Machias,ME,4654,2072556585,,Nancy,Sprague,2072556585,Machias Public Schools,2019-06-24T04:00:00.000Z,2019-07-19T04:00:00.000Z,,,,,,,,,7,N,US,83506,,2019,Washington
-70.32062652,43.67581931,87339,Sagamore Community Center,Open,"21 Popham St. Portland, ME 04103",,Portland,ME,4103,,,Kayla,Theriault,2075535800,Kids Katering/Opportunity Allicance,2019-06-24T04:00:00.000Z,2019-08-23T04:00:00.000Z,M-F,,,12:00 pm - 01:00 pm,,,,,7,N,US,83559,,2019,Cumberland
-70.54018282,44.21572376,87340,The Progress Center,Open,"35 Cottage St Norway, ME 04268",,Norway,ME,4268,2077438049,,Izabel,Wales,2077438049,The Progress Center Inc,2019-06-24T04:00:00.000Z,2019-08-19T04:00:00.000Z,TH,,,,,,04:30 PM - 06:00 PM,,7,N,US,98589,,2019,Oxford
-70.23365265,44.58511688,87341,Wilton Public Library,Open,"104 Main St Wilton, ME 04294",,Wilton,ME,4294,2076453841,,Cassandra,Savage,2074912953,RSU 09,2019-07-05T04:00:00.000Z,2019-08-02T04:00:00.000Z,F,,,11:30 am - 12:00 pm,,,,,7,N,US,96671,,2019,Franklin
-69.6289412,43.86591004,87343,Boothbay Region YMCA,Open,"261 Townsend Avenue Boothbay Harbor, ME 04538",,Boothbay Harbor,ME,4538,2076882855,,Logahn,Walker,2076227566,Medical Care Development,2019-06-17T04:00:00.000Z,2019-08-23T04:00:00.000Z,M-F,,,11:00 AM - 12:00 PM,,,,,7,N,US,80832,,2019,Lincoln
-69.45315273,44.200118,87344,Jefferson Scoop,Open,"249 Waldoboro Rd Jefferson, ME 04348",,Jefferson,ME,4348,2075490362,,Joe,Holland,2076227566,Medical Care Development,2019-06-19T04:00:00.000Z,2019-08-23T04:00:00.000Z,"SA,S",,,11:30 am - 02:30 pm,,,,,7,N,US,143493,,2019,Lincoln
-69.66917891,44.02062289,87347,Wiscasset Recreation,Open,"242 Gardiner Road Wiscasset, ME 04578",,Wiscasset,ME,4578,2078828230,,Kristy,Lincoln,2076227566,Medical Care Development,2019-07-01T04:00:00.000Z,2019-08-16T04:00:00.000Z,M-F,,07:30 am - 08:30 am,11:30 am - 12:30 pm,,,,,7,N,US,84389,,2019,Lincoln
-69.87841856,44.51906918,87348,Belgrade Community Center,Open,"1 Center Drive Belgrade, ME 04917",,Belgrade,ME,4917,2074953481,,Leila,Schubert,2074657384,RSU 18,2019-06-24T04:00:00.000Z,2019-08-09T04:00:00.000Z,M-F,,,11:15 AM - 11:45 AM,,,,,7,N,US,142136,,2019,Kennebec
-69.51092702,44.03936689,87350,Central Lincoln County YMCA,Open,"525 Main Street Damariscotta, ME 04543",,Damariscotta,ME,4543,2077514886,,Joe,Clark,2076227566,Medical Care Development,2019-06-19T04:00:00.000Z,2019-08-23T04:00:00.000Z,M-F,,07:30 AM - 08:30 AM,12:00 PM - 01:00 PM,,,,,7,N,US,81106,,2019,Lincoln
-69.63760447,43.87761992,87351,Clifford Park Playground,Open,"55 Back River Road Boothbay, ME 04537",,Boothbay,ME,4537,2073809713,,Heidi,Stevens,2076227566,Medical Care Development,2019-06-17T04:00:00.000Z,2019-08-23T04:00:00.000Z,M-F,,,11:30 am - 12:00 PM,,,,,7,N,US,81230,,2019,Lincoln
-70.10298453,44.11747453,87352,Garden Heights,Open,"27Garden Heights Dr. Sabattus, ME 04280",,Sabattus,ME,4280,2077136614,,Susan,Wade,2073754273,RSU 04,2019-07-01T04:00:00.000Z,2019-08-16T04:00:00.000Z,M-F,,,11:00 am - 11:15 am,,,,,7,N,US,143108,,2019,Androscoggin
-68.65667531,45.24097033,87353,Love Alliance,Open,"5 Main Street Howland, ME 04448",,Howland,ME,4448,2077328357,,Kayla,Thompson,2077323987,RSU 31/MSAD 31,2019-06-22T04:00:00.000Z,2019-07-30T04:00:00.000Z,M-F,,,11:30 AM - 12:00 PM,,,,,7,N,US,121524,,2019,Penobscot
-69.38334281,44.09821821,87354,Miller School,Open,"145 Kalers Corner Road Waldoboro, ME 04572",,Waldoboro,ME,4572,2075422327,,Don,Hannan,2076227566,Medical Care Development,2019-06-19T04:00:00.000Z,2019-08-23T04:00:00.000Z,M-F,,09:00 AM - 09:30 AM,12:00 PM - 01:00 PM,,,,,7,N,US,82762,,2019,Lincoln
-69.75781951,44.56943595,87355,Pleasant Point Recreational Area,Open,"59 McGrath Pond Road Oakland, ME 04963",,Oakland,ME,4963,2075096887,,Barbara,Bonnell,2074657384,RSU 18,2019-06-24T04:00:00.000Z,2019-08-09T04:00:00.000Z,M-F,,,11:00 AM - 11:20 AM,,,,,7,N,US,144419,,2019,Kennebec
-70.39687524,44.06346197,87356,Poland Community School,Open,"1250 Maine Street Poland, ME 04274",,Poland,ME,4274,2073765041,,Penny,Friree,2079985400,RSU 16,2019-07-08T04:00:00.000Z,2019-08-02T04:00:00.000Z,M-F,,08:15 am - 08:45 am,11:45 am - 12:15 pm,,,,,7,N,US,83258,,2019,Androscoggin
-69.89926783,44.57783915,87358,Rome Community Center,Open,"8 Mercer Road Rome, ME 04963",,Rome,ME,4963,2075096887,,Abby,Dipetro,2074657384,RSU 18,2019-06-24T04:00:00.000Z,2019-08-09T04:00:00.000Z,M-F,,,11:15 AM - 11:45 AM,,,,,7,N,US,144594,,2019,Kennebec
-69.24015598,44.12587939,87360,Warren Community School,Open,"117 Eastern Road Warren, ME 04864",,Warren,ME,4864,2072733890,,Stacey,Fowler,2076227566,Medical Care Development,2019-06-24T04:00:00.000Z,2019-08-23T04:00:00.000Z,M-F,,07:30 am - 08:30 am,12:00 pm - 12:30 pm,,,,,7,N,US,84222,,2019,Knox
-69.05580563,44.79622464,87362,Carmel Elementary School,Open,"50 Plymouth Road Carmel, ME 04419",,Carmel,ME,4419,2078483383,,Bruce,Guimond,2078485173,RSU 87/MSAD 23,2019-07-09T04:00:00.000Z,2019-08-08T04:00:00.000Z,"T,W,TH",,08:15 am - 08:30 am,11:00 am - 11:15 am,,,,,7,N,US,81043,,2019,Penobscot
-67.93402712,44.60314037,87363,Cherryfield Elementary,Open,"85 School Street Cherryfield, ME 04622",,Cherryfield,ME,4622,2075467949,,wendy,Harrington,2072885097,Maine Sea Coast Mission,2019-06-24T04:00:00.000Z,2019-07-25T04:00:00.000Z,"M,T,W,TH",,08:00 AM - 08:30 AM,11:00 AM - 11:30 AM,,,,,7,N,US,142499,,2019,Washington
-68.64691642,44.95224527,87364,Penobscot Nation,Open,"16 Wabanaki Way Indian Island, ME 04468",,Indian Island,ME,4468,2072171906,,Brittney,Fields,2076593490,Penobscot Nation,2019-06-19T04:00:00.000Z,2019-08-27T04:00:00.000Z,M-F,,08:00 am - 09:00 am,11:30 am - 12:30 pm,,,,,7,N,US,115918,,2019,Penobscot
-69.05170609,44.79685663,87365,Simpson Memorial Library,Open,"8 Plyouth Rd Carmel, ME 04419",,Carmel,ME,4419,,,Carol,Rancourt,2078485173,RSU 87/MSAD 23,2019-06-25T04:00:00.000Z,2019-08-06T04:00:00.000Z,T,,,12:00 pm - 12:30 pm,,,,,7,N,US,83709,,2019,Penobscot
-68.15414233,46.79023851,87366,Washburn District Elem School,Open,"33 School Street Washburn, ME 04786",,Washburn,ME,4786,2074554504,,Theresa,Ewing,2074558301,RSU 45/MSAD 45,2019-07-01T04:00:00.000Z,2019-07-26T04:00:00.000Z,"M,T,W,TH,F",,07:30 am - 08:30 am,11:00 am - 12:30 pm,,,,,7,N,US,84226,,2019,Aroostook
-69.90222045,43.91556505,87367,Maplewood Manor,Open,"2 Karen Ln Brunswick, ME 04011",,Brunswick,ME,4011,2074493530,,Betty,Maylin,2077252716,Mid Coast Hunger Prevention,2019-06-24T04:00:00.000Z,2019-08-30T04:00:00.000Z,"T, TH",,,12:00 pm - 01:00 pm,,,,,7,N,US,143820,,2019,Cumberland
-70.17026064,43.80840118,72511,Yarmouth Pointe Apartments,Open,"1 Juniper Drive (Playground) Yarmouth, ME 04096",Playground,Yarmouth,ME,4096,2078462406,,Karyn,MacNeill,2078462406,Town of Yarmouth,2019-06-24T04:00:00.000Z,2019-08-16T04:00:00.000Z,M-F,,09:00 am - 09:30 am,11:30 AM - 12:00 PM,,,,"B,L",5,U,US,84433,,2019,Cumberland
-70.71977545,43.80924684,70326,Baldwin Community Center,Open,"534 Pequawket Trail Baldwin, ME 04024",,Baldwin,ME,4024,2076253581,,ashley,chartier,2076253581,Town of Baldwin,2019-07-01T04:00:00.000Z,2019-08-23T04:00:00.000Z,M-F,,08:30 AM - 10:00 AM,11:30 AM - 01:00 PM,,,,"B,L",5,N,US,136038,,2019,Cumberland
-70.54327163,43.64966301,70328,Buxton Center Elementary School,Open,"912 Long Plains Road Buxton, ME 04093",,Buxton,ME,4093,2046487985,,Amanda,Dumais,2076487985,RSU 06/MSAD 06,2019-06-24T04:00:00.000Z,2019-08-09T04:00:00.000Z,M-F,,08:30 AM - 09:15 AM,11:15 AM - 12:00 PM,,,,"B,L",5,N,US,80973,,2019,York
-70.52171761,43.75874834,70330,Edna Libby Elementary School,Open,"45 Fort Hill Road Standish, ME 04084",,Standish,ME,4084,2046487985,,Dorothy,Janotta,2076487985,RSU 06/MSAD 06,2019-06-24T04:00:00.000Z,2019-08-09T04:00:00.000Z,M-F,,08:30 AM - 09:15 AM,11:15 AM - 12:00 PM,,,,"B,L",5,N,US,81593,,2019,Cumberland
-70.5497277,43.73672572,70331,George E. Jack Elementary,Open,"15 North East Road Standish, ME 04084",,Standish,ME,4084,2046487985,,Cindy,Jackson,2076487985,RSU 06/MSAD 06,2019-06-24T04:00:00.000Z,2019-08-09T04:00:00.000Z,M-F,,08:30 AM - 09:15 AM,11:15 AM - 12:00 PM,,,,"B,L",5,N,US,2813,,2019,Cumberland
-69.45161232,44.88326564,70333,Hartland Town Library,Open,"16 Mill Street Hartland, ME 04943",,Hartland,ME,4943,2073684377,,Nick,Berry,2073685091,RSU 19,2019-06-25T04:00:00.000Z,2019-08-09T04:00:00.000Z,"T,W,TH,F",,,11:30 AM - 12:00 PM,,,,L,5,N,US,82047,,2019,Somerset
-68.43870428,45.92556697,70335,Katahdin Elementary School,Open,"805 Station Road Stacyville, ME 04777",,Stacyville,ME,4777,2073654285,,Gayle,Glidden,2077311258,RSU 89,2019-06-24T04:00:00.000Z,2019-07-25T04:00:00.000Z,"M,T,W,TH,F",,08:00 AM - 08:30 AM,12:15 PM - 12:45 PM,,,,"B,L",5,N,US,82306,,2019,Penobscot
-70.6579565,43.99708082,70336,Lake Region High School,Open,"1877 Roosevelt Trail Naples, ME 04055",,Naples,ME,4055,2076936221,,Shawne,Hargis,2074152293,RSU 61/MSAD 61,2019-06-24T04:00:00.000Z,2019-08-23T04:00:00.000Z,M-F,,08:00 AM - 09:00 AM,11:00 AM - 12:00 PM,,,,"B,L",5,N,US,136989,,2019,Cumberland
-70.37678527,43.51606914,70338,Libby Memorial Library,Open,"Staples St Old Orchard Beach, ME 04064",,Old Orchard Beach,ME,4064,2079344351,,Kim,McLaughlin,2072828285,RSU 23,2019-06-25T04:00:00.000Z,2019-08-16T04:00:00.000Z,"T,W,TH,F",,,11:30 am - 12:00 pm,,,,L,5,N,US,82476,,2019,York
-70.39126506,43.51291405,70339,Loranger Memorial School,Open,"148 Saco Avenue Old Orchard Beach, ME 04064",,Old Orchard Beach,ME,4064,2079342361,,Linda,Sullivan,2072828285,RSU 23,2019-06-24T04:00:00.000Z,2019-08-16T04:00:00.000Z,,,,,,,,,5,N,US,82552,,2019,York
-70.90438308,44.17761565,70340,Lovell Town Beach,Open,"40 Quisisana Dr Lovell, ME 04051",,Lovell,ME,4051,2079256711,,Meg,Dyer,2079352600,RSU 72/MSAD 72,2019-07-01T04:00:00.000Z,2019-08-08T04:00:00.000Z,"M,T,W,TH",,09:00 AM - 10:30 AM,,,,,B,5,N,US,82563,,2019,Oxford
-70.96526531,44.0213051,70341,Molly Ockett School,Open,"25 Molly Ockett Drive Fryeburg, ME 04037",,Fryeburg,ME,4037,2079359543,,Sue,Parameter,2079352600,RSU 72/MSAD 72,2019-06-24T04:00:00.000Z,2019-08-02T04:00:00.000Z,M-F,,07:45 AM - 08:30 AM,11:00 AM - 12:15 PM,,,,"B,L",5,N,US,82810,,2019,Oxford
-70.90242278,44.1226415,70342,New Suncook Elementary School,Open,"95 Main St Lovell, ME 04051",,Lovell,ME,4051,2079256711,,Meg,Dyer,2079352600,RSU 72/MSAD 72,2019-07-01T04:00:00.000Z,2019-08-08T04:00:00.000Z,"M,T,W,TH",,,11:45 AM - 12:15 PM,02:00 PM - 02:15 PM,,,"L,A",5,N,US,82973,,2019,Oxford
-70.10111915,44.1111545,70346,Oak Hill Middle School,Open,"40 Ball Park Road Sabattus, ME 04280",,Sabattus,ME,4280,2077136614,,Susan,Wade,2073754273,RSU 04,2019-07-01T04:00:00.000Z,2019-08-16T04:00:00.000Z,M-F,,07:00 am - 08:15 am,12:00 pm - 12:30 pm,,,,"B,L",5,N,US,2849,,2019,Androscoggin
-70.51896248,43.76155971,70347,Otter Pond YMCA,Open,"71 Chadbourned Road Standish, ME 04084",,Standish,ME,4084,2046487985,,Gail,Libby,2076487985,RSU 06/MSAD 06,2019-06-24T04:00:00.000Z,2019-08-23T04:00:00.000Z,M-F,,08:30 AM - 09:15 AM,11:15 AM - 12:15 PM,,,,"B,L",5,N,US,83119,,2019,Cumberland
-70.18093788,44.46993477,70348,RSU 73 Summer Rec,Open,"25 Cedar Street Livermore Falls, ME 04254",,Livermore Falls,ME,4254,2078973978,,Dora,York,2078973978,RSU 73,2019-06-24T04:00:00.000Z,2019-08-02T04:00:00.000Z,"M,T,W,TH,F",,08:30 AM - 09:00 AM,11:00 AM - 12:15 PM,,,,"B,L",5,N,US,38584,,2019,Androscoggin
-70.86105523,43.81016471,70349,Sacopee Valley Elementary School,Open,"213 South Hiram Hiram, ME 04041",,Hiram,ME,4041,2076258116,,Pat,Tavenner,2076258115,RSU 55/MSAD 55,2019-07-08T04:00:00.000Z,2019-08-01T04:00:00.000Z,"M,T,W,TH",,07:30 AM - 08:00 AM,11:30 AM - 12:00 PM,,,,"B,L",5,N,US,83556,,2019,Oxford
-70.86782815,43.81125971,70350,Sacopee Valley Middle School,Open,"137 South Hiram Road Hiram, ME 04041",,Hiram,ME,4041,2076258116,,Barbara,Vieira,2076258115,RSU 55/MSAD 55,2019-07-08T04:00:00.000Z,2019-08-01T04:00:00.000Z,"M,T,W,TH",,07:30 AM - 08:00 AM,11:30 AM - 12:00 PM,,,,"B,L",5,N,US,83557,,2019,Oxford
-70.21848979,44.81473045,70351,Strong Elementary School,Open,"110 N Main Street Strong, ME 04983",,Strong,ME,4983,2076843521,,Sonja,Walker,2076392086,RSU 58/MSAD 58,2019-07-01T04:00:00.000Z,2019-08-01T04:00:00.000Z,"M,T,W,TH",,,11:00 am - 01:00 pm,10:00 am - 10:30 am,,,"L,A",5,N,US,83890,,2019,Franklin
-69.88679551,44.52633898,70353,Union Church-Belgrade Lakes,Open,"67 Main Street Belgrade Lakes, ME 04918",,Belgrade Lakes,ME,4918,2074953599,,Barbara,Bonnell,2074657384,RSU 18,2019-06-24T04:00:00.000Z,2019-08-09T04:00:00.000Z,M-F,,,11:15 AM - 11:45 AM,,,,L,5,N,US,137980,,2019,Kennebec
-70.75333674,44.63213769,79291,Andover Elementary School,Open,"85 Pine St. Andover, ME 04216",,Andover,ME,4216,2073924381,,Cindy,Snell,2073924381,Andover Public Schools,2019-07-15T04:00:00.000Z,2019-08-15T04:00:00.000Z,"M,T,W,TH",,08:00 am - 08:30 am,12:00 pm - 12:30 pm,,,,"B,L",6,N,US,114082,,2019,Oxford
-70.20618215,44.09726219,79292,Drouin Field,Open,"119 Walnut Street Lewiston, ME 04240",,Lewiston,ME,4240,2075203880,,Jennifer,Erwin,2070000000,YWCA Central Maine,2019-07-24T04:00:00.000Z,2019-07-24T04:00:00.000Z,W,,,,,,06:00 pm - 07:00 pm,S,6,N,US,139317,,2019,Androscoggin
-68.49754102,45.37979249,79294,Mattanawcook Academy,Open,"33 Reed Drive Lincoln, ME 04457",,Lincoln,ME,4457,2077946711,,Arlene,Smith,2077943014,RSU 67,2019-07-08T04:00:00.000Z,2019-08-02T04:00:00.000Z,"M,T,W,TH",,07:30 am - 08:30 am,11:00 am - 12:30 pm,,,,"B,L",6,N,US,97381,,2019,Penobscot
-70.20047889,44.11215736,79296,Petthingill School Park,Open,"409 College Street Lewiston, ME 04240",,Lewiston,ME,4240,2075203880,,Jennifer,Erwin,2070000000,YWCA Central Maine,2019-07-10T04:00:00.000Z,2019-07-10T04:00:00.000Z,W,,,,,,06:00 pm - 07:00 pm,S,6,N,US,140558,,2019,Androscoggin
-68.50081883,45.36225158,79297,Prince Thomas Park,Open,"37 Lake Street Lincoln, ME 04457",,Lincoln,ME,4457,,,Susan,Theriault,2077943014,RSU 67,2019-07-08T04:00:00.000Z,2019-08-02T04:00:00.000Z,"M,T,W,TH",,,11:45 am - 12:45 pm,,02:30 pm - 03:00 pm,,"L,A",6,N,US,83311,,2019,Penobscot
-70.22198236,44.09323576,79298,Simard Payne Park,Open,"46 Beech Street Lewiston, ME 04240",,Lewiston,ME,4240,2075203880,,Jennifer,Erwin,2070000000,YWCA Central Maine,2019-06-26T04:00:00.000Z,2019-06-26T04:00:00.000Z,W,,,,,,06:00 pm - 07:00 pm,S,6,N,US,140998,,2019,Androscoggin
-70.21243305,44.09382405,79299,TrinityJubilee Center,Open,"247 Bates Street Lewiston, ME 04240",,Lewiston,ME,4240,2077825700,,Crystal,LaChapelle,2077825700,Trinity Jubilee Center,2019-06-19T04:00:00.000Z,2019-08-27T04:00:00.000Z,M-F,,08:30 AM - 09:15 AM,11:00 AM - 11:45 AM,,,,"B,L",6,N,US,84088,,2019,Androscoggin
-70.46380494,45.18992851,79303,CATHEDRAL PINES CAMPGROUND,Open,"945 ARNOLD TRAIL HIGHWAY Stratton, ME 04982",,Stratton,ME,4982,2072463491,,JOANNE,RAYMOND,2072462283,Eustis Public Schools,2019-06-24T04:00:00.000Z,2019-08-15T04:00:00.000Z,"M,T,W,TH",,,11:30 AM - 12:00 PM,,,,L,6,N,US,81077,,2019,Franklin
-70.45516704,43.48445452,79304,Community Bicycle Ctr.,Open,"45 Granite Street Biddeford, ME 04005",,Biddeford,ME,4005,2072829700,,Cliff,Oliver,2073916899,Biddeford Public Schools,2019-06-24T04:00:00.000Z,2019-08-16T04:00:00.000Z,M-F,,,12:15 pm - 12:45 pm,,,,L,6,N,US,81288,,2019,York
-70.45823503,43.49423885,79308,McArthur Library,Open,"270 Main Street Biddeford, ME 04005",,Biddeford,ME,4005,2072844181,,Billie Jo,Kennie,2073916899,Biddeford Public Schools,2019-06-24T04:00:00.000Z,2019-08-16T04:00:00.000Z,M-F,,,11:30 am - 12:00 pm,,,,L,6,N,US,82675,,2019,York
-70.43431713,45.14356886,79310,Stratton Elementary School,Open,"65 School Street Stratton, ME 04982",,Stratton,ME,4982,2072462283,,Joanne,Raymond,2072462283,Eustis Public Schools,2019-06-24T04:00:00.000Z,2019-08-15T04:00:00.000Z,"M,T,W,TH",,07:30 AM - 08:00 AM,11:30 AM - 12:00 PM,,,,"B,L",6,N,US,83888,,2019,Franklin
-70.20375963,44.10221792,81912,Lewiston Middle School,Open,"75 Central Avenue Lewiston, ME 04240",,Lewiston,ME,4240,2075203880,,Jennifer,Erwin,2070000000,YWCA Central Maine,2019-08-06T04:00:00.000Z,2019-08-06T04:00:00.000Z,T,,,,,,06:00 pm - 07:00 pm,S,6,U,US,82472,,2019,Androscoggin
-69.88749475,44.86124254,81913,Carrabec High School,Open,"160 N Main St North Anson, ME 04958",,North Anson,ME,4958,2076352296,,Janet,Boothby,2076352727,RSU 74/MSAD 74,2019-06-19T04:00:00.000Z,2019-07-02T04:00:00.000Z,M-F,,08:30 am - 09:00 am,11:30 am - 12:00 pm,,,,"B,L",6,U,US,81051,,2019,Somerset
-69.8585572,44.94884822,81914,Coolidge Library,Open,"17 S MAIN ST Solon, ME 04979",,Solon,ME,4979,2076432562,,Megan,Myers,2076352727,RSU 74/MSAD 74,2019-06-27T04:00:00.000Z,2019-08-01T04:00:00.000Z,TH,,10:00 am - 11:00 am,,,02:00 pm - 03:00 pm,,"B,A",6,U,US,81322,,2019,Somerset
-69.95914096,44.73097259,81915,Starks Elementary School,Open,"57 ANSON ROAD Starks, ME 04911",,Starks,ME,4911,2074310591,,Linda,LaRose,2076352727,RSU 74/MSAD 74,2019-07-17T04:00:00.000Z,2019-07-31T04:00:00.000Z,W,,,,,02:00 pm - 03:00 pm,,A,6,U,US,83863,,2019,Somerset
-69.52724506,44.43995414,98000,China Primary School,Open,"763 Lakeview Drive South China, ME 04358",,South China,ME,4358,2074454471,,Barbara,Bonnell,2074657384,RSU 18,2019-06-24T04:00:00.000Z,2019-08-09T04:00:00.000Z,M-F,,07:30 AM - 08:30 AM,11:15 AM - 11:45 AM,,,,,7,U,US,81171,,2019,Kennebec
-67.00070159,44.91236749,98001,Cornerstone Baptist Church,Open,"112 County Road Eastport, ME 04631",,Eastport,ME,4631,,,Russell,Fletcher,2079047718,City of Eastport,2019-06-24T04:00:00.000Z,2019-07-01T04:00:00.000Z,M-F,,,11:00 am - 11:30 am,,,,,7,U,US,81331,,2019,Washington
-66.98726501,44.9058576,98002,Eastport Art Center,Open,"36 Washington Street Eastport, ME 04631",,Eastport,ME,4631,,,Alison,Brennan,2079047718,City of Eastport,2019-07-08T04:00:00.000Z,2019-08-16T04:00:00.000Z,M-F,,,12:00 pm - 12:30 pm,,,,,7,U,US,90487,,2019,Washington
-66.99052678,44.90835731,98003,Eastport Elementary School,Open,"100 High Street Eastport, ME 04631",,Eastport,ME,4631,2078536252,,Jana,Sutherland,2079047718,City of Eastport,2019-06-24T04:00:00.000Z,2019-08-16T04:00:00.000Z,M-F,,,11:00 am - 12:00 pm,,,,,7,U,US,90488,,2019,Washington
-69.75799555,44.30288968,98005,Glendridge Apartments,Open,"82 Glenridge Drive Augusta, ME 04330",,Augusta,ME,4330,2076208086,,Bill,Tims,2076262468,Augusta Public Schools,2019-06-24T04:00:00.000Z,2019-08-16T04:00:00.000Z,"M,T,W,TH,F",,08:00 am - 08:15 am,11:35 am - 11:55 am,,,,,7,U,US,81896,,2019,Kennebec
-69.74768744,44.30249918,98006,Green Tree Apartments,Open,"45 New England Road Augusta, ME 04330",,Augusta,ME,4330,2076208086,,Bill,Tims,2076262468,Augusta Public Schools,2019-06-24T04:00:00.000Z,2019-08-16T04:00:00.000Z,"M,T,W,TH,F",,,11:10 am - 11:25 am,,,,,7,U,US,81974,,2019,Kennebec
-69.78566793,44.31270464,98007,Lincoln Elementary School,Open,"30 Lincoln Street Augusta, ME 04330",,Augusta,ME,4330,2076208086,,Jessica,Houle,2076262468,Augusta Public Schools,2019-06-24T04:00:00.000Z,2019-08-16T04:00:00.000Z,"M,T,W,TH,F",,08:00 am - 08:30 am,11:00 am - 11:30 am,,,,,7,U,US,107735,,2019,Kennebec
-69.70940533,44.29311749,98008,McCall Playground,Open,"Eastern Ave Augusta, ME 04330",,Augusta,ME,4330,2076208086,,Bill,Tims,2076262468,Augusta Public Schools,2019-06-24T04:00:00.000Z,2019-08-16T04:00:00.000Z,"M,T,W,TH,F",,,12:00 pm - 12:20 pm,,,,,7,U,US,82676,,2019,Kennebec
-69.71669091,44.55768059,98009,Messalonskee High School,Open,"131 Messalonskee High Drive Oakland, ME 04963",,Oakland,ME,4963,,,Barbara,Bonnell,2074657384,RSU 18,2019-06-24T04:00:00.000Z,2019-08-09T04:00:00.000Z,M-F,,07:30 AM - 08:30 AM,11:00 AM - 11:30 AM,,,,,7,U,US,82733,,2019,Kennebec
-69.77337744,44.32183225,98010,Mill Park Pavillion,Open,"32 Northern Avenue Augusta, ME 04330",,Augusta,ME,4330,2076208086,,Paul,Heron,2076262468,Augusta Public Schools,2019-06-24T04:00:00.000Z,2019-08-16T04:00:00.000Z,"M,T,W,TH,F",,,12:15 pm - 12:35 pm,,,,,7,U,US,82759,,2019,Kennebec
-69.78129047,44.32066954,98011,North Street Playground,Open,"North Street Augusta, ME 04330",,Augusta,ME,4330,2076208086,,Paul,Heron,2076262468,Augusta Public Schools,2019-06-24T04:00:00.000Z,2019-08-16T04:00:00.000Z,"M,T,W,TH,F",,,11:50 am - 12:05 pm,,,,,7,U,US,20476,,2019,Kennebec
-69.7472617,44.53230407,98012,Oakland Boat Landing,Open,"Belgrade Avenue Oakland, ME 04963",,Oakland,ME,4963,2075096887,,Barbara,Bonnell,2074657384,RSU 18,2019-06-24T04:00:00.000Z,2019-08-09T04:00:00.000Z,M-F,,,11:30 AM - 12:30 PM,,,,,7,U,US,108247,,2019,Kennebec
-66.98497862,44.90356768,98013,Peavey Memorial Library,Open,"26 Water Street Eastport, ME 04631",,Eastport,ME,4631,2078534021,,Dana,Chevalier,2079047718,City of Eastport,2019-06-24T04:00:00.000Z,2019-08-16T04:00:00.000Z,M-F,,,12:00 pm - 12:30 pm,,,,,7,U,US,83186,,2019,Washington
-67.03131839,44.92750628,98014,Quoddy Farms,Open,"7 Toll Bridge Road Eastport, ME 04631",,Eastport,ME,4631,,,Terrilynn,Fenderson,2079047718,City of Eastport,2019-06-24T04:00:00.000Z,2019-08-16T04:00:00.000Z,M-F,,,11:30 am - 12:30 pm,,,,,7,U,US,108467,,2019,Washington
-69.76423342,44.32329067,98015,Williams Playground,Open,"Bangor Street Augusta, ME 04330",,Augusta,ME,4330,2076208086,,Paul,Heron,2076262468,Augusta Public Schools,2019-06-24T04:00:00.000Z,2019-08-16T04:00:00.000Z,"M,T,W,TH,F",,,12:30 pm - 12:50 pm,,,,,7,U,US,22208,,2019,Kennebec
-70.24992381,44.09133257,98016,Auburn Middle School,Open,"38 Falcon Drive Auburn, ME 04210",,Auburn,ME,4210,2072126291,,CIndy,Baril,2073336658,Auburn Public Schools,2019-07-08T04:00:00.000Z,2019-08-09T04:00:00.000Z,M-F,,08:30 am - 09:00 am,11:30 am - 12:01 pm,,,,,7,U,US,80670,,2019,Androscoggin
-70.22176559,44.08713959,98017,Boys & Girls Club LA,Open,"43 Second St Auburn, ME 04210",,Auburn,ME,4210,2077822446,,Maura,Moody,2073336658,Auburn Public Schools,2019-06-24T04:00:00.000Z,2019-08-16T04:00:00.000Z,M-F,,08:00 am - 09:00 am,11:00 am - 12:30 pm,,,,,7,U,US,80847,,2019,Androscoggin
-70.21866479,44.12733173,98018,Camp Connor,Open,"Stetson Road Auburn, ME 04210",,Auburn,ME,4210,2077954095,,Jaime,OConnor,2073336658,Auburn Public Schools,2019-06-24T04:00:00.000Z,2019-08-16T04:00:00.000Z,M-F,,,11:30 am - 12:30 pm,,,,,7,U,US,133971,,2019,Androscoggin
-69.74742372,44.31482656,98019,Cony,Open,"60 Pierce Drive Augusta, ME 04330",,Augusta,ME,4330,2076208086,,Shelby,Thibodeau,2076262468,Augusta Public Schools,2019-07-09T04:00:00.000Z,2019-08-08T04:00:00.000Z,"T, TH",,08:00 am - 08:30 am,11:00 am - 11:30 am,,,,,7,U,US,81319,,2019,Kennebec
-69.74808846,44.3136126,98020,Cony Literacy,Open,"40 Pierce Drive Augusta, ME 04330",,Augusta,ME,4330,2076208086,,Karen,Douglas,2076262468,Augusta Public Schools,2019-07-08T04:00:00.000Z,2019-08-01T04:00:00.000Z,"M,T,W,TH",,08:00 am - 08:30 am,11:00 am - 11:30 am,,,,,7,U,US,134130,,2019,Kennebec
-70.1992672,44.1019689,98021,Daisy Garden,Open,"96 Campus Ave Lewiston, ME 04240",,Lewiston,ME,4240,2077534831,,Michelle,Cyr,2073336658,Auburn Public Schools,2019-06-24T04:00:00.000Z,2019-08-16T04:00:00.000Z,M-F,,08:00 am - 09:30 am,11:30 am - 12:30 pm,,,,,7,U,US,98237,,2019,Androscoggin
-70.23616448,44.09530448,98022,Edward Little High School,Open,"77 Harris St Auburn, ME 04210",,Auburn,ME,4210,2074000297,,Rod,Bouthout,2073336658,Auburn Public Schools,2019-07-08T04:00:00.000Z,2019-08-09T04:00:00.000Z,M-F,,08:30 am - 09:30 am,11:30 am - 12:30 pm,,,,,7,U,US,81598,,2019,Androscoggin
-70.24348969,44.08408867,98023,Fairview Elementary School,Open,"397 Minot Avenue Auburn, ME 04210",,Auburn,ME,4210,2077843559,,Chrissy,Lenahan,2073336658,Auburn Public Schools,2019-06-24T04:00:00.000Z,2019-08-16T04:00:00.000Z,M-F,,08:00 am - 08:30 am,11:30 am - 12:15 pm,,,,,7,U,US,81676,,2019,Androscoggin
-67.8372573,46.76454908,98024,Fort Fairfield Elementary School,Open,"76 Brunswick Avenue Fort Fairfield, ME 04742",,Fort Fairfield,ME,4742,207473329,,Tosha,Rogeski,2074723290,RSU 86/MSAD 20,2019-06-24T04:00:00.000Z,2019-08-01T04:00:00.000Z,"M,T,W,TH",,07:30 am - 09:00 am,10:45 am - 12:00 pm,,,,,7,U,US,18908,,2019,Aroostook
-69.77565928,44.30867684,98025,Gage Street Park,Open,"60 Gage Street Augusta, ME 04330",,Augusta,ME,4330,2076208086,,Bill,Tims,2076262468,Augusta Public Schools,2019-06-24T04:00:00.000Z,2019-08-16T04:00:00.000Z,"M,T,W,TH,F",,,01:00 pm - 01:10 pm,,,,,7,U,US,81830,,2019,Kennebec
-70.23908214,44.1007514,98026,RETC School,Open,"80 Lake Street Auburn, ME 04210",,Auburn,ME,4210,2077864498,,Kayla,Mewmeyer,2073336658,Auburn Public Schools,2019-07-08T04:00:00.000Z,2019-08-09T04:00:00.000Z,M-F,,08:00 am - 09:00 am,11:30 am - 12:15 pm,,,,,7,U,US,83422,,2019,Androscoggin
-70.22810331,44.07921937,98027,Sherwood Heights Elementary School,Open,"32 Sherwood Drive Auburn, ME 04210",,Auburn,ME,4210,2075778999,,Sarah,Levine,2073336658,Auburn Public Schools,2019-06-24T04:00:00.000Z,2019-08-16T04:00:00.000Z,M-F,,08:00 am - 09:00 am,11:00 am - 12:01 pm,,,,,7,U,US,108757,,2019,Androscoggin
-70.21825239,44.08209705,98028,Walton Elementary School,Open,"92 Mary Carroll St Auburn, ME 04210",,Auburn,ME,4210,2077841528,,Kris,Urban,2073336658,Auburn Public Schools,2019-06-24T04:00:00.000Z,2019-08-16T04:00:00.000Z,M-F,,08:00 am - 09:00 am,11:30 am - 12:15 pm,,,,,7,U,US,109262,,2019,Androscoggin
-70.22942414,44.1074887,98029,Washburn Elementary School,Open,"35 Lake Auburn Avenue Auburn, ME 04210",,Auburn,ME,4210,2077824546,,Stephanie,Weber,2073336658,Auburn Public Schools,2019-07-08T04:00:00.000Z,2019-08-09T04:00:00.000Z,M-F,,08:00 am - 09:00 am,11:33 am - 12:15 pm,,,,,7,U,US,84227,,2019,Androscoggin
-70.2264164,44.09873021,98030,YMCA~Auburn,Open,"62 Turner St Auburn, ME 04210",,Auburn,ME,4210,2078999832,,Tina,Jennings,2073336658,Auburn Public Schools,2019-06-24T04:00:00.000Z,2019-08-16T04:00:00.000Z,M-F,,07:30 am - 08:30 am,11:30 am - 12:30 PM,,,,,7,U,US,84475,,2019,Androscoggin
-69.2038264,44.37079862,98031,Ames Elementary School,Open,"165 New England Road Searsmont, ME 04973",,Searsmont,ME,4973,2073383320,,Paula,Smith,2073383320,RSU 71,2019-07-09T04:00:00.000Z,2019-08-01T04:00:00.000Z,"T,W,TH",,08:00 am - 08:30 am,11:30 am - 12:00 pm,,,,,7,U,US,80605,,2019,Waldo
-69.01368454,44.41820482,98032,Captain Albert W. Stevens School,Open,"31 Elementary Avenue Belfast, ME 04915",,Belfast,ME,4915,2073383510,,Stacie,Hustus,2073383320,RSU 71,2019-07-09T04:00:00.000Z,2019-08-01T04:00:00.000Z,"T,W,TH",,08:00 am - 08:30 am,11:30 am - 12:00 pm,,,,,7,U,US,133995,,2019,Waldo
-70.2083922,44.09777113,98035,Kennedy Park,Open,"Pine St Lewiston, ME 04241",,Lewiston,ME,4241,2077830801,,Christopher Street,Christopher Street,2077746304,The Salvation Army,2019-07-02T04:00:00.000Z,2019-08-29T04:00:00.000Z,"T, TH",,,,,,04:00 pm - 05:00 pm,,7,U,US,139939,,2019,Androscoggin
-70.14668737,44.67000271,98036,Mallett School,Open,"116 Middle St. Farmington, ME 04938",,Farmington,ME,4938,2077783529,,Liz,Ellis,2074912953,RSU 09,2019-07-01T04:00:00.000Z,2019-08-01T04:00:00.000Z,"M,T,W,TH",,08:30 am - 09:15 am,11:00 am - 12:00 pm,,,,,7,U,US,82616,,2019,Franklin
-69.0249173,44.41168528,98039,Troy A Howard Middle School,Open,"173 Lincolnville Avenue Belfast, ME 04915",,Belfast,ME,4915,2073383320,,Mary,Ward,2073383320,RSU 71,2019-07-09T04:00:00.000Z,2019-08-01T04:00:00.000Z,"T,W,TH",,08:00 am - 08:30 am,11:30 am - 12:00 pm,,,,,7,U,US,84090,,2019,Waldo
-69.67187227,44.92350764,98040,Athens Community School,Open,"8 Fox Hill Rd Athens, ME 04912",,Athens,ME,4912,2076542561,,Bev,Foss,2076352727,RSU 74/MSAD 74,2019-07-08T04:00:00.000Z,2019-08-01T04:00:00.000Z,"M,T,W,TH",,08:00 am - 08:30 am,11:30 am - 12:00 pm,,,,,7,U,US,80662,,2019,Somerset
-69.89663387,44.85749638,98041,Carrabec Community School,Open,"56 N Main St North Anson, ME 04958",,North Anson,ME,4958,2076352209,,Tamara,Lane,2076352727,RSU 74/MSAD 74,2019-06-24T04:00:00.000Z,2019-08-08T04:00:00.000Z,"M,T,W,TH",,08:00 am - 09:00 am,11:30 am - 12:00 pm,,,,,7,U,US,81050,,2019,Somerset
-69.02766416,45.01609058,98042,Central Community Elementary School,Open,"118 Main Street Corinth, ME 04427",,Corinth,ME,4427,2072850325,,Stephanie,Helstrom,2072853334,RSU 64/MSAD 64,2019-07-09T04:00:00.000Z,2019-08-01T04:00:00.000Z,"T,W,TH",,08:00 am - 08:30 am,11:30 am - 12:00 pm,,,,,7,U,US,81101,,2019,Penobscot
-69.71269457,44.76973805,98043,Coburn Park,Open,"Water Street Skowhegan, ME 04976",,Skowhegan,ME,4976,2074746901,,Denise,LeBlanc,2074746901,Skowhegan Recreation Dept,2019-06-19T04:00:00.000Z,2019-08-14T04:00:00.000Z,W,,,11:30 am - 12:30 pm,,,,,7,U,US,114493,,2019,Somerset
-69.29495751,45.02549314,98044,Dexter Regional High School,Open,"12 Abbott Hill Rd Dexter, ME 04930",,Dexter,ME,4930,2079247675,,Nancy,Price,2079246000,MSAD 46,2019-07-01T04:00:00.000Z,2019-08-01T04:00:00.000Z,M-F,,07:45 am - 08:00 am,11:45 am - 12:00 pm,,,,,7,U,US,81466,,2019,Penobscot
-68.58989413,45.24818287,98045,Enfield Station Elementary School,Open,"561 Hammett Road West Enfield, ME 04493",,West Enfield,ME,4493,2077323987,,Terry,Cummings,2077323987,RSU 31/MSAD 31,2019-07-09T04:00:00.000Z,2019-08-01T04:00:00.000Z,"T,W,TH",,07:45 AM - 08:15 AM,10:45 AM - 11:15 AM,,,,,7,U,US,85930,,2019,Penobscot
-69.58491521,44.76426099,98046,Lake George Regional Park,Open,"10 Main Street Canaan, ME 04924",,Canaan,ME,4924,2074746901,,Denise,LeBlanc,2074746901,Skowhegan Recreation Dept,2019-06-17T04:00:00.000Z,2019-08-16T04:00:00.000Z,"M,T,W,TH,F",,,11:30 am - 12:30 pm,,,,,7,U,US,2829,,2019,Somerset
-69.72678253,44.75504665,98047,Skowhegan Community Center,Open,"39 Poulin Drive Skowhegan, ME 04976",,Skowhegan,ME,4976,2074746901,,Denise,LeBlanc,2074746901,Skowhegan Recreation Dept,2019-06-17T04:00:00.000Z,2019-08-16T04:00:00.000Z,M-F,,08:00 am - 09:00 am,12:00 pm - 10:00 pm,,,,,7,U,US,88356,,2019,Somerset
-69.72051993,44.76581041,98048,Skowhegan Free Public Library,Open,"9 Elm Street Skowhegan, ME 04976",,Skowhegan,ME,4976,2074749072,,Angie,Herrick,2074746901,Skowhegan Recreation Dept,2019-06-26T04:00:00.000Z,2019-08-14T04:00:00.000Z,W,,,11:15 am - 12:15 pm,,,,,7,U,US,124681,,2019,Somerset
-69.63210474,44.55166859,98049,Waterville Public Library,Open,"73 Elm Street Waterville, ME 04901",,Waterville,ME,4901,2078732751,,Lori,Hartin,2078734281,Waterville Public Schools,2019-06-24T04:00:00.000Z,2019-08-16T04:00:00.000Z,M-F,,,11:45 am - 12:30 pm,,,,,7,U,US,2889,,2019,Kennebec
-67.92771851,44.59118166,98050,EdGE Center,Open,"7 Weald Bethel Lane Cherryfield, ME 04622",,Cherryfield,ME,4622,2075465870,,Wendy,Harrington,2072885097,Maine Sea Coast Mission,2019-07-01T04:00:00.000Z,2019-07-26T04:00:00.000Z,"M,T,W,TH,F",,08:30 AM - 09:00 AM,11:30 AM - 12:00 PM,,,,,7,U,US,81585,,2019,Washington
-67.88629532,44.53633789,98051,Milbridge Elementary School,Open,"39 Washington St Milbridge, ME 04658",,Milbridge,ME,4658,2075462210,,Wendy,Harrington,2072885097,Maine Sea Coast Mission,2019-07-01T04:00:00.000Z,2019-07-26T04:00:00.000Z,"M,T,W,TH,F",,08:30 AM - 09:30 AM,12:00 PM - 01:00 PM,,,,,7,U,US,82753,,2019,Washington
-67.86444749,46.05458991,124510,Hodgdon Middle/High School,Open,"174 Hodgdon Mills Road Hodgdon, ME 04730",,Hodgdon,ME,4730,207532922,,Carol,Quint,2075323015,RSU 70/MSAD 70,2019-06-24T04:00:00.000Z,2019-07-26T04:00:00.000Z,"M,T,W,TH,F",,07:30 am - 08:00 am,11:30 am - 12:00 pm,,,,,9,N,US,82115,,2019,Aroostook
-68.65479654,44.93199572,112049,Leonard Middle School,Open,"156 Oak Street Old Town, ME 04468",,Old Town,ME,4468,2078273908,,Stephanie,Salley,2078273908,RSU 34,2019-07-16T04:00:00.000Z,2019-08-08T04:00:00.000Z,"T,W,TH",,08:00 am - 08:20 am,11:30 am - 11:50 am,,,,,8,N,US,36942,,2019,Penobscot
-68.66529447,44.92784295,112050,Old Town - Orono YMCA,Open,"472 Stillwater Avenue Old Town, ME 04468",,Old Town,ME,4468,2078279622,,Andrew,Walker,2078273908,RSU 34,2019-07-08T04:00:00.000Z,2019-08-16T04:00:00.000Z,M-F,,08:30 am - 09:00 am,12:20 pm - 12:50 pm,,,,,8,N,US,91400,,2019,Penobscot
-68.65586688,44.93421679,112051,Old Town High School,Open,"203 Stillwater Avenue Old Town, ME 04468",,Old Town,ME,4468,2078273908,,Stephanie,Salley,2078273908,RSU 34,2019-07-16T04:00:00.000Z,2019-08-16T04:00:00.000Z,"T,W,TH",,08:00 am - 08:20 am,11:00 am - 11:20 am,,,,,8,N,US,37881,,2019,Penobscot
-69.12100708,44.13693243,112052,Johnson Memorial Park,Open,"155 Lakeview Drive Rockland, ME 04841",,Rockland,ME,4841,2075940321,,Benjie,Blake,2075962002,RSU 13,2019-06-24T04:00:00.000Z,2019-08-16T04:00:00.000Z,M-F,,,11:00 AM - 01:00 PM,,,,,8,N,US,82277,,2019,Knox
-67.28852469,45.17789938,112053,Milltown Park,Open,"North st Calais, ME 04619",,Calais,ME,4619,2074542000,,Sue,Carter,2074542296,Calais Public Schools,2019-06-17T04:00:00.000Z,2019-08-23T04:00:00.000Z,M-F,,,12:00 pm - 12:45 pm,,,,,8,N,US,146923,,2019,Washington
-69.11139829,44.10524785,112054,Rockland Public Library,Open,"80 Union Street Rockland, ME 04841",,Rockland,ME,4841,2075940310,,Jean,Young,2075962002,RSU 13,2019-06-24T04:00:00.000Z,2019-08-16T04:00:00.000Z,M-F,,,12:00 PM - 01:00 PM,,,,,8,N,US,38500,,2019,Knox
-70.45010897,43.49138259,112057,Community Garden,Open,"39 Sullivan Street Biddeford, ME 04005",,Biddeford,ME,4005,2072293513,,Amy,Tenney,2073916899,Biddeford Public Schools,2019-07-01T04:00:00.000Z,2019-08-16T04:00:00.000Z,"M, W, F",,,11:00 am - 11:30 am,,,,,8,N,US,146094,,2019,York
-69.31447001,44.63757327,112058,Field of Dreams,Open,"Bangor Road Unity, ME 04988",,Unity,ME,4988,2075684607,,Rachel,Nelson,2076491069,RSU 03/MSAD 03,2019-06-25T04:00:00.000Z,2019-08-16T04:00:00.000Z,M-F,,,11:15 am - 11:35 am,,,,,8,N,US,146336,,2019,Waldo
-69.34150313,44.62115484,112059,Kanokolus Boat Landing,Open,"Kanololus Road Unity, ME 04988",,Unity,ME,4988,2075684607,,Rachel,Nelson,2076491069,RSU 03/MSAD 03,2019-06-25T04:00:00.000Z,2019-08-16T04:00:00.000Z,M-F,,,10:50 am - 11:10 am,,,,,8,N,US,146658,,2019,Waldo
-69.30724972,44.39250837,112060,Liberty Library,Open,"59 Main Street Liberty, ME 04949",,Liberty,ME,4949,2075893161,,Bill,Klein,2076491069,RSU 03/MSAD 03,2019-07-08T04:00:00.000Z,2019-08-16T04:00:00.000Z,M-F,,,11:00 am - 11:30 am,,,,,8,N,US,146743,,2019,Waldo
-69.71362833,44.77121008,112061,Margaret Chase Smith Sch - Skowhegan,Open,"40 Heselton Street Skowhegan, ME 04976",,Skowhegan,ME,4976,2074312958,,Jana,Wacome,2074749508,RSU 54/MSAD 54,2019-06-26T04:00:00.000Z,2019-07-30T04:00:00.000Z,TH,,,,,05:45 PM - 06:15 PM,,,8,N,US,146822,,2019,Somerset
-69.12859937,44.55413126,112062,Morse Memorial Elementary School,Open,"27 School Street Brooks, ME 04921",,Brooks,ME,4921,2075684607,,Rachel,Nelson,2076491069,RSU 03/MSAD 03,2019-06-24T04:00:00.000Z,2019-08-16T04:00:00.000Z,M-F,,,12:00 am - 12:20 pm,,,,,8,N,US,146968,,2019,Waldo
-69.44537551,44.88562312,112063,Somerset Valley Middle School,Open,"45 Blake Street Hartland, ME 04943",,Hartland,ME,4943,2073684377,,Darren,Ouellette,2073685091,RSU 19,2019-07-15T04:00:00.000Z,2019-07-17T04:00:00.000Z,"M,T,W",,,11:30 AM - 12:00 PM,,,,,8,N,US,83738,,2019,Somerset
-67.28657081,45.18707347,112064,Union St Park,Open,"Union St Calais, ME 04619",,Calais,ME,4619,2074542000,,Jeannie,Lee,2074542296,Calais Public Schools,2019-06-17T04:00:00.000Z,2019-08-23T04:00:00.000Z,M-F,,,12:00 pm - 12:45 pm,,,,,8,N,US,147645,,2019,Washington
-69.1215533,44.55133395,112065,Varney Building,Open,"24 Veterans Highway Brooks, ME 04921",,Brooks,ME,4921,2075684607,,Rachel,Nelson,2076491069,RSU 03/MSAD 03,2019-06-25T04:00:00.000Z,2019-08-16T04:00:00.000Z,M-F,,,12:30 pm - 12:50 pm,,,,,8,N,US,97648,,2019,Waldo
-69.66185446,44.53009527,112066,Waterville Junior High School,Open,"100 West River Rd Waterville, ME 04901",,Waterville,ME,4901,207509906,,Lori,Hartin,2078734281,Waterville Public Schools,2019-07-29T04:00:00.000Z,2019-08-15T04:00:00.000Z,"M,T,W,TH",,08:00 am - 08:20 am,11:00 am - 11:30 am,,,,,8,N,US,84249,,2019,Kennebec
-68.00156865,46.86095376,112067,Woodland Recreation Department,Open,"63 Broadway St. Woodland, ME 04694",,Woodland,ME,4694,2074542000,,Mike,Boise,2074542296,Calais Public Schools,2019-06-17T04:00:00.000Z,2019-08-23T04:00:00.000Z,,,,,,,,,8,N,US,147819,,2019,Aroostook
-69.34770592,44.39799018,112068,Lake St. George State Park,Open,"278 Belfast Augusta Rd Liberty, ME 04949",,Liberty,ME,4949,2075684607,,Bill,Klein,2076491069,RSU 03/MSAD 03,2019-07-08T04:00:00.000Z,2019-08-16T04:00:00.000Z,M-F,,,11:45 am - 12:30 pm,,,,,8,N,US,146703,,2019,Waldo
-70.3566594,44.28466543,112069,Calvin Wells Memorial Playground,Open,"Cross Road Buckfield, ME 04220",,Buckfield,ME,4220,2073695560,,Jeanne,lapointe,2075627254,RSU 10,2019-06-18T04:00:00.000Z,2019-08-16T04:00:00.000Z,M-F,,,11:45 am - 01:00 pm,,,,,8,N,US,145932,,2019,Oxford
-70.78521116,44.40431789,112070,Crescent park Elementary School,Open,"Crescent lane Bethel, ME 04217",,Bethel,ME,4217,2073644547,,Tracy,Walker,2078242185,RSU 44/MSAD 44,2019-06-24T04:00:00.000Z,2019-08-15T04:00:00.000Z,"M,T,W,TH",,08:30 AM - 09:30 AM,11:30 AM - 12:30 PM,,,,,8,N,US,81363,,2019,Oxford
-69.23714046,45.19157014,112071,Dover-Foxcroft YMCA,Open,"48 Park Street Dover-Foxcroft, ME 04426",,Dover-Foxcroft,ME,4426,2075647111,,Wendy,Voter,2074566535,RSU 68/MSAD 68,2019-06-18T04:00:00.000Z,2019-08-16T04:00:00.000Z,"M,T,W, F",,,11:00 am - 11:30 am,,,,,8,N,US,81498,,2019,Piscataquis
-70.53728262,44.55350417,112074,Mexico Public Library,Open,"Main Street Mexico, ME 04257",,Mexico,ME,4257,2073695560,,Jeanne,lapointe,2075627254,RSU 10,2019-06-19T04:00:00.000Z,2019-08-16T04:00:00.000Z,M-F,,,12:00 pm - 12:45 pm,,,,,8,N,US,146904,,2019,Oxford
-68.70898224,45.65398609,112075,Pelletier Building,Open,"57 penobscot avenue Millinocket, ME 04462",,Millinocket,ME,4462,2077237020,,Matt,DeLaney,2077236439,Millinocket Public Schools,2019-06-24T04:00:00.000Z,2019-08-02T04:00:00.000Z,M-F,,,11:00 am - 12:30 pm,,,,,8,N,US,147158,,2019,Penobscot
-70.55319503,44.55330513,112076,Rumford Elementary School,Open,"121 Lincoln Avenue Rumford, ME 04276",,Rumford,ME,4276,2073644547,,Jeanne,lapointe,2075627254,RSU 10,2019-07-08T04:00:00.000Z,2019-08-02T04:00:00.000Z,M-F,,08:00 am - 08:45 am,11:45 am - 12:30 pm,,,,,8,N,US,147326,,2019,Oxford
-70.54933933,44.54707569,112077,Rumford Public Library,Open,"58 Rumford aVE. Rumford, ME 04276",,Rumford,ME,4276,2073695560,,Jeanne,lapointe,2075627254,RSU 10,2019-06-18T04:00:00.000Z,2019-08-16T04:00:00.000Z,"M,T,W,TH,F",,,12:00 PM - 12:45 PM,,,,,8,N,US,83535,,2019,Oxford
-70.20398113,44.10199792,128551,Camp Smiles,Open,"65 Central Ave Lewiston, ME 04240",,Lewiston,ME,4240,2075133005,,Eric,Crowley,2074954106,Lewiston Public Schools,2019-06-24T04:00:00.000Z,2019-08-16T04:00:00.000Z,M-F,,07:45 AM - 08:45 AM,11:30 AM - 12:30 PM,,,,,9,U,US,81017,,2019,Androscoggin
-68.03010283,46.98941719,128552,Connor Housing,Open,"1836 Van Buren Road Caribou, ME 04736",,Caribou,ME,4736,2073254611,,Rebecca,Fuller,2073254644,Caswell Public Schools,2019-06-17T04:00:00.000Z,2019-07-18T04:00:00.000Z,"M,T,W,TH",,,12:00 pm - 12:30 pm,,,,,9,U,US,81311,,2019,Aroostook
-67.82555416,46.90568574,128553,Limestone Rec,Open,"93 Main Street Limestone, ME 04750",,Limestone,ME,4750,2073254791,,Rebecca,Fuller,2073254644,Caswell Public Schools,2019-06-17T04:00:00.000Z,2019-07-18T04:00:00.000Z,"M,T,W,TH",,,11:00 am - 12:00 pm,,,,,9,U,US,82495,,2019,Aroostook
-70.1894062,44.08476095,128554,Pleasant View Acres,Open,"50 Fairmont Street Lewiston, ME 04240",,Lewiston,ME,4240,2077956871,,Heather,Simmons,2074954106,Lewiston Public Schools,2019-06-24T04:00:00.000Z,2019-08-16T04:00:00.000Z,M-F,,09:30 AM - 10:30 AM,12:30 PM - 01:30 PM,,,,,9,U,US,83250,,2019,Androscoggin
-69.65330478,43.8747417,128556,Camp Knickerbocker,Open,"157 Barnters Island Road Boothbay, ME 04537",,Boothbay,ME,4537,2073507266,,Roosevelt Robo,Bishop,2076227566,Medical Care Development,2019-06-17T04:00:00.000Z,2019-08-23T04:00:00.000Z,M-F,,07:30 am - 08:30 am,11:45 am - 12:45 pm,,,,,9,U,US,81006,,2019,Lincoln
-70.09166811,44.02331222,128557,Lisbon Community School,Open,"33 Mill St Lisbon, ME 04250",,Lisbon,ME,4250,2073532289,,Mark,Stevens,2077252716,Mid Coast Hunger Prevention,2019-06-24T04:00:00.000Z,2019-08-09T04:00:00.000Z,M-F,,08:30 am - 09:00 am,11:30 am - 12:00 pm,,,,,9,U,US,82523,,2019,Androscoggin
-70.06087316,44.00029284,128558,MTM Community Center,Open,"18 School St Lisbon Falls, ME 04252",,Lisbon Falls,ME,4252,2073532289,,Cherie,Garnett,2077252716,Mid Coast Hunger Prevention,2019-06-24T04:00:00.000Z,2019-08-09T04:00:00.000Z,M-F,,08:30 am - 09:00 am,11:30 am - 12:00 pm,,,,,9,U,US,82887,,2019,Androscoggin
-69.63189808,44.55915833,128559,North End Boys and Girls Club,Open,"16 Hillside Ave Waterville, ME 04901",,Waterville,ME,4901,,,aimee,nichols,2078730684,Alfond Youth Center,2019-06-24T04:00:00.000Z,2019-08-23T04:00:00.000Z,SA,,,12:00 pm - 02:00 pm,02:05 pm - 04:00 pm,,,,9,U,US,83017,,2019,Kennebec
-69.64204179,44.55990857,128560,Waterville YMCA,Open,"126 North St Waterville, ME 04901",,Waterville,ME,4901,2078730684,,Christine,Johnson,2078730684,Alfond Youth Center,2019-06-24T04:00:00.000Z,2019-08-23T04:00:00.000Z,M-F,,07:30 am - 09:00 am,11:30 am - 12:30 pm,,,,,9,U,US,84251,,2019,Kennebec
-69.77209007,44.5607379,128561,Camp Tracy,Open,"302 McGrath Pond Rd Oakland, ME 04963",,Oakland,ME,4963,2074659261,,Abbie,Charrier,2078730684,Alfond Youth Center,2019-06-24T04:00:00.000Z,2019-08-16T04:00:00.000Z,M-F,,,12:00 pm - 01:00 pm,02:00 pm - 02:30 pm,,,,9,U,US,81019,,2019,Kennebec
-69.96229888,43.91443621,128562,Family Focus/Hawthorne,Open,"46 Federal St Brunswick, ME 04011",,Brunswick,ME,4011,2074064573,,Amanda,Beaudette,2077252716,Mid Coast Hunger Prevention,2019-06-24T04:00:00.000Z,2019-08-23T04:00:00.000Z,M-F,,09:00 am - 10:30 am,12:00 pm - 01:00 pm,,,,,9,U,US,81695,,2019,Cumberland
-70.63879782,43.85494693,128563,Sebago Elementary School,Open,"283 Sebago Road Sebago, ME 04029",,Sebago,ME,4029,2077873701,,Kristen,Goff,2074152293,RSU 61/MSAD 61,2019-07-09T04:00:00.000Z,2019-08-09T04:00:00.000Z,"T,W,TH",,08:00 am - 09:00 am,11:30 AM - 12:30 PM,,,,,9,U,US,140943,,2019,Cumberland
-67.81416216,46.12540851,119588,ADOPT A BLOCK,Open,"307 MILITARY STREET Houlton, ME 04730",,Houlton,ME,4730,2075322273,,TAMMY,GOETSCH,2072510358,RSU 29/MSAD 29,2019-07-08T04:00:00.000Z,2019-07-31T04:00:00.000Z,M-F,,08:00 am - 08:30 am,11:30 AM - 12:00 PM,,,,,8,U,US,2773,,2019,Aroostook
-67.83940322,46.3070454,119590,MONICELLO REC DEPARTMENT,Open,"36 SCHOOL ST Monticello, ME 04760",,Monticello,ME,4760,2076942270,,MELODY,FAULKNER,2072510358,RSU 29/MSAD 29,2019-06-24T04:00:00.000Z,2019-07-31T04:00:00.000Z,"M,T,W,TH",,08:00 AM - 08:30 AM,11:30 AM - 12:00 PM,,,,,8,U,US,82814,,2019,Aroostook
-69.87237881,45.05833392,119592,Upper Kennebec Valley Senior HS,Open,"110 Meadow Street Bingham, ME 04920",,Bingham,ME,4920,2076723300,,beatrice,laweryson,2076723300,RSU 83/MSAD 13,2019-06-24T04:00:00.000Z,2019-07-31T04:00:00.000Z,"M,T,W,TH",,,11:00 am - 01:00 pm,,,,,8,U,US,84138,,2019,Somerset
-69.6810067,44.77214462,119593,Ames Trailer Park,Open,"15 Hilltop Drive Skowhegan, ME 04976",,Skowhegan,ME,4976,2074312958,,Laura,Pineo,2074749508,RSU 54/MSAD 54,2019-06-18T04:00:00.000Z,2019-08-09T04:00:00.000Z,M-F,,,11:30 am - 12:30 pm,,,,,8,U,US,114078,,2019,Somerset
-69.70971555,44.75942699,119594,Bucky Quinn Field,Open,"South Factory Street Skowhegan, ME 04976",,Skowhegan,ME,4976,,,Jana,Wacome,2074749508,RSU 54/MSAD 54,2019-06-18T04:00:00.000Z,2019-08-09T04:00:00.000Z,M-F,,,11:30 am - 12:30 pm,,,,,8,U,US,136183,,2019,Somerset
-69.57128873,44.7626404,119595,Canaan Elementary School,Open,"178 Main Street Canaan, ME 04924",,Canaan,ME,4924,2074743901,,Gina,Bailey,2074749508,RSU 54/MSAD 54,2019-06-18T04:00:00.000Z,2019-08-09T04:00:00.000Z,M-F,,,11:30 am - 12:30 pm,,,,,8,U,US,2790,,2019,Somerset
-68.03079002,46.86367211,119596,Caribou High School,Open,"308 Sweden Street Caribou, ME 04736",,Caribou,ME,4736,2075519767,,Alisa,Rector,2074966311,RSU 39,2019-07-01T04:00:00.000Z,2019-07-25T04:00:00.000Z,"M,T,W,TH",,07:45 AM - 08:30 AM,10:00 am - 12:15 PM,,,,,8,U,US,2793,,2019,Aroostook
-68.28632958,44.68548536,119597,Cave Hill School,Open,"1205 Eastbrook Road Eastbrook, ME 04634",,Eastbrook,ME,4634,2075653638,,Linda,Mailhot,2074222017,RSU 24,2019-07-08T04:00:00.000Z,2019-08-02T04:00:00.000Z,M-F,,08:00 AM - 08:15 AM,11:30 AM - 11:50 AM,,,,,8,U,US,81081,,2019,Hancock
-67.96088905,44.5115189,119598,Ella Lewis School,Open,"15 Old Village Road Steuben, ME 04680",,Steuben,ME,4680,2075462430,,Linda,Mailhot,2074222017,RSU 24,2019-07-08T04:00:00.000Z,2019-08-02T04:00:00.000Z,M-F,,08:00 AM - 08:15 AM,11:30 AM - 11:50 AM,,,,,8,U,US,81619,,2019,Washington
-67.82790078,46.12797738,119599,HOULTON MIDDLE/HIGH SCHOOL,Open,"7 BIRD ST Houlton, ME 04730",,Houlton,ME,4730,2075383814,,LORI,MCGILLICUDDY,2072510358,RSU 29/MSAD 29,2019-06-24T04:00:00.000Z,2019-07-24T04:00:00.000Z,M-F,,08:00 AM - 08:30 AM,11:00 AM - 11:30 AM,,,,,8,U,US,97291,,2019,Aroostook
-67.82790078,46.12797738,119600,HOULTON SOUTHSIDE,Open,"7 BIRD ST Houlton, ME 04730",,Houlton,ME,4730,2075326027,,Sarah,Estabrook,2072510358,RSU 29/MSAD 29,2019-06-19T04:00:00.000Z,2019-07-26T04:00:00.000Z,M-F,,08:00 AM - 08:30 am,11:30 am - 12:00 pm,,,,,8,U,US,82161,,2019,Aroostook
-69.79928616,44.71252134,119601,Mill Stream Elementary School,Open,"26 Mercer Road Norridgewock, ME 04957",,Norridgewock,ME,4957,2074312958,,Laura,Pineo,2074749508,RSU 54/MSAD 54,2019-06-24T04:00:00.000Z,2019-07-26T04:00:00.000Z,M-F,,07:45 am - 08:10 am,11:30 am - 12:30 pm,,,,,8,U,US,2837,,2019,Somerset
-68.20131754,44.55613439,119602,Mountain View School,Open,"542 Bert Gray Road Sullivan, ME 04664",,Sullivan,ME,4664,2074223200,,Linda,Mailhot,2074222017,RSU 24,2019-07-08T04:00:00.000Z,2019-08-02T04:00:00.000Z,M-F,,08:00 AM - 08:15 AM,11:00 AM - 11:20 AM,,,,,8,U,US,82855,,2019,Hancock
-69.29313669,44.87774514,119603,Nokomis Regional High School,Open,"266 Williams Rd Newport, ME 04953",,Newport,ME,4953,2073684377,,Elliemay,Ham,2073685091,RSU 19,2019-06-19T04:00:00.000Z,2019-08-09T04:00:00.000Z,M-F,,08:30 AM - 09:00 AM,11:30 AM - 12:00 PM,,,,,8,U,US,37732,,2019,Penobscot
-69.72145671,44.77699268,119604,North Elementary School,Open,"33 Jewett Street Skowhegan, ME 04976",,Skowhegan,ME,4976,2074742097,,Jana,Wacome,2074749508,RSU 54/MSAD 54,2019-06-18T04:00:00.000Z,2019-08-09T04:00:00.000Z,M-F,,,11:30 am - 12:30 pm,,,,,8,U,US,83016,,2019,Somerset
-68.02658188,44.40585353,119605,Peninsula School,Open,"71 Main Street Prospect Harbor, ME 04669",,Prospect Harbor,ME,4669,2076671173,,Linda,Mailhot,2074222017,RSU 24,2019-07-08T04:00:00.000Z,2019-08-02T04:00:00.000Z,M-F,,08:00 AM - 08:15 AM,11:00 AM - 11:20 AM,,,,,8,U,US,83193,,2019,Hancock
-68.16829899,44.51136735,119606,Sumner Memorial High School,Open,"2456 US Hwy 1 Sullivan, ME 04664",,Sullivan,ME,4664,2076671173,,Linda,Mailhot,2074222017,RSU 24,2019-07-08T04:00:00.000Z,2019-08-02T04:00:00.000Z,M-F,,08:00 AM - 08:15 AM,12:00 PM - 12:20 PM,,,,,8,U,US,83910,,2019,Hancock
-68.98025452,44.56587135,119607,Swan Lake State Park,Open,"100 West Park Lane Swanville, ME 04915",,Swanville,ME,4915,2075254404,,Steve,Harrington,2073383320,RSU 71,2019-06-24T04:00:00.000Z,2019-08-21T04:00:00.000Z,"M, W",,,11:30 am - 12:30 pm,,,,,8,U,US,116536,,2019,Waldo
-68.00694079,46.86436839,119608,Teague Park School,Open,"59 Glenn Street Caribou, ME 04736",,Caribou,ME,4736,2075519767,,Kathy,Cunrod,2074966311,RSU 39,2019-07-01T04:00:00.000Z,2019-07-25T04:00:00.000Z,"M,T,W,TH",,07:45 AM - 08:30 AM,10:45 AM - 12:00 PM,,,,,8,U,US,2872,,2019,Aroostook
-69.02327613,44.41355647,119609,Waldo County YMCA,Open,"157 Lincolnville Avenue Belfast, ME 04915",,Belfast,ME,4915,2073384598,,Karen,Varney,2073383320,RSU 71,2019-06-24T04:00:00.000Z,2019-08-22T04:00:00.000Z,"M,T,W,TH",,,11:30 am - 12:00 pm,,,,,8,U,US,84205,,2019,Waldo
-68.55442779,45.61781006,119611,Medway Middle School,Open,"25 Middle School Drive Medway, ME 04460",,Medway,ME,4460,2077463470,,donna,gallagher,2077236439,Millinocket Public Schools,2019-06-17T04:00:00.000Z,2019-07-18T04:00:00.000Z,"M,T,W,TH",,08:00 am - 08:30 am,11:30 am - 12:00 pm,,,,,8,U,US,82704,,2019,Penobscot
-68.52820778,45.61023386,119612,Medway Recreation Complex,Open,"4 School Street Medway, ME 04460",,Medway,ME,4460,2077463553,,troy,bouchard,2077236439,Millinocket Public Schools,2019-06-24T04:00:00.000Z,2019-08-02T04:00:00.000Z,M-F,,,11:30 am - 01:00 pm,,,,,8,U,US,82705,,2019,Penobscot
-68.70666455,45.66157994,119613,Millinocket Recreation Complex,Open,"200 State Street Millinocket, ME 04462",,Millinocket,ME,4462,2077463553,,Aaron,Hutchins,2077236439,Millinocket Public Schools,2019-06-24T04:00:00.000Z,2019-08-02T04:00:00.000Z,M-F,,,11:30 am - 01:00 pm,,,,,8,U,US,53602,,2019,Penobscot
-69.26903484,44.55370025,119614,Mt View High School,Open,"577 Mount View Road Thorndike, ME 04986",,Thorndike,ME,4986,2075684607,,Tina,Fabian,2076491069,RSU 03/MSAD 03,2019-06-25T04:00:00.000Z,2019-08-16T04:00:00.000Z,M-F,,08:00 am - 09:00 am,10:45 am - 12:30 pm,,,,,8,U,US,82865,,2019,Waldo
-69.74885211,44.79686344,131370,Yogi Bear Campground,Open,"221 Lakewood Road Madison, ME 04950",,Madison,ME,4950,2074747353,,Denise,LeBlanc,2074746901,Skowhegan Recreation Dept,2019-07-01T04:00:00.000Z,2019-08-16T04:00:00.000Z,M-F,,08:00 am - 09:00 am,11:30 am - 12:30 pm,,,,,10,N,US,150791,,2019,Somerset
