long,lat,objectID,siteName,siteStatus,siteAddress,siteAddress2,siteCity,siteState,siteZip,sitePhone,ext,contactFirstName,contactLastName,contactPhone,sponsoringOrganization,startDate,endDate,daysofOperation,comments,breakfastTime,lunchTime,snackTimeAM,snackTimePM,dinnerSupperTime,mealTypesServed,cycleNumber,recordStatus,country,fnsid,created,season,county
-111.242497,47.5037829,48494,Lewis & Clark School,Open,"3800 1st Avenue South Great Falls, MT 59401",,Great Falls,MT,59401,4062686049,,Jessa,Youngers,4062686049,Great Falls Public Schls,2019-06-11T04:00:00.000Z,2019-08-14T04:00:00.000Z,"M,T,W,TH,F",10:55AM - 11:25AM,,10:55AM - 11:25AM,,,,L,2,N,US,131591,,2019,Cascade
-111.2923113,47.48712067,48495,Sunnyside School,Open,"1800 9th St S Great Falls, MT 59405",,Great Falls,MT,59405,4062686049,,Jessa,Youngers,4062686049,Great Falls Public Schls,2019-06-11T04:00:00.000Z,2019-08-14T04:00:00.000Z,"M,T,W,TH,F",11:55AM - 12:25PM,,11:55AM - 12:25PM,,,,L,2,N,US,132041,,2019,Cascade
-111.3325507,47.50880548,48496,West Elementary,Open,"1205 1st Ave NW Great Falls, MT 59404",,Great Falls,MT,59404,4062686049,,Jessa,Youngers,4062686049,Great Falls Public Schls,2019-06-11T04:00:00.000Z,2019-08-14T04:00:00.000Z,"M,T,W,TH,F",8:00AM - 1:30PM,8:00AM - 10:45AM,11:00AM - 1:30PM,,,,"B,L",2,N,US,132161,,2019,Cascade
-111.3040717,47.51011078,48497,Gibson Park Food Truck,Open,"400 Park Drive North Great Falls, MT 59401",,Great Falls,MT,59401,4062686049,,Jessa,Youngers,4062686049,Great Falls Public Schls,2019-06-11T04:00:00.000Z,2019-08-14T04:00:00.000Z,"M,T,W,TH,F",12:40PM - 1:20PM,,12:40PM - 1:20PM,,,,L,2,N,US,51981,,2019,Cascade
-111.2597097,47.49414048,48498,Lions Park Food Truck,Open,"2701 10th Ave South Great Falls, MT 59405",,Great Falls,MT,59405,4062686049,,Jessa,Youngers,4062686049,Great Falls Public Schls,2019-06-11T04:00:00.000Z,2019-08-14T04:00:00.000Z,"M,T,W,TH,F",11:25AM - 11:55AM,,11:25AM - 11:55AM,,,,L,2,N,US,53169,,2019,Cascade
-111.32712,47.50587994,48499,Rhodes Park Food Truck,Open,"9th Street SW Great Falls, MT 59404",,Great Falls,MT,59404,4062686049,,Jessa,Youngers,4062686049,Great Falls Public Schls,2019-06-11T04:00:00.000Z,2019-08-14T04:00:00.000Z,"M,T,W,TH,F",1:20PM - 1:50PM,,1:20PM - 1:50PM,,,,L,2,N,US,55069,,2019,Cascade
-111.3025798,47.49823733,48500,Carter Park,Open,"611 3rd Street South Great Falls, MT 59405",,Great Falls,MT,59405,4062686049,,Jessa,Youngers,4062686049,Great Falls Public Schls,2019-06-11T04:00:00.000Z,2019-08-14T04:00:00.000Z,"M,T,W,TH,F",12:45PM - 1:30PM,,12:45PM - 1:30PM,,,,L,2,N,US,131063,,2019,Cascade
-112.9450063,46.13238551,48501,Cedar Park Homes,Open,"203 Cedar Park Homes Anaconda, MT 59711",,Anaconda,MT,59711,4065637972,12,Debra,Cuny,4065637972,Anaconda PCA Family Resource C,2019-06-10T04:00:00.000Z,2019-08-16T04:00:00.000Z,"M,T,W,TH,F",10:00AM - 1:45PM,10:00AM - 10:30AM,1:00PM - 1:45PM,,,,"B,L",2,N,US,90226,,2019,Deer Lodge
-112.9526666,46.13009609,48502,Mount Haggin Homes,Open,"101 Main Street Anaconda, MT 59711",,Anaconda,MT,59711,4065637972,12,Debra,Cuny,4065637972,Anaconda PCA Family Resource C,2019-06-10T04:00:00.000Z,2019-08-16T04:00:00.000Z,"M,T,W,TH,F",10:30AM - 1:15PM,10:30AM - 11:00AM,12:45PM - 1:15PM,,,,"B,L",2,N,US,45622,,2019,Deer Lodge
-113.3020511,46.20292137,48503,Camp Watanopa,Open,"Camp Watanopa (Rainbow Bay - Georgetown Lake) Anaconda, MT 59711",Rainbow Bay - Georgetown Lake,Anaconda,MT,59711,4065637972,12,Debra,Cuny,4065637972,Anaconda PCA Family Resource C,2019-08-06T04:00:00.000Z,2019-08-08T04:00:00.000Z,"T,W,TH",8:00AM - 1:00PM,8:00AM - 9:00AM,12:00PM - 1:00PM,,,,"B,L",2,N,US,127159,,2019,Granite
-112.9528778,46.12528458,48504,Anaconda Family Resource Center,Open,"520 Oak St Anaconda, MT 59711",,Anaconda,MT,59711,4065637972,12,Debra,Cuny,4065637972,Anaconda PCA Family Resource C,2019-06-10T04:00:00.000Z,2019-08-16T04:00:00.000Z,"M,T,W,TH,F",9:00AM - 1:00PM,9:00AM - 10:00AM,12:00PM - 1:00PM,,,,"B,L",2,N,US,130904,,2019,Deer Lodge
-112.933521,46.12707,48505,Benny Goodman Park,Open,"Highway 1 East at Van Buren Street Anaconda, MT 59711",,Anaconda,MT,59711,4065637972,12,Debra,Cuny,4065637972,Anaconda PCA Family Resource C,2019-06-10T04:00:00.000Z,2019-08-16T04:00:00.000Z,"M,T,W,TH,F",10:00AM - 2:00PM,10:00AM - 10:30AM,1:00PM - 2:00PM,,,,"B,L",2,N,US,130986,,2019,Deer Lodge
-112.9535169,46.12753186,48506,First Presbyterian Church,Open,"319 Main St Anaconda, MT 59711",,Anaconda,MT,59711,4065637972,12,Debra,Cuny,4065637972,Anaconda PCA Family Resource C,2019-06-10T04:00:00.000Z,2019-08-16T04:00:00.000Z,"M,T,W,TH,F",8:00AM - 12:15PM,8:00AM - 8:30AM,11:30AM - 12:15PM,,,,"B,L",2,N,US,131317,,2019,Deer Lodge
-110.2866814,48.79837245,48507,Gildford Colony School,Open,"21719 Road 160 North Gildford, MT 59525",,Gildford,MT,59525,4063763249,,Paul,Stahl,4063763249,Gildford Colony Elem,2019-06-01T04:00:00.000Z,2019-08-31T04:00:00.000Z,"S,M,T,W,TH,F,SA",7:00AM - 1:00PM,7:00AM - 8:00AM,10:00AM - 1:00PM,,,,"B,L",2,N,US,90675,,2019,Hill
-114.878,47.18716938,48508,Superior Park,Open,"1003 5th Ave Superior, MT 59872",,Superior,MT,59872,4067283710,,Lynda,Schuldheisz,4067283710,Missoula Human Res Council,2019-06-10T04:00:00.000Z,2019-08-08T04:00:00.000Z,"M,T,W,TH",11:30AM - 12:30PM,,11:30AM - 12:30PM,,,,L,2,N,US,88602,,2019,Mineral
-114.1137203,46.317348,48509,Corvallis 7-8,Open,"1049 Eastside Hwy. Corvallis, MT 59828",,Corvallis,MT,59828,4069613201,109,Kathy,Martin,4069613201,Corvallis K-12 Schools,2019-06-10T04:00:00.000Z,2019-08-23T04:00:00.000Z,"M,T,W,TH,F",8:00AM - 12:30PM,8:00AM - 9:00AM,11:00AM - 12:30PM,,,,"B,L",2,N,US,18351,,2019,Ravalli
-113.1487919,46.6705286,48511,Drummond School,Open,"108 West Edwards Street Drummond, MT 59832",,Drummond,MT,59832,4065315846,,Blaine,Bradshaw,4065315846,Granite County Medical Foundat,2019-06-10T04:00:00.000Z,2019-08-02T04:00:00.000Z,"M,T,W,TH,F",11:30AM - 12:30PM,,11:30AM - 12:30PM,,,,L,2,N,US,27117,,2019,Granite
-109.2484527,45.18884947,48512,Red Lodge Boys and Girls Club,Open,"24 W 9th Street Red Lodge, MT 59068",,Red Lodge,MT,59068,4064462582,,Dana,Castellani,4064462582,Boys & Girls Club of Red Lodge,2019-06-03T04:00:00.000Z,2019-08-16T04:00:00.000Z,"M,T,W,TH,F",12:00PM - 4:30PM,,,,12:00PM - 1:00PM,3:30PM - 4:30PM,"S,A",2,N,US,91593,,2019,Carbon
-111.5192988,46.31834025,45195,Heritage Fun Park,Open,"200 South Pine Townsend, MT 59644",,Townsend,MT,59644,4064413455,,Vicki,Thomason,4064413455,Townsend K-12 Schools,2019-06-10T04:00:00.000Z,2019-08-16T04:00:00.000Z,"M,T,W,TH,F",11:00AM - 1:00PM,,11:00AM - 1:00PM,,,,L,1,N,US,19305,,2019,Broadwater
-111.8927017,46.59466652,45196,Eastgate School,Open,"4010 Gradestake East Helena, MT 59635",,East Helena,MT,59635,4062277712,,Deb,Felton,4062277712,East Helena Public Schools,2019-06-10T04:00:00.000Z,2019-08-16T04:00:00.000Z,"M,T,W,TH,F",11:00AM - 12:00PM,,11:00AM - 12:00PM,,,,L,1,N,US,90485,,2019,Lewis and Clark
-111.9169441,46.59225347,45197,Radley Elementary School,Open,"226 E. Clinton Street East Helena, MT 59635",,East Helena,MT,59635,4067777712,,Deb,Felton,4067777712,East Helena Public Schools,2019-06-10T04:00:00.000Z,2019-08-16T04:00:00.000Z,"M,T,W,TH,F",6:00AM - 1:15PM,6:00AM - 10:30AM,10:45AM - 1:15PM,,,,"B,L",1,N,US,91572,,2019,Lewis and Clark
-112.3416149,48.6377723,45198,Glacier Ridge,Open,"520 2nd St SW Cut Bank, MT 59427",,Cut Bank,MT,59427,4067996610,,Donna,Taylor,4067996610,Prairie Peace Lutheran Church,2019-06-11T04:00:00.000Z,2019-07-11T04:00:00.000Z,"T,W,TH",12:00PM - 12:30PM,,12:00PM - 12:30PM,,,,L,1,N,US,103732,,2019,Glacier
-112.9642578,46.13378914,54272,Washo Park,Open,"900 W Pennsylvania Ave. Anaconda, MT 59711",,Anaconda,MT,59711,4065637972,12,Debra,Cuny,4065637972,Anaconda PCA Family Resource C,2019-06-10T04:00:00.000Z,2019-08-16T04:00:00.000Z,"M,T,W,TH,F",9:00AM - 12:30PM,9:00AM - 9:30AM,12:00PM - 12:30PM,,,,"B,L",3,N,US,133369,,2019,Deer Lodge
-109.6436793,47.04830384,54273,King Colony School,Open,"2360 King Colony Road Lewistown, MT 59457",,Lewistown,MT,59457,4063509139,,Pam,Hofer,4063509139,King Colony Elementary,2019-05-23T04:00:00.000Z,2019-08-25T04:00:00.000Z,"S,M,T,W,TH,F,SA",7:00AM - 11:45AM,7:00AM - 8:00AM,10:45AM - 11:45AM,,,,"B,L",3,N,US,52890,,2019,Fergus
-114.8858088,47.45657875,54274,E.L. Johnson Memorial Pool Park,Open,"104 East Oak Street Plains, MT 59859",,Plains,MT,59859,8282435371,,Catharine,Elliott,8282435371,Plains Public Schools,2019-06-03T04:00:00.000Z,2019-08-09T04:00:00.000Z,"M,T,W,TH,F",12:00PM - 3:00PM,,12:00PM - 1:55PM,,2:00PM - 3:00PM,,"L,A",3,N,US,51360,,2019,Sanders
-106.0460898,48.0588615,54275,Frazer Elementary,Open,"325 6th Street Frazer, MT 59225",,Frazer,MT,59225,4066952241,293,DeJondra,Gardipee,4066952241,Frazer Public Schools,2019-05-28T04:00:00.000Z,2019-08-09T04:00:00.000Z,"M,T,W,TH,F",8:00AM - 1:00PM,8:00AM - 9:30AM,11:00AM - 1:00PM,,,,"B,L",3,N,US,107066,,2019,Valley
-109.6822331,48.54934992,54276,Havre Boys & Girls Club,Open,"500 1st Ave Havre, MT 59501",,Havre,MT,59501,4062656206,306,Tim,Brurud,4062656206,HELP Com and Boys & Girls Club,2019-06-06T04:00:00.000Z,2019-08-16T04:00:00.000Z,"M,T,W,TH,F",12:00PM - 4:00PM,,12:00PM - 1:30PM,,3:00PM - 4:00PM,,"L,A",3,N,US,86419,,2019,Hill
-107.87633,48.35335153,54277,Boys & Girls Club of the Hi-Line - Malta,Open,"101 South 7th St W Malta, MT 59538",,Malta,MT,59538,4062656206,,Tim,Brurud,4062656206,HELP Com and Boys & Girls Club,2019-06-03T04:00:00.000Z,2019-08-20T04:00:00.000Z,"M,T,W,TH",12:30PM - 4:00PM,,12:30PM - 1:30PM,,3:00PM - 4:00PM,,"L,A",3,N,US,114254,,2019,Phillips
-115.888666,48.45432006,54278,Troy Community Baptist Church,Open,"725 E. Missoula Ave. Troy, MT 59935",,Troy,MT,59935,4062954206,,Cameron,Foote,4062954206,Troy Community Baptist Church,2019-06-12T04:00:00.000Z,2019-08-21T04:00:00.000Z,"M,T,W,TH,F",11:00AM - 3:00PM,11:00AM - 12:00PM,2:00PM - 3:00PM,,,,"B,L",3,N,US,84092,,2019,Lincoln
-109.4481937,48.95061939,67502,Hartland Elementary School,Open,"2105 Woodpile Road Wild Havre, MT 59501",,Havre,MT,59501,4063572236,224,Moses,Deanon,4063572236,Chinook Public Schools,2019-05-25T04:00:00.000Z,2019-08-25T04:00:00.000Z,"S,M,T,W,TH,F,SA",6:00AM - 12:30PM,6:00AM - 7:30AM,11:00AM - 12:30PM,,,,"B,L",5,N,US,82046,,2019,Blaine
-111.1466572,47.39624936,67503,Centerville School,Open,"693 Stockett Road Sand Coulee, MT 59472",,Sand Coulee,MT,59472,4067365167,,Jamie,Burton,4067365167,Centerville Public Schls,2019-06-03T04:00:00.000Z,2019-06-21T04:00:00.000Z,"M,T,W,TH,F",8:00AM - 1:00PM,8:00AM - 9:00AM,12:30PM - 1:00PM,,,,"B,L",5,N,US,12678,,2019,Cascade
-114.3349605,48.41065048,67504,Whitefish Middle 5-8,Open,"600 East 2nd St. Whitefish, MT 59937",,Whitefish,MT,59937,4068628620,249,Jay,Stagg,4068628620,Whitefish Public Schools,2019-06-19T04:00:00.000Z,2019-08-21T04:00:00.000Z,"M,T,W,TH,F",11:30AM - 12:30PM,,11:30AM - 12:30PM,,,,L,5,N,US,84330,,2019,Flathead
-114.3506547,48.41711393,67505,City Beach,Open,"Lakeside Blvd. Whitefish, MT 59937",,Whitefish,MT,59937,4068628620,249,Jay,Stagg,4068628620,Whitefish Public Schools,2019-06-19T04:00:00.000Z,2019-08-21T04:00:00.000Z,"M,T,W,TH,F",12:30PM - 1:30PM,,12:30PM - 1:30PM,,,,L,5,N,US,50805,,2019,Flathead
-114.3111204,48.40711548,67506,Skate Park,Open,"305 Armory Rd. whitefish, MT 59937",,whitefish,MT,59937,4068628620,249,Jay,Stagg,4068628620,Whitefish Public Schools,2019-06-19T04:00:00.000Z,2019-08-21T04:00:00.000Z,"M,T,W,TH,F",8:00AM - 11:30AM,8:00AM - 8:30AM,11:00AM - 11:30AM,,,,"B,L",5,N,US,55559,,2019,Flathead
-110.0091635,48.31691855,67507,Box Elder School,Open,"410 Main Street East Box Elder, MT 59521",,Box Elder,MT,59521,4063524195,5103,Jeremy,MacDonald,4063524195,Box Elder Public Schools,2019-06-06T04:00:00.000Z,2019-07-26T04:00:00.000Z,"M,T,W,TH,F",8:30AM - 12:45PM,8:30AM - 9:30AM,11:45AM - 12:45PM,,,,"B,L",5,N,US,136122,,2019,Hill
-109.6984175,48.54102812,67508,Highland Park School,Open,"1207 W Washington Ave. Havre, MT 59501",,Havre,MT,59501,4063958550,6711,Shanna,Flores,4063958550,Havre Public Schools,2019-06-10T04:00:00.000Z,2019-08-09T04:00:00.000Z,"M,T,W,TH,F",8:30AM - 1:00PM,8:30AM - 10:59AM,11:00AM - 1:00PM,,,,"B,L",5,N,US,103934,,2019,Hill
-109.6707186,48.54969146,67509,Lincoln-McKinley School,Open,"801 4th Street Havre, MT 59501",,Havre,MT,59501,4063958550,6711,Shanna,Flores,4063958550,Havre Public Schools,2019-06-10T04:00:00.000Z,2019-08-09T04:00:00.000Z,"M,T,W,TH,F",8:30AM - 1:00PM,8:30AM - 10:59AM,11:00AM - 1:00PM,,,,"B,L",5,N,US,53159,,2019,Hill
-114.1176547,47.60120616,67511,Pablo Elementary,Open,"603 4th Ave E. Pablo, MT 59855",,Pablo,MT,59855,4066763390,7226,Marsha,Wartick,4066763390,Ronan Public Schools,2019-06-10T04:00:00.000Z,2019-08-16T04:00:00.000Z,"M,T,W,TH,F",11:30AM - 12:30PM,,11:30AM - 12:30PM,,,,L,5,N,US,137397,,2019,Lake
-114.1006139,47.52968939,67512,Ronan Middle School,Open,"35885 Round Butte Road Ronan, MT 59864",,Ronan,MT,59864,4066763390,7226,Marsha,Wartick,4066763390,Ronan Public Schools,2019-06-10T04:00:00.000Z,2019-08-16T04:00:00.000Z,"M,T,W,TH,F",8:00AM - 1:00PM,8:00AM - 10:00AM,11:30AM - 1:00PM,,,,"B,L",5,N,US,46869,,2019,Lake
-115.557223,48.39081963,67515,Asa Wood Elementary Bldg,Open,"700 Idaho Avenue Libby, MT 59923",,Libby,MT,59923,4062938811,,Ellen,Mills,4062938811,Libby K-12 Schools,2019-06-10T04:00:00.000Z,2019-08-01T04:00:00.000Z,"M,T,W,TH",8:00AM - 12:30PM,8:00AM - 9:00AM,11:30AM - 12:30PM,,,,"B,L",5,N,US,41113,,2019,Lincoln
-115.052489,48.8870817,67516,Eureka Elementary School,Open,"340 9th St E Eureka, MT 59917",,Eureka,MT,59917,4062975650,,Jim,Mepham,4062975650,Eureka Public Schools,2019-06-10T04:00:00.000Z,2019-08-01T04:00:00.000Z,"M,T,W,TH",8:45AM - 12:30PM,8:45AM - 9:15AM,11:45AM - 12:30PM,,,,"B,L",5,N,US,90537,,2019,Lincoln
-112.1919503,45.45373817,67518,Sheridan Elementary Schl,Open,"211 Madison Sheridan, MT 59749",,Sheridan,MT,59749,4068425302,136,Rebecca,Larsen,4068425302,Sheridan Public Schools,2019-07-01T04:00:00.000Z,2019-07-26T04:00:00.000Z,"M,T,W,TH,F",9:00AM - 12:30PM,9:00AM - 10:00AM,11:00AM - 12:30PM,,,,"B,L",5,N,US,91770,,2019,Madison
-108.2514623,48.39797601,67519,Dodson School,Open,"124 2 nd Ave W Dodson, MT 59524",,Dodson,MT,59524,4063834361,120,Donna,Duncan,4063834361,Dodson K-12,2019-06-03T04:00:00.000Z,2019-06-28T04:00:00.000Z,"M,T,W,TH,F",8:00AM - 1:00PM,8:00AM - 10:00AM,11:00AM - 1:00PM,,,,"B,L",5,N,US,27076,,2019,Phillips
-105.3075326,46.79180847,67520,Terry School,Open,"215 E. Park Terry, MT 59349",,Terry,MT,59349,4066355533,,Ezaria,Rickett,4066355533,Terry K-12 Schools,2019-06-10T04:00:00.000Z,2019-08-02T04:00:00.000Z,"M,T,W,TH,F",8:00AM - 1:00PM,8:00AM - 9:00AM,12:00PM - 1:00PM,,,,"B,L",5,N,US,14148,,2019,Prairie
-107.7055489,45.47581678,67523,Pretty Eagle Cthlc Schl,Open,"212 Mission Loop St Xavier, MT 59075",,St Xavier,MT,59075,4067844530,,Brian,Jones,4067844530,St Labre Schools,2019-06-03T04:00:00.000Z,2019-06-27T04:00:00.000Z,"M,T,W,TH",7:00AM - 12:30PM,7:00AM - 8:30AM,11:30AM - 12:30PM,,,,"B,L",5,N,US,30258,,2019,Big Horn
-115.3440517,47.59765409,67524,Thompson Falls Elem Schl,Open,"315 Columbia Street Thompson Falls, MT 59873",,Thompson Falls,MT,59873,4068273592,5,Diane,Hedahl,4068273592,Thompson Falls Pub Schls,2019-06-17T04:00:00.000Z,2019-07-25T04:00:00.000Z,"M,T,W,TH",8:00AM - 1:00PM,8:00AM - 9:00AM,12:00PM - 1:00PM,,,,"B,L",5,N,US,88741,,2019,Sanders
-106.0422247,48.05803425,67525,Community Hall,Open,"400 Moccasin Ave Frazer, MT 59225",,Frazer,MT,59225,4066952241,293,DeJondra,Gardipee,4066952241,Frazer Public Schools,2019-05-28T04:00:00.000Z,2019-08-09T04:00:00.000Z,"M,T,W,TH,F",3:30PM - 5:00PM,,,,4:35PM - 5:00PM,3:30PM - 4:30PM,"S,A",5,N,US,136357,,2019,Valley
-109.8284743,46.43614524,67526,Harlowton High School,Open,"304 Division Street Harlowton, MT 59036",,Harlowton,MT,59036,4066324324,,Julie,Wojtowick,4066324324,Harlowton Public Schools,2019-06-03T04:00:00.000Z,2019-06-20T04:00:00.000Z,"M,T,W,TH",8:30AM - 1:00PM,8:30AM - 10:00AM,12:00PM - 1:00PM,,,,"B,L",5,N,US,28006,,2019,Wheatland
-110.0250895,46.44601345,67527,Duncan Ranch Colony,Open,"Duncan Ranch Colony Lane Two Dot, MT 59085",,Two Dot,MT,59085,4066324324,,Julie,Wojtowick,4066324324,Harlowton Public Schools,2019-06-03T04:00:00.000Z,2019-08-16T04:00:00.000Z,"S,M,T,W,TH,F,SA",6:30AM - 12:30PM,6:30AM - 7:30AM,11:30AM - 12:30PM,,,,"B,L",5,N,US,27129,,2019,Wheatland
-110.2665886,46.48989463,67528,Martinsdale Colony,Open,"N Martinsdale Colony Lane Martinsdale, MT 59053",,Martinsdale,MT,59053,4066324324,,Julie,Wojtowick,4066324324,Harlowton Public Schools,2019-06-03T04:00:00.000Z,2019-08-16T04:00:00.000Z,"S,M,T,W,TH,F,SA",6:15AM - 12:15PM,6:15AM - 7:15AM,11:15AM - 12:15PM,,,,"B,L",5,N,US,29208,,2019,Wheatland
-108.7164852,46.06964608,67529,Mountainview Attendance Center,Open,"14435 Oswald Rd Broadview, MT 59015",,Broadview,MT,59015,4066672337,,Terri,Reinhardt,4066672337,Broadview Public Schools,2019-05-28T04:00:00.000Z,2019-08-20T04:00:00.000Z,"S,M,T,W,TH,F,SA",6:30AM - 11:45AM,6:30AM - 6:45AM,11:30AM - 11:45AM,,,,"B,L",5,N,US,20263,,2019,Yellowstone
-108.14907,45.94795242,67530,Ballantine Church,Open,"2264 West 4th St Ballantine, MT 59006",,Ballantine,MT,59006,4069672540,602,Marlene,Krum,4069672540,Huntley Project K-12 Schls,2019-06-03T04:00:00.000Z,2019-08-02T04:00:00.000Z,"M,T,W,TH,F",12:30PM - 1:00PM,,12:30PM - 1:00PM,,,,L,5,N,US,34015,,2019,Yellowstone
-108.3091092,45.89545706,67531,Huntley Park,Open,"117 Northern Ave Huntley, MT 59037",,Huntley,MT,59037,4069672540,602,Marlene,Krum,4069672540,Huntley Project K-12 Schls,2019-06-03T04:00:00.000Z,2019-08-02T04:00:00.000Z,"M,T,W,TH,F",11:00AM - 11:30AM,,11:00AM - 11:30AM,,,,L,5,N,US,36434,,2019,Yellowstone
-108.2454611,45.92442961,67532,Homesteader Park,Open,"748 Railroad Hwy Huntley, MT 59037",,Huntley,MT,59037,4069672540,602,Marlene,Krum,4069672540,Huntley Project K-12 Schls,2019-06-03T04:00:00.000Z,2019-08-02T04:00:00.000Z,"M,T,W,TH,F",11:45AM - 12:15PM,,11:45AM - 12:15PM,,,,L,5,N,US,125382,,2019,Yellowstone
-111.7137005,47.85068347,67533,Dutton/Brady Elementary,Open,"101 2nd St NE Dutton, MT 59433",,Dutton,MT,59433,4064763201,201,Betty,Brumwell,4064763201,Dutton/Brady K-12 Schools,2019-06-10T04:00:00.000Z,2019-07-26T04:00:00.000Z,"M,T,W,TH",8:00AM - 3:00PM,8:00AM - 9:00AM,,,2:00PM - 3:00PM,,"B,A",5,N,US,12830,,2019,Teton
-112.4225865,48.23821285,67534,Pondera Colony School,Open,"300 Pondera Colony Rd Valier, MT 59486",,Valier,MT,59486,4064763201,201,Betty,Brumwell,4064763201,Dutton/Brady K-12 Schools,2019-05-30T04:00:00.000Z,2019-08-22T04:00:00.000Z,"S,M,T,W,TH,F,SA",6:30AM - 12:00PM,6:30AM - 7:30AM,10:00AM - 12:00PM,,,,"B,L",5,N,US,13823,,2019,Pondera
-112.1216456,46.23501118,67535,Boulder Elementary School,Open,"205 S Washington Boulder, MT 59632",,Boulder,MT,59632,4062253164,,Rochelle,Hesford,4062253164,Boulder Elementary,2019-06-17T04:00:00.000Z,2019-08-01T04:00:00.000Z,"M,T,W,TH",8:00AM - 1:00PM,8:00AM - 9:00AM,12:00PM - 1:00PM,,,,"B,L",5,N,US,25954,,2019,Jefferson
-112.1202289,46.23390483,67536,Boulder Public Pool,Open,"312 South Main St Boulder, MT 59632",,Boulder,MT,59632,4062253316,,Britton,Mann,4062253316,Boulder Elementary,2019-06-17T04:00:00.000Z,2019-08-21T04:00:00.000Z,"S,T,W,TH,F,SA",3:00PM - 3:30PM,,,,3:00PM - 3:30PM,,A,5,N,US,106203,,2019,Jefferson
-111.3222915,47.50680752,67537,Boys & Girls Club West Side,Open,"600 1st Ave SW Great Falls, MT 59404",,Great Falls,MT,59404,4067611330,,Jason,Carman,4067611330,Boys & Girls Clubs N Cen MT,2019-06-10T04:00:00.000Z,2019-08-16T04:00:00.000Z,"M,T,W,TH,F",8:00AM - 1:00PM,8:00AM - 9:00AM,12:00PM - 1:00PM,,,,"B,L",5,N,US,41569,,2019,Cascade
-111.2810132,47.49856649,67538,Parkdale Dronan Hall,Open,"1500 Chowen Springs Loop Great Falls, MT 59403",,Great Falls,MT,59403,4067611330,,Sonya,Smith,4067611330,Boys & Girls Clubs N Cen MT,2019-06-10T04:00:00.000Z,2019-08-16T04:00:00.000Z,"M,T,W,TH,F",8:00AM - 1:00PM,8:00AM - 9:00AM,12:00PM - 1:00PM,,,,"B,L",5,N,US,46241,,2019,Cascade
-112.0952803,47.19798711,67539,Auchard Creek School,Open,"9605 HWY 287 Wolf Creek, MT 59648",,Wolf Creek,MT,59648,4065623429,211,albert,wipf,4065623429,Auchard Creek Elementary,2019-06-01T04:00:00.000Z,2019-08-27T04:00:00.000Z,"S,M,T,W,TH,F,SA",6:40AM - 12:15PM,6:40AM - 7:00AM,11:45AM - 12:15PM,,,,"B,L",5,N,US,33969,,2019,Lewis and Clark
-114.0807685,48.06558879,67540,Bigfork ACES,Open,"801 Grand Drive Bigfork, MT 59911",,Bigfork,MT,59911,4068373414,,Cathy,Hay,4068373414,"Bigfork ACES, Inc.",2019-06-10T04:00:00.000Z,2019-08-16T04:00:00.000Z,"M,T,W,TH,F",8:00AM - 12:30PM,8:00AM - 8:45AM,11:30AM - 12:30PM,,,,"B,L",5,N,US,50071,,2019,Flathead
-113.8843285,46.88141576,67541,Hellgate Lions Park,Open,"1317 Haaglund Dr Missoula, MT 59802",,Missoula,MT,59802,4062104017,,Angela,Johnson,4062104017,"River of Life Ministries, Inc.",2019-06-17T04:00:00.000Z,2019-08-23T04:00:00.000Z,"M,T,W,TH,F",12:15PM - 1:15PM,,12:15PM - 1:15PM,,,,L,5,N,US,86443,,2019,Missoula
-113.9384536,46.87666856,67542,East Missoula Lions Club Park,Open,"798 Michigan Ave Missoula, MT 59802",,Missoula,MT,59802,4062104017,,Angela,Johnson,4062104017,"River of Life Ministries, Inc.",2019-06-17T04:00:00.000Z,2019-08-23T04:00:00.000Z,"M,T,W,TH,F",11:00AM - 12:00PM,,11:00AM - 12:00PM,,,,L,5,N,US,106835,,2019,Missoula
-109.4417327,47.06107647,73008,Boys & Girls Club of Lewistown,Open,"134 Park St Lewistown, MT 59457",,Lewistown,MT,59457,4065352257,,Elisabeth,Martell,4065352257,Boys & Girls Club of Lewistown,2019-06-06T04:00:00.000Z,2019-08-16T04:00:00.000Z,"M,T,W,TH,F",8:15AM - 1:00PM,8:15AM - 9:15AM,11:45AM - 1:00PM,,,,"B,L",6,N,US,26005,,2019,Fergus
-114.09715,46.50869712,73009,St Mary's Mission Parish,Open,"333 Charlos Street Stevensville, MT 59870",,Stevensville,MT,59870,4063704333,,Sara,Grove,4063704333,St. Mary's Mission Parish,2019-06-10T04:00:00.000Z,2019-08-16T04:00:00.000Z,"M,T,W,TH,F",10:15AM - 12:30PM,10:15AM - 11:14AM,11:15AM - 12:30PM,,,,"B,L",6,N,US,31098,,2019,Ravalli
-108.5253231,45.76005,73010,Orchard Boys & Girls Club,Open,"505 Orchard Lane Billings, MT 59101",,Billings,MT,59101,4062944514,,Nicole,Cuntapay,4062944514,Boys & Girls Club Yellowst Co,2019-06-10T04:00:00.000Z,2019-08-16T04:00:00.000Z,"M,T,W,TH,F",8:00AM - 4:30PM,8:00AM - 9:00AM,,,,3:00PM - 4:30PM,"B,S",6,N,US,46133,,2019,Yellowstone
-108.4364631,45.79832151,73011,Lockwood Boys & Girls Club,Open,"1932 Highway 87 East Billings, MT 59101",,Billings,MT,59101,4062944523,,Glenda,Brauneis,4062944523,Boys & Girls Club Yellowst Co,2019-06-10T04:00:00.000Z,2019-08-16T04:00:00.000Z,"M,T,W,TH,F",3:00PM - 4:00PM,,,,,3:00PM - 4:00PM,S,6,N,US,44957,,2019,Yellowstone
-108.4649903,45.83459048,73012,Medicine Crow Middle School,Open,"900 Barrett Road Billings, MT 59105",,Billings,MT,59105,4062944517,,Annie,Hasiak,4062944517,Boys & Girls Club Yellowst Co,2019-06-10T04:00:00.000Z,2019-08-09T04:00:00.000Z,"M,T,W,TH,F",8:00AM - 4:00PM,8:00AM - 9:00AM,,,,3:00PM - 4:00PM,"B,S",6,N,US,91182,,2019,Yellowstone
-108.5158148,45.78674155,73013,McKinley School,Open,"820 North 31st Street Billings, MT 59101",,Billings,MT,59101,4062944535,,Kaara,Sarabia,4062944535,Boys & Girls Club Yellowst Co,2019-06-10T04:00:00.000Z,2019-08-09T04:00:00.000Z,"M,T,W,TH,F",8:00AM - 4:00PM,8:00AM - 9:00AM,,,,3:00PM - 4:00PM,"B,S",6,N,US,91171,,2019,Yellowstone
-113.9908556,46.87011561,73014,Missoula Public Library,Open,"301 E Main Missoula, MT 59802",,Missoula,MT,59802,4065490543,213,Jamie,Breidenbach,4065490543,"Missoula Food Bank, Inc.",2019-06-17T04:00:00.000Z,2019-08-23T04:00:00.000Z,"M,T,W,TH,F",11:30AM - 4:00PM,,11:30AM - 1:00PM,,3:30PM - 4:00PM,,"L,A",6,N,US,45467,,2019,Missoula
-114.0153298,46.88550867,73015,Burns Street,Open,"1500 Burns Street Missoula, MT 59802",,Missoula,MT,59802,4065490543,213,Jamie,Breidenbach,4065490543,"Missoula Food Bank, Inc.",2019-06-13T04:00:00.000Z,2019-08-22T04:00:00.000Z,"M,T,W,TH",3:00PM - 6:00PM,,,,3:00PM - 4:30PM,5:00PM - 6:00PM,"S,A",6,N,US,90099,,2019,Missoula
-114.0264199,46.86705256,73016,Council Groves Apartments,Open,"1904 South 3rd Street West MIssoula, MT 59801",,MIssoula,MT,59801,4065490543,213,Jamie,Breidenbach,4065490543,"Missoula Food Bank, Inc.",2019-06-17T04:00:00.000Z,2019-08-22T04:00:00.000Z,"M,T,W,TH",12:00PM - 1:30PM,,12:00PM - 1:30PM,,,,L,6,N,US,42414,,2019,Missoula
-114.0228184,46.87203857,73017,Missoula Food Bank,Open,"1720 Wyoming St Missoula, MT 59801",,Missoula,MT,59801,4065490543,213,Jamie,Breidenbach,4065490543,"Missoula Food Bank, Inc.",2019-06-11T04:00:00.000Z,2019-08-23T04:00:00.000Z,"M,T,W,TH,F",9:30AM - 1:30PM,9:30AM - 10:59AM,11:00AM - 1:30PM,,,,"B,L",6,N,US,91230,,2019,Missoula
-114.24473,47.01961548,73018,Frenchtown High School Library,Open,"17620 Frenchtown Frontage Rd Frenchtown, MT 59834",,Frenchtown,MT,59834,4065490543,213,Jamie,Breidenbach,4065490543,"Missoula Food Bank, Inc.",2019-06-11T04:00:00.000Z,2019-08-22T04:00:00.000Z,"T,W,TH",12:00PM - 5:00PM,,12:00PM - 1:00PM,,1:01PM - 5:00PM,,"L,A",6,N,US,90634,,2019,Missoula
-112.625593,45.2138852,73106,Parkview School,Open,"32 N. Cottom Drive Dillon, MT 59725",,Dillon,MT,59725,4066834311,1,Pam,Scott,4066834311,Dillon Elementary,2019-06-03T04:00:00.000Z,2019-08-16T04:00:00.000Z,"M,T,W,TH,F",8:30AM - 1:00PM,8:30AM - 9:30AM,12:00PM - 1:00PM,,,,"B,L",6,N,US,83157,,2019,Beaverhead
-112.6410488,45.22083593,73107,Dillon YMCA,Open,"75 Swenson Way Dillon, MT 59725",,Dillon,MT,59725,4066832373,1,Pam,Scott,4066832373,Dillon Elementary,2019-06-03T04:00:00.000Z,2019-08-16T04:00:00.000Z,"M,T,W,TH,F",8:30AM - 1:00PM,8:30AM - 9:30AM,12:00PM - 1:00PM,,,,"B,L",6,N,US,762,,2019,Beaverhead
-107.4581227,45.60377223,73108,Crow Agency School,Open,"101 Makata Street Crow Agency, MT 59022",,Crow Agency,MT,59022,4066655412,,Patrice,O'Loughlin,4066655412,Hardin Public Schools,2019-06-03T04:00:00.000Z,2019-07-26T04:00:00.000Z,"M,T,W,TH,F",8:00AM - 12:30PM,8:00AM - 9:30AM,11:00AM - 12:30PM,,,,"B,L",6,N,US,103336,,2019,Big Horn
-107.6170324,45.73542107,73109,Hardin Middle School,Open,"721 North Miles Avenue Hardin, MT 59034",,Hardin,MT,59034,4066655412,,Patrice,O'Loughlin,4066655412,Hardin Public Schools,2019-06-03T04:00:00.000Z,2019-07-26T04:00:00.000Z,"M,T,W,TH,F",8:00AM - 12:30PM,8:00AM - 9:30AM,11:00AM - 12:30PM,,,,"B,L",6,N,US,103857,,2019,Big Horn
-107.6134868,45.73125815,73110,Custer Park,Open,"500 3rd Street West Hardin, MT 59034",,Hardin,MT,59034,4066655412,,Patrice,O'Loughlin,4066655412,Hardin Public Schools,2019-06-03T04:00:00.000Z,2019-07-26T04:00:00.000Z,"M,T,W,TH,F",12:45PM - 1:30PM,,1:00PM - 1:30PM,12:45PM - 12:59PM,,,"L,M",6,N,US,90380,,2019,Big Horn
-107.6170769,45.72827825,73111,South Park - Hardin,Open,"700 West Division Street Hardin, MT 59034",,Hardin,MT,59034,4066655412,,Patrice,O'Loughlin,4066655412,Hardin Public Schools,2019-06-03T04:00:00.000Z,2019-07-26T04:00:00.000Z,"M,T,W,TH,F",11:45AM - 12:30PM,,12:00PM - 12:30PM,11:45AM - 11:59AM,,,"L,M",6,N,US,91818,,2019,Big Horn
-107.6265225,45.72946552,73112,Heimat Park,Open,"1130 1st Street W Hardin, MT 59034",,Hardin,MT,59034,4066655412,,Patrice,O'Loughlin,4066655412,Hardin Public Schools,2019-06-03T04:00:00.000Z,2019-07-26T04:00:00.000Z,"M,T,W,TH,F",10:45AM - 11:30AM,,11:00AM - 11:30AM,10:45AM - 10:59AM,,,"L,M",6,N,US,103901,,2019,Big Horn
-107.3684833,45.3149618,73113,Lodge Grass School,Open,"124 N George St Lodge Grass, MT 59050",,Lodge Grass,MT,59050,4066392738,,Benedicta,Little Wolf,4066392738,Lodge Grass Public Schls,2019-06-10T04:00:00.000Z,2019-08-08T04:00:00.000Z,"M,T,W,TH",8:00AM - 1:00PM,8:00AM - 10:00AM,11:00AM - 1:00PM,,,,"B,L",6,N,US,29000,,2019,Big Horn
-106.9558997,45.53658539,73115,Northern Cheyenne Trib El,Open,"1 Campus Dr Busby, MT 59016",,Busby,MT,59016,4065923646,148,JOCELYN,BEARROBE,4065923646,North Cheyenne Trib Schools,2019-06-03T04:00:00.000Z,2019-08-16T04:00:00.000Z,"M,T,W,TH,F",8:00AM - 1:30PM,8:00AM - 9:30AM,12:00PM - 1:30PM,,,,"B,L",6,N,US,45964,,2019,Big Horn
-108.7625982,48.48143872,73116,Fort Belknap Community Council,Open,"656 Agency Main Street (Fort Belknap Agency) Harlem, MT 59526",Fort Belknap Agency,Harlem,MT,59526,4063532205,8499,Peggy,Healy,4063532205,Fort Belknap Comm Council,2019-06-03T04:00:00.000Z,2019-08-09T04:00:00.000Z,"M,T,W,TH,F",11:30AM - 1:15PM,,11:30AM - 1:15PM,,,,L,6,N,US,18907,,2019,Blaine
-108.526881,48.04625692,73117,Lodge Pole School,Open,"163 Dora Helgeson Road Lodge Pole, MT 59524",,Lodge Pole,MT,59524,4063532205,8417,George,Brockie,4063532205,Fort Belknap Comm Council,2019-06-03T04:00:00.000Z,2019-08-09T04:00:00.000Z,"M,T,W,TH,F",11:30AM - 1:30PM,,11:30AM - 1:30PM,,,,L,6,N,US,19882,,2019,Blaine
-108.6902452,47.99619601,73118,Hays-Lodge Pole 7-8,Open,"110 Thunderbird Lane Hays, MT 59527",,Hays,MT,59527,4063532205,8417,George,Brockie,4063532205,Fort Belknap Comm Council,2019-06-03T04:00:00.000Z,2019-08-09T04:00:00.000Z,"M,T,W,TH,F",11:30AM - 1:15PM,,11:30AM - 1:15PM,,,,L,6,N,US,90780,,2019,Blaine
-111.7043574,47.27157457,73119,Cascade School,Open,"321 Central Avenue West Cascade, MT 59421",,Cascade,MT,59421,4064682672,120,Angela,Johnson,4064682672,Cascade Public Schools,2019-06-03T04:00:00.000Z,2019-08-01T04:00:00.000Z,"M,T,W,TH",7:30AM - 12:30PM,7:30AM - 9:00AM,11:30AM - 12:30PM,,,,"B,L",6,N,US,85290,,2019,Cascade
-112.9721531,46.13268154,73120,Lincoln Primary,Open,"1410 West Park Ave Anaconda, MT 59711",,Anaconda,MT,59711,4065636361,1702,Kevin,Patrick,4065636361,Anaconda Public Schools,2019-06-10T04:00:00.000Z,2019-07-26T04:00:00.000Z,"M,T,W,TH,F",7:30AM - 12:30PM,7:30AM - 8:00AM,11:30AM - 12:30PM,,,,"B,L",6,N,US,140088,,2019,Deer Lodge
-114.3297473,48.1940327,73121,Lillian Peterson School,Open,"1119 2nd St W ((on Meridian Drop-off)) Kalispell, MT 59901",(on Meridian Drop-off),Kalispell,MT,59901,4067513646,,Jana,Graham,4067513646,Kalispell Public Schools,2019-06-12T04:00:00.000Z,2019-08-16T04:00:00.000Z,"M,T,W,TH,F",12:00PM - 12:20PM,,12:00PM - 12:20PM,,,,L,6,N,US,140079,,2019,Flathead
-114.3010375,48.20039003,73122,Woodland Park,Open,"1 Woodland Park Loop Kalispell, MT 59901",,Kalispell,MT,59901,4067513646,,Jana,Graham,4067513646,Kalispell Public Schools,2019-06-12T04:00:00.000Z,2019-08-16T04:00:00.000Z,"M,T,W,TH,F",7:30AM - 1:00PM,7:30AM - 9:00AM,12:00PM - 1:00PM,,,,"B,L",6,N,US,22257,,2019,Flathead
-114.4230569,48.17384392,73123,Smith Valley Primary Schl,Open,"2901 Hwy 2 W Kalispell, MT 59901",,Kalispell,MT,59901,4067513646,,Jana,Graham,4067513646,Kalispell Public Schools,2019-06-10T04:00:00.000Z,2019-08-16T04:00:00.000Z,"T,W,TH",8:00AM - 1:00PM,8:00AM - 9:00AM,11:30AM - 1:00PM,,,,"B,L",6,N,US,116396,,2019,Flathead
-114.333652,48.20009585,73124,Gateway West Mall,Open,"1203 US 2 Kalispell, MT 59901",,Kalispell,MT,59901,4067513646,,Jana,Graham,4067513646,Kalispell Public Schools,2019-06-10T04:00:00.000Z,2019-08-16T04:00:00.000Z,"M,T,W,TH,F",8:00AM - 1:00PM,8:00AM - 9:00AM,11:30AM - 1:00PM,,,,"B,L",6,N,US,90664,,2019,Flathead
-114.3182468,48.21108601,73125,Lawrence Park,Open,"1105 N Main St Kalispell, MT 59901",,Kalispell,MT,59901,4067513646,,Jana,Graham,4067513646,Kalispell Public Schools,2019-06-12T04:00:00.000Z,2019-08-16T04:00:00.000Z,"M,T,W,TH,F",11:10AM - 11:30AM,,11:10AM - 11:30AM,,,,L,6,N,US,115393,,2019,Flathead
-114.3115211,48.19036931,73126,Courthouse Loop West Park,Open,"Courthouse Park Loop W Kalispell, MT 59901",,Kalispell,MT,59901,4067513646,,Jana,Graham,4067513646,Kalispell Public Schools,2019-06-10T04:00:00.000Z,2019-08-16T04:00:00.000Z,"M,T,W,TH,F",11:35AM - 11:55AM,,11:35AM - 11:55AM,,,,L,6,N,US,114548,,2019,Flathead
-114.3350088,48.20860171,73127,Hawthorne Park,Open,"184 Hawthorne Ave (Hawthorne Park) Kalispell, MT 59901",Hawthorne Park,Kalispell,MT,59901,4067513646,,Jana,Graham,4067513646,Kalispell Public Schools,2019-06-12T04:00:00.000Z,2019-08-16T04:00:00.000Z,"M,T,W,TH,F",12:50PM - 1:10PM,,12:50PM - 1:10PM,,,,L,6,N,US,115072,,2019,Flathead
-114.2200469,48.09101888,73129,Klondyke Loop Park,Open,"1224 Klondyke Loop Somers, MT 59932",,Somers,MT,59932,4068573301,,Robin,Vogler,4068573301,Somers Elementary,2019-06-17T04:00:00.000Z,2019-08-16T04:00:00.000Z,"M,T,W,TH,F",11:00AM - 1:00PM,,11:00AM - 1:00PM,,,,L,6,N,US,139986,,2019,Flathead
-113.0134237,48.54762621,73131,Browning Middle School,Open,"900 South Piegon Browning, MT 59417",,Browning,MT,59417,4063387952,,Lynne,Keenan,4063387952,Browning Public Schools,2019-06-03T04:00:00.000Z,2019-08-16T04:00:00.000Z,"M,T,W,TH,F",8:00AM - 4:00PM,8:00AM - 11:00AM,11:01AM - 4:00PM,,,,"B,L",6,N,US,50337,,2019,Glacier
-113.0127922,48.55492251,73132,Napi School,Open,"112 1st Ave. SE Browning, MT 59417",,Browning,MT,59417,4063387952,,Lynne,Keenan,4063387952,Browning Public Schools,2019-06-03T04:00:00.000Z,2019-08-16T04:00:00.000Z,"M,T,W,TH,F",4:30PM - 7:30PM,,,,,4:30PM - 7:30PM,S,6,N,US,59288,,2019,Glacier
-113.155238,48.59055052,73133,Starr School,Open,"Starr School Browning, MT 59417",,Browning,MT,59417,4063387952,,Lynne,Keenan,4063387952,Browning Public Schools,2019-06-04T04:00:00.000Z,2019-08-16T04:00:00.000Z,"M,T,W,TH,F",2:30PM - 3:00PM,,2:30PM - 3:00PM,,,,L,6,N,US,91885,,2019,Glacier
-113.0226756,48.54974621,73134,Old Low Rent,Open,"136 JFK St. Browning, MT 59417",,Browning,MT,59417,4063387952,,Lynne,Keenan,4063387952,Browning Public Schools,2019-06-04T04:00:00.000Z,2019-08-16T04:00:00.000Z,"M,T,W,TH,F",12:00PM - 2:30PM,,12:00PM - 2:30PM,,,,L,6,N,US,54172,,2019,Glacier
-113.0201707,48.52912557,73135,Sinclair Drive,Open,"Sinclair Drive Browning, MT 59417",,Browning,MT,59417,4063387952,,Lynne,Keenan,4063387952,Browning Public Schools,2019-06-04T04:00:00.000Z,2019-08-16T04:00:00.000Z,"M,T,W,TH,F",1:35PM - 2:00PM,,1:35PM - 2:00PM,,,,L,6,N,US,91793,,2019,Glacier
-113.0225424,48.57329568,73136,Browning Skate Park,Open,"College Homes Browning, MT 59417",,Browning,MT,59417,4063387952,,Lynne,Keenan,4063387952,Browning Public Schools,2019-06-04T04:00:00.000Z,2019-08-16T04:00:00.000Z,"M,T,W,TH,F",12:15PM - 3:00PM,,12:15PM - 3:00PM,,,,L,6,N,US,90087,,2019,Glacier
-113.0141911,48.55485155,73138,Browning Elementary,Open,"112 First Ave South West (PO Box 709) Browning, MT 59417",PO Box 709,Browning,MT,59417,4063387952,,Lynne,Keenan,4063387952,Browning Public Schools,2019-06-04T04:00:00.000Z,2019-08-16T04:00:00.000Z,"M,T,W,TH,F",8:00AM - 3:30PM,8:00AM - 11:00AM,11:15AM - 3:30PM,,,,"B,L",6,N,US,90086,,2019,Glacier
-113.0143125,48.56229563,73139,Children's Day,Open,"640 All Chiefs Road Browning, MT 59417",,Browning,MT,59417,4063387052,,Lynne,Keenan,4063387052,Browning Public Schools,2019-07-10T04:00:00.000Z,2019-07-10T04:00:00.000Z,TH,11:00AM - 3:00PM,,11:00AM - 3:00PM,,,,L,6,N,US,125219,,2019,Glacier
-113.0221618,48.55590552,73140,Native American Indian Days,Open,"416 W. Central Ave Browning, MT 59417",,Browning,MT,59417,4063387952,,Lynne,Keenan,4063387952,Browning Public Schools,2019-07-11T04:00:00.000Z,2019-07-12T04:00:00.000Z,"TH,F",11:00AM - 2:00PM,,11:00AM - 2:00PM,,,,L,6,N,US,125524,,2019,Glacier
-113.2958437,46.32944389,73142,Philipsburg School,Open,"407 Schnepel Philipsburg, MT 59858",,Philipsburg,MT,59858,4068593232,222,Mike,Cutler,4068593232,Philipsburg K-12 Schools,2019-06-17T04:00:00.000Z,2019-08-16T04:00:00.000Z,"M,T,W,TH,F",8:30AM - 1:30PM,8:30AM - 9:30AM,12:30PM - 1:30PM,,,,"B,L",6,N,US,2069,,2019,Granite
-109.7834642,48.25701445,73143,Rocky Boy School,Open,"81 Mission Taylor Road Box Elder, MT 59521",,Box Elder,MT,59521,4063954291,269,Reese,Gray,4063954291,Rocky Boy Public Schools,2019-06-03T04:00:00.000Z,2019-08-02T04:00:00.000Z,"M,T,W,TH,F",8:00AM - 1:00PM,8:00AM - 9:00AM,11:30AM - 1:00PM,,,,"B,L",6,N,US,46843,,2019,Hill
-109.5473427,48.74887546,73144,East End Colony,Open,"55601 Road 126 North Havre, MT 59501",,Havre,MT,59501,4063985356,,Jerry,Waldner,4063985356,Rocky Boy Public Schools,2019-06-03T04:00:00.000Z,2019-08-20T04:00:00.000Z,"S,M,T,W,TH,F,SA",8:00AM - 1:00PM,8:00AM - 9:30AM,12:00PM - 1:00PM,,,,"B,L",6,N,US,90471,,2019,Hill
-109.7826606,48.7992865,73145,Hilldale Colony,Open,"44829 Cottonwood Road Havre, MT 59501",,Havre,MT,59501,4063985394,,Jonathan,Waldner,4063985394,Rocky Boy Public Schools,2019-06-03T04:00:00.000Z,2019-08-20T04:00:00.000Z,"S,M,T,W,TH,F,SA",8:00AM - 1:00PM,8:00AM - 9:30AM,12:00PM - 1:00PM,,,,"B,L",6,N,US,90814,,2019,Hill
-114.0924014,47.31877049,73146,St Ignatius Middle School,Open,"300 Blaine St. St. Ignatius, MT 59865",,St. Ignatius,MT,59865,4067454420,,Adam,Hawkaluk,4067454420,St Ignatius K-12 Schools,2019-06-03T04:00:00.000Z,2019-06-28T04:00:00.000Z,"M,T,W,TH,F",7:30AM - 12:30PM,7:30AM - 9:00AM,11:00AM - 12:30PM,,,,"B,L",6,N,US,91851,,2019,Lake
-110.5551571,45.65754037,73147,Park High School,Open,"102 View Vista Dr. Livingston, MT 59047",,Livingston,MT,59047,4062220209,,Michele,Carter,4062220209,Livingston Public Schools,2019-06-17T04:00:00.000Z,2019-08-09T04:00:00.000Z,"M,T,W,TH,F",8:45AM - 12:30PM,8:45AM - 9:30AM,11:30AM - 12:30PM,,,,"B,L",6,N,US,87740,,2019,Park
-110.6996825,45.39960291,73148,Sacajawea Park,Open,"6116 River Drive Livingston, MT 59047",,Livingston,MT,59047,4062220209,,Michele,carter,4062220209,Livingston Public Schools,2019-06-10T04:00:00.000Z,2019-08-23T04:00:00.000Z,"M,T,W,TH,F",11:30AM - 12:30PM,,11:30AM - 12:30PM,,,,L,6,N,US,55293,,2019,Park
-110.5598114,45.66115378,73149,Cool Cafe,Open,"118 South Main Street Livingston, MT 59047",,Livingston,MT,59047,4062220209,,Michele,carter,4062220209,Livingston Public Schools,2019-06-10T04:00:00.000Z,2019-08-23T04:00:00.000Z,"M,T,W,TH,F",10:00AM - 4:30PM,10:00AM - 11:30AM,,,,3:00PM - 4:30PM,"B,S",6,N,US,85568,,2019,Park
-110.5521323,45.67230884,73150,Katie Bonnell Park,Open,"M Street & Bennett Livingston, MT 59047",,Livingston,MT,59047,4062220209,,Michele,Carter,4062220209,Livingston Public Schools,2019-06-10T04:00:00.000Z,2019-08-23T04:00:00.000Z,"M,T,W,TH,F",11:15AM - 11:35AM,,11:15AM - 11:35AM,,,,L,6,N,US,86716,,2019,Park
-110.5495945,45.66190985,73151,G Street Mike Webb Park,Open,"429 S G Street Livingston, MT 59047",,Livingston,MT,59047,4062220209,,Michele,Carter,4062220209,Livingston Public Schools,2019-06-10T04:00:00.000Z,2019-08-23T04:00:00.000Z,"M,T,W,TH,F",12:10PM - 12:40PM,,12:10PM - 12:40PM,,,,L,6,N,US,139571,,2019,Park
-110.5744273,45.64062678,73152,Green Acres Park,Open,"2420 S Park Dr Livingston, MT 59047",,Livingston,MT,59047,4062220209,,Michele,Carter,4062220209,Livingston Public Schools,2019-06-10T04:00:00.000Z,2019-08-23T04:00:00.000Z,"M,T,W,TH,F",11:40AM - 12:00PM,,11:40AM - 12:00PM,,,,L,6,N,US,111097,,2019,Park
-111.946975,48.17052405,73153,Meadowlark School,Open,"17 3rd. Ave. SW Conrad, MT 59425",,Conrad,MT,59425,4062785521,3107,Laurie,Hopper,4062785521,Conrad Public Schools,2019-06-17T04:00:00.000Z,2019-07-25T04:00:00.000Z,"M,T,W,TH",7:45AM - 1:00PM,7:45AM - 10:29AM,10:30AM - 1:00PM,,,,"B,L",6,N,US,91180,,2019,Pondera
-113.983434,46.56637548,73154,Lone Rock School,Open,"1112 Three Mile Creek Road Stevensville, MT 59870",,Stevensville,MT,59870,4067773314,213,Cindy,Jarvie,4067773314,Lone Rock Elementary,2019-06-17T04:00:00.000Z,2019-08-15T04:00:00.000Z,"M,T,W,TH",8:00AM - 1:00PM,8:00AM - 9:00AM,12:00PM - 1:00PM,,,,"B,L",6,N,US,115464,,2019,Ravalli
-105.2018121,48.110868,73155,Poplar School,Open,"400 4th ave West Poplar, MT 59255",,Poplar,MT,59255,4067686654,,Mary,Plante,4067686654,Poplar Public Schools,2019-06-03T04:00:00.000Z,2019-07-19T04:00:00.000Z,"M,T,W,TH,F",8:00AM - 12:45PM,8:00AM - 9:00AM,11:00AM - 12:45PM,,,,"B,L",6,N,US,38202,,2019,Roosevelt
-106.6693527,45.61999454,73156,Lame Deer School,Open,"101 West Boundary St. Lame Deer, MT 59043",,Lame Deer,MT,59043,4064776305,1118,Ethelene,Stump,4064776305,Lame Deer Public Schools,2019-06-03T04:00:00.000Z,2019-07-31T04:00:00.000Z,"M,T,W,TH,F",8:00AM - 1:00PM,8:00AM - 9:00AM,12:00PM - 1:00PM,,,,"B,L",6,N,US,140015,,2019,Rosebud
-114.9059419,47.39811434,73157,Plains Bible Chapel,Open,"243 Combest Cr. Rd. Plains, MT 59859",,Plains,MT,59859,4063963911,,Larri-Jo,Ovitt,4063963911,Plains Public Schools,2019-07-29T04:00:00.000Z,2019-08-02T04:00:00.000Z,"M,T,W,TH,F",9:00AM - 1:00PM,,11:05AM - 1:00PM,9:00AM - 11:00AM,,,"L,M",6,N,US,140584,,2019,Sanders
-104.5640383,48.77878304,73158,Sherwood Park,Open,"500 West Laurel Ave. Plentywood, MT 59254",,Plentywood,MT,59254,4067651803,,Matt,Torix,4067651803,Plentywood K-12 Schools,2019-06-03T04:00:00.000Z,2019-08-01T04:00:00.000Z,"M,T,W,TH",12:00PM - 1:00PM,,12:00PM - 1:00PM,,,,L,6,N,US,140978,,2019,Sheridan
-111.6148355,48.30710804,73159,Cam Rose School,Open,"26 Camrose Lane Ledger, MT 59456",,Ledger,MT,59456,4064248910,1,Elliott,Crump,4064248910,Shelby Public Schools,2019-06-07T04:00:00.000Z,2019-08-27T04:00:00.000Z,"S,M,T,W,TH,F,SA",6:45AM - 11:45AM,6:45AM - 7:30AM,10:45AM - 11:45AM,,,,"B,L",6,N,US,50419,,2019,Toole
-111.8618135,48.51428248,73160,Shelby High School,Open,"901 Valley Street Shelby, MT 59474",,Shelby,MT,59474,4064248910,1,Elliott,Crump,4064248910,Shelby Public Schools,2019-06-10T04:00:00.000Z,2019-07-25T04:00:00.000Z,"M,T,W,TH",9:00AM - 1:00PM,9:00AM - 10:30AM,11:00AM - 1:00PM,,,,"B,L",6,N,US,140970,,2019,Toole
-108.5989101,45.75848919,73161,Big Sky Elementary,Open,"3231 Granger Avenue East Billings, MT 59102",,Billings,MT,59102,4062815878,,Brenda,Schueler,4062815878,Billings Public Schools,2019-06-05T04:00:00.000Z,2019-08-09T04:00:00.000Z,"M,T,W,TH,F",12:00PM - 1:00PM,,12:00PM - 1:00PM,,,,L,6,N,US,90006,,2019,Yellowstone
-108.5253231,45.76005,73162,Boys & Girls Club,Open,"505 Orchard Billings, MT 59101",,Billings,MT,59101,4062815880,,Brenda,Schueler,4062815880,Billings Public Schools,2019-06-10T04:00:00.000Z,2019-08-16T04:00:00.000Z,"M,T,W,TH,F",11:30AM - 1:00PM,,11:30AM - 1:00PM,,,,L,6,N,US,50158,,2019,Yellowstone
-108.5304645,45.769833,73163,Central Park,Open,"Central & 6th Ave. North Billings, MT 59102",,Billings,MT,59102,4062815880,,Brenda,Schueler,4062815880,Billings Public Schools,2019-06-05T04:00:00.000Z,2019-08-09T04:00:00.000Z,"M,T,W,TH,F",12:00PM - 1:00PM,,12:00PM - 1:00PM,,,,L,6,N,US,50657,,2019,Yellowstone
-108.5158148,45.78674155,73164,McKinley School,Open,"820 North 31st Street Billings, MT 59101",,Billings,MT,59101,4062815880,,Brenda,Schueler,4062815880,Billings Public Schools,2019-06-10T04:00:00.000Z,2019-08-09T04:00:00.000Z,"M,T,W,TH,F",12:00PM - 1:00PM,,12:00PM - 1:00PM,,,,L,6,N,US,91171,,2019,Yellowstone
-108.4985229,45.78811801,73167,Pioneer Park,Open,"3rd Ave. Billings, MT 59101",,Billings,MT,59101,4062815880,,Brenda,Schueler,4062815880,Billings Public Schools,2019-06-05T04:00:00.000Z,2019-08-09T04:00:00.000Z,"M,T,W,TH,F",12:00PM - 1:00PM,,12:00PM - 1:00PM,,,,L,6,N,US,54478,,2019,Yellowstone
-108.49581,45.827442,73168,Castle Rock Park,Open,"Wicks Lane & Nutter Blvd Billings, MT 59105",,Billings,MT,59105,4062815880,,Brenda,Schueler,4062815880,Billings Public Schools,2019-06-05T04:00:00.000Z,2019-08-09T04:00:00.000Z,"M,T,W,TH,F",12:00PM - 1:00PM,,12:00PM - 1:00PM,,,,L,6,N,US,50609,,2019,Yellowstone
-108.4649903,45.83459048,73169,Medicine Crow Middle School,Open,"900 Barrett Road Billings, MT 59105",,Billings,MT,59105,4062815880,,Brenda,Schueler,4062815880,Billings Public Schools,2019-06-10T04:00:00.000Z,2019-08-09T04:00:00.000Z,"M,T,W,TH,F",12:00PM - 1:00PM,,12:00PM - 1:00PM,,,,L,6,N,US,91182,,2019,Yellowstone
-108.4364631,45.79832151,73170,Lockwood Primary,Open,"1932 US Highway 87 Billings, MT 59101",,Billings,MT,59101,4062815878,,Kathy,Srock,4062815878,Lockwood Public Schools,2019-06-10T04:00:00.000Z,2019-08-09T04:00:00.000Z,"M,T,W,TH,F",8:00AM - 1:00PM,8:00AM - 9:00AM,12:00PM - 1:00PM,,,,"B,L",6,N,US,53209,,2019,Yellowstone
-105.8542534,46.4049031,73171,Rock Building,Open,"300 W Main Miles City, MT 59301",,Miles City,MT,59301,4062340447,,Alan,Brown,4062340447,First Baptist Chrch Miles City,2019-06-03T04:00:00.000Z,2019-08-09T04:00:00.000Z,"M,T,W,TH,F",8:30AM - 12:30PM,8:30AM - 9:00AM,11:30AM - 12:30PM,,,,"B,L",6,N,US,55176,,2019,Custer
-105.8479043,46.40933313,73172,First Baptist Church,Open,"900 Palmer St Miles City, MT 59301",,Miles City,MT,59301,4062340447,,Alan,Brown,4062340447,First Baptist Chrch Miles City,2019-06-03T04:00:00.000Z,2019-08-16T04:00:00.000Z,"M,T,W,TH,F",8:00AM - 12:30PM,8:00AM - 9:00AM,11:30AM - 12:30PM,,,,"B,L",6,N,US,51690,,2019,Custer
-113.9974368,46.87047399,73173,Caras Park,Open,"123 Carousel Dr Missoula, MT 59801",,Missoula,MT,59801,4065490543,213,Jamie,Breidenbach,4065490543,"Missoula Food Bank, Inc.",2019-07-23T04:00:00.000Z,2019-07-23T04:00:00.000Z,T,10:00AM - 3:00PM,,10:00AM - 3:00PM,,,,L,6,N,US,90178,,2019,Missoula
-114.0812696,46.76249545,73174,Lolo Elementary,Open,"11395 US HWY 93 Lolo, MT 59847",,Lolo,MT,59847,4065490543,213,Jamie,Breidenbach,4065490543,"Missoula Food Bank, Inc.",2019-06-10T04:00:00.000Z,2019-08-23T04:00:00.000Z,"M,T,W,TH,F",11:30AM - 1:00PM,,11:30AM - 1:00PM,,,,L,6,N,US,111797,,2019,Missoula
-114.0220781,46.88714059,73175,Travois Village,Open,"2000 Palmer St Missoula, MT 59802",,Missoula,MT,59802,4065490543,213,Jamie,Breidenbach,4065490543,"Missoula Food Bank, Inc.",2019-06-10T04:00:00.000Z,2019-08-23T04:00:00.000Z,"M,T,W,TH,F",12:30PM - 1:00PM,,12:30PM - 1:00PM,,,,L,6,N,US,113414,,2019,Missoula
-114.014887,46.84875947,73176,Missoula County Fair Grounds,Open,"1101 South Ave. W Missoula, MT 59801",,Missoula,MT,59801,4065490543,213,Jamie,Breidenbach,4065490543,"Missoula Food Bank, Inc.",2019-08-07T04:00:00.000Z,2019-08-10T04:00:00.000Z,"W,TH,F,SA",10:00AM - 5:00PM,,,,10:00AM - 5:00PM,,A,6,N,US,112068,,2019,Missoula
-114.0556075,46.84881853,73178,Big Sky High School,Open,"3100 South Ave. West Missoula, MT 59801",,Missoula,MT,59801,4065490543,213,Jamie,Breidenbach,4065490543,"Missoula Food Bank, Inc.",2019-06-17T04:00:00.000Z,2019-08-23T04:00:00.000Z,"M,T,W,TH",12:00PM - 6:00PM,,,,12:00PM - 6:00PM,,A,6,N,US,90007,,2019,Missoula
-113.7175301,46.78150759,73179,Clinton Community Church,Open,"9635 Clown Ln Clinton, MT 59825",,Clinton,MT,59825,5092738366,,Meagan,Huber,5092738366,"Missoula Food Bank, Inc.",2019-06-10T04:00:00.000Z,2019-08-23T04:00:00.000Z,"M,T,W,TH,F",12:00PM - 1:00PM,,12:00PM - 1:00PM,,,,L,6,N,US,139103,,2019,Missoula
-113.986289,46.85205346,73180,Sission University Apartments Park,Open,"101-399 Craighead Missoula, MT 59801",,Missoula,MT,59801,4065490543,213,Jamie,Breidenbach,4065490543,"Missoula Food Bank, Inc.",2019-06-17T04:00:00.000Z,2019-08-23T04:00:00.000Z,"M,T,W,TH,F",10:45AM - 11:15AM,,10:45AM - 11:15AM,,,,L,6,N,US,141001,,2019,Missoula
-113.997663,46.88251577,73181,Northside Park,Open,"Northside Park, Worden Ave Missoula, MT 59802",,Missoula,MT,59802,4065490543,213,Jamie,Breidenbach,4065490543,"Missoula Food Bank, Inc.",2019-06-17T04:00:00.000Z,2019-08-23T04:00:00.000Z,"M,T,W,TH,F",11:45AM - 12:15PM,,11:45AM - 12:15PM,,,,L,6,N,US,140434,,2019,Missoula
-104.1550435,47.71345442,73182,Lonsdale Center,Open,"201 3rd AVE SE Sidney, MT 59270",,Sidney,MT,59270,4064336763,,Janelle,Buxbaum,4064336763,Boys/Girls Club of Richland C,2019-06-10T04:00:00.000Z,2019-08-02T04:00:00.000Z,"M,T,W,TH,F",8:00AM - 12:00PM,8:00AM - 9:00AM,11:00AM - 12:00PM,,,,"B,L",6,N,US,140122,,2019,Richland
-104.1576615,47.70513,73183,Boys & Girls Club Food Trailer,Open,"1012 4th AVE SE Sidney, MT 59270",,Sidney,MT,59270,4064336763,,Janelle,Buxbaum,4064336763,Boys/Girls Club of Richland C,2019-06-10T04:00:00.000Z,2019-08-02T04:00:00.000Z,"M,T,W,TH,F",11:30AM - 12:00PM,,11:30AM - 12:00PM,,,,L,6,N,US,138829,,2019,Richland
-104.7141137,47.10465869,73184,Boys & Girls Club of the Mondak Dawson Unit,Open,"111 West Bell Street Glendive, MT 59330",,Glendive,MT,59330,4063777999,,Janelle,Buxbaum,4063777999,Boys/Girls Club of Richland C,2019-06-10T04:00:00.000Z,2019-08-02T04:00:00.000Z,"M,T,W,TH,F",12:00PM - 1:00PM,,12:00PM - 1:00PM,,,,L,6,N,US,138833,,2019,Dawson
-114.0833998,47.1643602,80102,Arlee High School,Open,"72220 Fyant Street Arlee, MT 59821",,Arlee,MT,59821,4067263216,2217,Karen,Hunter,4067263216,Arlee Public Schools,2019-06-10T04:00:00.000Z,2019-08-15T04:00:00.000Z,"M,T,W,TH,F",8:00AM - 1:00PM,8:00AM - 10:00AM,11:00AM - 1:00PM,,,,"B,L",6,U,US,17420,,2019,Lake
-115.5721843,48.3850448,80103,Libby Elementary School,Open,"101 Ski Rd Libby, MT 59923",,Libby,MT,59923,4062938811,,Ellen,Mills,4062938811,Libby K-12 Schools,2019-06-10T04:00:00.000Z,2019-06-21T04:00:00.000Z,"M,T,W,TH,F",8:00AM - 12:30PM,8:00AM - 8:30AM,12:00PM - 12:30PM,,,,"B,L",6,U,US,44833,,2019,Lincoln
-111.0559553,45.66747524,88507,Montana State University Family Housing,Open,"1400 West Garfield Bozeman, MT 59717",,Bozeman,MT,59717,4065874225,,Lyra,Leigh-Nedbor,4065874225,Gallatin Valley Food Bank,2019-06-10T04:00:00.000Z,2019-08-30T04:00:00.000Z,"M,T,W,TH,F",12:00PM - 1:00PM,,12:00PM - 1:00PM,,,,,7,N,US,45570,,2019,Gallatin
-111.0439794,45.68459677,88508,Whittier School,Open,"501 N 5th Bozeman, MT 59715",,Bozeman,MT,59715,4065867600,,Lyra,Leigh-Nedbor,4065867600,Gallatin Valley Food Bank,2019-06-24T04:00:00.000Z,2019-08-02T04:00:00.000Z,"M,T,W,TH,F",7:45AM - 12:45PM,7:45AM - 8:45AM,12:00PM - 12:45PM,,,,,7,N,US,145338,,2019,Gallatin
-111.0482573,45.67242676,88509,Irving School,Open,"811 W Alderson St Bozeman, MT 59715",,Bozeman,MT,59715,4065874225,,Lyra,Leigh-Nedbor,4065874225,Gallatin Valley Food Bank,2019-06-10T04:00:00.000Z,2019-08-30T04:00:00.000Z,"M,T,W,TH,F",12:00PM - 1:00PM,,12:00PM - 1:00PM,,,,,7,N,US,143457,,2019,Gallatin
-111.0514518,45.68162427,88510,Bozeman High School,Open,"205 N. 11th Avenue Bozeman, MT 59715",,Bozeman,MT,59715,4065874225,,Lyra,Leigh-Nedbor,4065874225,Gallatin Valley Food Bank,2019-06-10T04:00:00.000Z,2019-08-30T04:00:00.000Z,"M,T,W,TH,F",7:30AM - 12:15PM,7:30AM - 8:30AM,11:15AM - 12:15PM,,,,,7,N,US,41613,,2019,Gallatin
-111.550851,45.89104054,88511,Stevenson Park,Open,"East First Three Forks, MT 59752",,Three Forks,MT,59752,4065874225,,Lyra,Leigh-Nedbor,4065874225,Gallatin Valley Food Bank,2019-06-06T04:00:00.000Z,2019-08-09T04:00:00.000Z,"M,T,W,TH",11:30AM - 12:15PM,,11:30AM - 12:15PM,,,,,7,N,US,144884,,2019,Gallatin
-111.0343908,45.68355867,88512,Beall Park,Open,"415 North Bozeman Bozeman, MT 59715",,Bozeman,MT,59715,4065874225,,Lyra,Leigh-Nedbor,4065874225,Gallatin Valley Food Bank,2019-06-10T04:00:00.000Z,2019-08-30T04:00:00.000Z,"M,T,W,TH,F",7:45AM - 12:15PM,7:45AM - 8:45AM,11:15AM - 12:15PM,,,,,7,N,US,41304,,2019,Gallatin
-111.1832466,45.78782879,88513,Hallensteiner Park,Open,"Circle Drive Belgrade, MT 59714",,Belgrade,MT,59714,4065874225,,Lyra,Leigh-Nedbor,4065874225,Gallatin Valley Food Bank,2019-06-10T04:00:00.000Z,2019-08-23T04:00:00.000Z,"M,T,W,TH,F",7:45AM - 1:00PM,7:45AM - 8:45AM,12:00PM - 1:00PM,,,,,7,N,US,43760,,2019,Gallatin
-111.0461317,45.682398,88514,Fork & Spoon,Open,"302 North 7th Ave Bozeman, MT 59715",,Bozeman,MT,59715,4065874335,,Lyra,Leigh-Nedbor,4065874335,Gallatin Valley Food Bank,2019-06-06T04:00:00.000Z,2019-08-31T04:00:00.000Z,"S,M,T,W,TH,F",5:00PM - 7:00PM,,,,,5:00PM - 7:00PM,,7,N,US,107042,,2019,Gallatin
-111.0271715,45.67935153,88515,Bozeman Public Library,Open,"626 East Main street Bozeman, MT 59715",,Bozeman,MT,59715,4065874225,,Lyra,Leigh-Nedbor,4065874225,Gallatin Valley Food Bank,2019-06-10T04:00:00.000Z,2019-08-30T04:00:00.000Z,"M,T,W,TH,F",12:00PM - 1:00PM,,12:00PM - 1:00PM,,,,,7,N,US,41614,,2019,Gallatin
-111.0635153,45.68213622,88516,Kirk Park,Open,"2000 w. Beall Street Bozeman, MT 59715",,Bozeman,MT,59715,4065874225,,Lyra,Leigh-Nedbor,4065874225,Gallatin Valley Food Bank,2019-06-10T04:00:00.000Z,2019-08-30T04:00:00.000Z,"M,T,W,TH,F",11:30AM - 12:30PM,,11:30AM - 12:30PM,,,,,7,N,US,82354,,2019,Gallatin
-111.1731327,45.77566003,88517,Lewis & Clark Park,Open,"204 East Central Ave Gallatin, MT 59714",,Gallatin,MT,59714,4065867600,,Lyra,Leigh-Nedbor,4065867600,Gallatin Valley Food Bank,2019-06-10T04:00:00.000Z,2019-08-23T04:00:00.000Z,"M,T,W,TH,F",11:00AM - 12:00PM,,11:00AM - 12:00PM,,,,,7,N,US,107705,,2019,Gallatin
-112.032256,46.59770382,88518,Memorial Park,Open,"N Last Chance Gulch Helena, MT 59601",,Helena,MT,59601,4063242512,,Robert,Worthy,4063242512,Helena Public Schools,2019-06-10T04:00:00.000Z,2019-08-08T04:00:00.000Z,"M,T,W,TH,F",11:00AM - 12:30PM,,11:00AM - 12:30PM,,,,,7,N,US,45334,,2019,Lewis and Clark
-112.0494116,46.6077697,88519,Barney Park,Open,"1200 Warehouse Street Helena, MT 59601",,Helena,MT,59601,4063242513,,Babara,Avard,4063242513,Helena Public Schools,2019-06-10T04:00:00.000Z,2019-08-08T04:00:00.000Z,"M,T,W,TH,F",11:00AM - 12:00PM,,11:00AM - 12:00PM,,,,,7,N,US,89951,,2019,Lewis and Clark
-112.0177637,46.6047515,88520,Lincoln Park,Open,"1325 Poplar Helena, MT 59601",,Helena,MT,59601,4063242512,,Robert,Worthy,4063242512,Helena Public Schools,2019-06-10T04:00:00.000Z,2019-08-08T04:00:00.000Z,"M,T,W,TH,F",11:00AM - 11:30AM,,11:00AM - 11:30AM,,,,,7,N,US,44893,,2019,Lewis and Clark
-112.0413861,46.5851042,88521,Lewis and Clark Library,Open,"120 S. Last Chance Gultch Helena, MT 59601",,Helena,MT,59601,4064613792,,Robert,Worthy,4064613792,Helena Public Schools,2019-06-10T04:00:00.000Z,2019-08-08T04:00:00.000Z,"M,T,W,TH,F",11:00AM - 11:55AM,,11:00AM - 11:55AM,,,,,7,N,US,91019,,2019,Lewis and Clark
-114.0325215,46.81867198,88524,Chief Charlo School,Open,"5600 Longview Dr. Missoula, MT 59803",,Missoula,MT,59803,4067282400,3023,Stacey,Rossmiller,4067282400,Missoula Co Public Schls,2019-06-17T04:00:00.000Z,2019-08-16T04:00:00.000Z,"M,T,W,TH,F",8:30AM - 1:00PM,8:30AM - 10:30AM,11:00AM - 1:00PM,,,,,7,N,US,90266,,2019,Missoula
-114.0265204,46.85958378,88525,Franklin School,Open,"1910 S 11th St W Missoula, MT 59801",,Missoula,MT,59801,4067282400,3023,Stacey,Rossmiller,4067282400,Missoula Co Public Schls,2019-06-17T04:00:00.000Z,2019-08-16T04:00:00.000Z,"M,T,W,TH,F",8:30AM - 1:00PM,8:30AM - 10:30AM,11:00AM - 1:00PM,,,,,7,N,US,110938,,2019,Missoula
-114.0101605,46.87998708,88526,Lowell School,Open,"200 Sherwood St Missoula, MT 59802",,Missoula,MT,59802,4067282400,3023,Stacey,Rossmiller,4067282400,Missoula Co Public Schls,2019-06-17T04:00:00.000Z,2019-08-16T04:00:00.000Z,"M,T,W,TH,F",8:30AM - 1:00PM,8:30AM - 10:30AM,11:00AM - 1:00PM,,,,,7,N,US,111818,,2019,Missoula
-115.7774841,47.99457863,88527,Noxon School,Open,"300 Noxon Ave Noxon, MT 59853",,Noxon,MT,59853,4068472442,203,Cristina,Summers,4068472442,Noxon Public Schools,2019-07-09T04:00:00.000Z,2019-08-01T04:00:00.000Z,"T,W,TH",9:00AM - 12:15PM,9:00AM - 9:30AM,11:30AM - 12:15PM,,,,,7,N,US,29824,,2019,Sanders
-112.518652,45.97685045,88529,Legion Oasis,Open,"3400 Hill Ave. Butte, MT 59701",,Butte,MT,59701,4064943400,,Debbie,Smith,4064943400,Butte Human Res Council XII,2019-06-17T04:00:00.000Z,2019-08-09T04:00:00.000Z,"M,T,W,TH,F",12:15PM - 12:45PM,,12:15PM - 12:45PM,,,,,7,N,US,44802,,2019,Silver Bow
-112.531499,46.01081954,88530,Silver Bow Homes,Open,"220 Curtis Butte, MT 59710",,Butte,MT,59710,4067826461,,Revonda,Stordahl,4067826461,Butte Human Res Council XII,2019-06-17T04:00:00.000Z,2019-08-09T04:00:00.000Z,"M,T,W,TH,F",12:00PM - 12:30PM,,12:00PM - 12:30PM,,,,,7,N,US,47221,,2019,Silver Bow
-112.7327617,46.39672455,88531,Central Park Center,Open,"444 Montana Ave. Deer Lodge, MT 59722",,Deer Lodge,MT,59722,4068461553,,Rodney,Simpson,4068461553,Butte Human Res Council XII,2019-06-17T04:00:00.000Z,2019-08-09T04:00:00.000Z,"M,T,W,TH,F",12:00PM - 12:30PM,,12:00PM - 12:30PM,,,,,7,N,US,106445,,2019,Powell
-112.513275,45.996876,88532,Clark Park,Open,"Florence And George Butte, MT 59701",,Butte,MT,59701,4064980038,,JP,Galager,4064980038,Butte Human Res Council XII,2019-06-17T04:00:00.000Z,2019-08-09T04:00:00.000Z,"M,T,W,TH,F",11:45AM - 12:30PM,,11:45AM - 12:30PM,,,,,7,N,US,42229,,2019,Silver Bow
-112.5245312,45.98579455,88533,Silver Bow Village,Open,"910 Evans Butte, MT 59701",,Butte,MT,59701,4064949580,,Raul,Hines,4064949580,Butte Human Res Council XII,2019-06-17T04:00:00.000Z,2019-08-09T04:00:00.000Z,"M,T,W,TH,F",12:00PM - 12:30PM,,12:00PM - 12:30PM,,,,,7,N,US,47222,,2019,Silver Bow
-112.7315894,46.39885446,88534,Kohrs Memorial Library,Open,"501 Missouri Deer lodge, MT 59722",,Deer lodge,MT,59722,8888722622,,Cindy,Grieshaber,8888722622,Butte Human Res Council XII,2019-06-17T04:00:00.000Z,2019-08-09T04:00:00.000Z,"M,T,W,TH,F",12:00PM - 12:30PM,,12:00PM - 12:30PM,,,,,7,N,US,90960,,2019,Powell
-112.5402399,46.01334257,88535,Butte Silver Bow Public Library,Open,"226 W. Broadway Butte, MT 59701",,Butte,MT,59701,4067233361,6301,Stef,Johnson,4067233361,Butte Human Res Council XII,2019-06-17T04:00:00.000Z,2019-08-09T04:00:00.000Z,"M,T,W,TH,F",12:00PM - 12:30PM,,12:00PM - 12:30PM,,,,,7,N,US,90106,,2019,Silver Bow
-112.5474822,46.00874727,88536,Chester Steele Park,Open,"400 S Alabama St Butte, MT 59701",,Butte,MT,59701,4064980038,,JP,Gallagher,4064980038,Butte Human Res Council XII,2019-06-17T04:00:00.000Z,2019-08-09T04:00:00.000Z,"M,T,W,TH,F",12:00PM - 12:30PM,,12:00PM - 12:30PM,,,,,7,N,US,106473,,2019,Silver Bow
-112.4966125,46.00007553,88537,East Middle School,Open,"2600 Grand Butte, MT 59701",,Butte,MT,59701,4065332600,,Kieth,Miller,4065332600,Butte Human Res Council XII,2019-06-17T04:00:00.000Z,2019-08-09T04:00:00.000Z,"M,T,W,TH,F",7:30AM - 12:30PM,7:30AM - 9:30AM,10:30AM - 12:30PM,,,,,7,N,US,106834,,2019,Silver Bow
-108.7815825,45.67138549,88538,Laurel Public Library,Open,"720 W 3rd St Laurel, MT 59044",,Laurel,MT,59044,4066284961,,Nancy,Schmidt,4066284961,Laurel Public Schools,2019-06-10T04:00:00.000Z,2019-08-16T04:00:00.000Z,"M,T,W,TH,F",11:00AM - 12:30PM,,11:00AM - 12:30PM,,,,,7,N,US,111676,,2019,Yellowstone
-110.9655256,48.50836314,88539,Chester-Joplin-Inverness Schl,Open,"511 Main Street Chester, MT 59522",,Chester,MT,59522,4067595108,309,Tina,Neer,4067595108,Chester-Joplin-Inverness PS,2019-06-10T04:00:00.000Z,2019-08-08T04:00:00.000Z,"M,T,W,TH",8:30AM - 12:30PM,8:30AM - 9:00AM,11:45AM - 12:30PM,,,,,7,N,US,142502,,2019,Liberty
-110.9720777,48.93246425,88540,Sage Creek Elementary,Open,"470 Laird Road Chester, MT 59522",,Chester,MT,59522,4062923510,,Erma,Hofer,4062923510,Chester-Joplin-Inverness PS,2019-06-06T04:00:00.000Z,2019-08-20T04:00:00.000Z,"S,M,T,W,TH,F,SA",7:00AM - 1:00PM,7:00AM - 8:00AM,12:00PM - 1:00PM,,,,,7,N,US,144632,,2019,Liberty
-110.5834139,48.76933047,88541,Cool Spring Colony School,Open,"8175 Road 140 N Rudyard, MT 59540",,Rudyard,MT,59540,4063554406,,Rosa,Waldner,4063554406,Chester-Joplin-Inverness PS,2019-06-06T04:00:00.000Z,2019-08-20T04:00:00.000Z,"S,M,T,W,TH,F,SA",7:00AM - 1:00PM,7:00AM - 8:00AM,12:00PM - 1:00PM,,,,,7,N,US,142662,,2019,Hill
-114.3329067,48.21946275,112138,Northridge Park,Open,"111 Northridge Dr (Northridge Park) Kalispell, MT 59901",Northridge Park,Kalispell,MT,59901,4067513646,,Jana,Graham,4067513646,Kalispell Public Schools,2019-06-12T04:00:00.000Z,2019-08-16T04:00:00.000Z,"M,T,W,TH,F",10:45AM - 11:05AM,,10:45AM - 11:05AM,,,,,8,N,US,147072,,2019,Flathead
-114.3236727,48.20180995,112139,Washington Park,Open,"545 W Washington St (Washington Park) Kalispell, MT 59901",Washington Park,Kalispell,MT,59901,4067513646,,Jana,Graham,4067513646,Kalispell Public Schools,2019-06-12T04:00:00.000Z,2019-08-16T04:00:00.000Z,"M,T,W,TH,F",12:25PM - 12:45PM,,12:25PM - 12:45PM,,,,,8,N,US,147719,,2019,Flathead
-114.2145401,48.364425,112140,Horine Park,Open,"11 Beth Rd Columbia Falls, MT 59912",,Columbia Falls,MT,59912,4068628620,249,Jay,Stagg,4068628620,Whitefish Public Schools,2019-06-17T04:00:00.000Z,2019-08-23T04:00:00.000Z,"M,T,W,TH,F",11:00AM - 1:00PM,,11:00AM - 1:00PM,,,,,8,N,US,146559,,2019,Flathead
-114.0351924,48.39103052,112142,Fire Hall,Open,"332 Central Avenue Martin City, MT 59926",,Martin City,MT,59926,4068628620,249,Jay,Stagg,4068628620,Whitefish Public Schools,2019-06-17T04:00:00.000Z,2019-08-23T04:00:00.000Z,"M,T,W,TH,F",11:50AM - 12:20PM,,11:50AM - 12:20PM,,,,,8,N,US,146341,,2019,Flathead
-114.0500612,48.41726105,112143,Canyon Community Church,Open,"185 Coram School Ln Coram, MT 59913",,Coram,MT,59913,4068628620,249,Jay,Stagg,4068628620,Whitefish Public Schools,2019-06-17T04:00:00.000Z,2019-08-23T04:00:00.000Z,"M,T,W,TH,F",12:30PM - 1:00PM,,12:30PM - 1:00PM,,,,,8,N,US,145949,,2019,Flathead
-113.0209012,48.55392649,112144,Low Rent,Open,"401 2nd Ave SW (Low Rent) Browning, MT 59417",Low Rent,Browning,MT,59417,4063387952,,Lynne,Keenan,4063387952,Browning Public Schools,2019-06-04T04:00:00.000Z,2019-08-16T04:00:00.000Z,"M,T,W,TH,F",12:45PM - 1:15PM,,12:45PM - 1:15PM,,,,,8,N,US,146781,,2019,Glacier
-113.0124291,48.56410778,112145,Gentle Street/464,Open,"1816 Detox Rd (1816 Gentle St) Browning, MT 59417",1816 Gentle St,Browning,MT,59417,4063387952,,Lynne,Keenan,4063387952,Browning Public Schools,2019-06-17T04:00:00.000Z,2019-08-16T04:00:00.000Z,"M,T,W,TH,F",11:30AM - 12:00PM,,11:30AM - 12:00PM,,,,,8,N,US,146404,,2019,Glacier
-113.01581,48.55779845,112146,Browning Library,Open,"214 1st St NW Browning, MT 59417",,Browning,MT,59417,4063387952,,Lynne,Keenan,4063387952,Browning Public Schools,2019-06-18T04:00:00.000Z,2019-08-16T04:00:00.000Z,"M,T,W,TH,F",2:00PM - 2:30PM,,2:00PM - 2:30PM,,,,,8,N,US,145911,,2019,Glacier
-114.1638997,47.694402,112148,Polson Middle School,Open,"1602 2 AVE WEST Polson, MT 59860",,Polson,MT,59860,4068836333,514,JB,Capdeville,4068836333,Polson Public Schools,2019-06-17T04:00:00.000Z,2019-08-02T04:00:00.000Z,"M,T,W,TH,F",11:00AM - 1:15PM,,11:00AM - 1:15PM,,,,,8,N,US,147201,,2019,Lake
-114.0751611,47.67228883,112149,Turtle Lake,Open,"37181 TURTLE LAKE LOOP Polson, MT 59860",,Polson,MT,59860,4068836333,514,Janice,Capdeville,4068836333,Polson Public Schools,2019-06-24T04:00:00.000Z,2019-08-02T04:00:00.000Z,"M,T,W,TH,F",11:00AM - 1:15PM,,11:00AM - 1:15PM,,,,,8,N,US,60501,,2019,Lake
-112.0252525,46.62089579,112150,Skelton Park,Open,"875 Road Runner St (Skelton Park) Helena, MT 59601",Skelton Park,Helena,MT,59601,4063242512,,Robert,Worthy,4063242512,Helena Public Schools,2019-06-10T04:00:00.000Z,2019-08-08T04:00:00.000Z,"M,T,W,TH,F",12:10PM - 12:40PM,,12:10PM - 12:40PM,,,,,8,N,US,147394,,2019,Lewis and Clark
-115.100849,47.29962867,112151,St Regis School,Open,"90 Tiger Street St. Regis, MT 59866",,St. Regis,MT,59866,4066492311,201,Tina,Hill,4066492311,St Regis K-12 Schools,2019-06-13T04:00:00.000Z,2019-08-15T04:00:00.000Z,"M,T,W,TH",8:00AM - 12:00PM,8:00AM - 8:30AM,11:30AM - 12:00PM,,,,,8,N,US,55757,,2019,Mineral
-115.2980718,47.47760953,112152,DeBorgia Schoolhouse Pavillion,Open,"Thompson DeBorgia Rd. DeBorgia, MT 59830",,DeBorgia,MT,59830,4066492311,201,Tina,Hill,4066492311,St Regis K-12 Schools,2019-06-13T04:00:00.000Z,2019-08-15T04:00:00.000Z,"M,T,W,TH",11:30AM - 12:30PM,,11:30AM - 12:30PM,,,,,8,N,US,146176,,2019,Mineral
-114.0182403,46.84094945,112153,Russell School,Open,"3216 Russell Street Missoula, MT 59801",,Missoula,MT,59801,4067282400,3023,Stacey,Rossmiller,4067282400,Missoula Co Public Schls,2019-06-17T04:00:00.000Z,2019-08-16T04:00:00.000Z,"M,T,W,TH,F",8:30AM - 1:00PM,8:30AM - 10:30AM,11:00AM - 1:00PM,,,,,8,N,US,147328,,2019,Missoula
-105.6468751,48.0887276,112154,Wolf Point Community Center,Open,"317 6th Ave South Wolf Point, MT 59201",,Wolf Point,MT,59201,4066504694,,Mary,Plante,4066504694,Fort Peck Tribes,2019-06-12T04:00:00.000Z,2019-08-16T04:00:00.000Z,"M,T,W,TH,F",8:00AM - 1:00PM,8:00AM - 9:30AM,11:30AM - 1:00PM,,,,,8,N,US,39947,,2019,Roosevelt
-104.91546,48.15115,112155,Barbara Gilligan School,Open,"215 N 5th st. Brockton, MT 59213",,Brockton,MT,59213,4066504694,,Mary,Plante,4066504694,Fort Peck Tribes,2019-06-12T04:00:00.000Z,2019-08-16T04:00:00.000Z,"M,T,W,TH,F",8:00AM - 1:00PM,8:00AM - 9:00AM,11:30AM - 1:00PM,,,,,8,N,US,127118,,2019,Roosevelt
-108.567915,45.77464528,112156,Gorham Park,Open,"2023 Gorham Park Dr (Gorham Park) Billings, MT 59102",Gorham Park,Billings,MT,59102,4062815880,,Brenda,Schueler,4062815880,Billings Public Schools,2019-06-05T04:00:00.000Z,2019-08-09T04:00:00.000Z,"M,T,W,TH,F",12:00PM - 1:00PM,,12:00PM - 1:00PM,,,,,8,N,US,146445,,2019,Yellowstone
-114.1114509,47.59362281,112157,Salish-Kooteni Community College,Open,"41700 Joe McDonald Dr (SKC Joe McDonald Health & Fitness Center) Pablo, MT 59855",SKC Joe McDonald Health & Fitness Center,Pablo,MT,59855,4062754926,,Alana,Bahe,4062754926,Salish-Kootenai Comm Coll,2019-06-17T04:00:00.000Z,2019-08-08T04:00:00.000Z,"M,T,W,TH",8:30AM - 12:00PM,8:30AM - 9:00AM,11:30AM - 12:00PM,,,,,8,N,US,147337,,2019,Lake
-114.0633658,46.84866077,112158,Fort Missoula Park,Open,"3401 South Ave W (3400 Captain Rawn Way) Missoula, MT 59804",3400 Captain Rawn Way,Missoula,MT,59804,4065490543,213,Jamie,Breidenbach,4065490543,"Missoula Food Bank, Inc.",2019-08-17T04:00:00.000Z,2019-08-17T04:00:00.000Z,SA,10:00AM - 4:00PM,,10:00AM - 4:00PM,,,,,8,N,US,146364,,2019,Missoula
-114.1077396,46.93320882,112159,Futura Park,Open,"6485 US Highway 10 W (Futura Trailer Park) Missoula, MT 59808",Futura Trailer Park,Missoula,MT,59808,4065490543,213,Jamie,Breidenbach,4065490543,"Missoula Food Bank, Inc.",2019-06-10T04:00:00.000Z,2019-08-23T04:00:00.000Z,"M,T,W,TH,F",1:15PM - 1:45PM,,1:15PM - 1:45PM,,,,,8,N,US,146384,,2019,Missoula
-112.8268775,48.27674221,125112,Heart Butte Elementary,Open,"1 Heart Butte School Rd (1 New School Road) Heart Butte, MT 59448",1 New School Road,Heart Butte,MT,59448,4063383344,229,Tammy,Dusty bull,4063383344,Heart Butte K-12 Schools,2019-06-06T04:00:00.000Z,2019-08-09T04:00:00.000Z,"M,T,W,TH,F",8:30AM - 1:00PM,8:30AM - 9:30AM,11:00AM - 1:00PM,,,,,9,N,US,148548,,2019,Pondera
-112.7447925,48.23699272,125113,St. Anne's Church,Open,"2500 Heart Butte Rd (124 St Annes Dr) Heart Butte, MT 59448",124 St Annes Dr,Heart Butte,MT,59448,4063382211,229,tammy,Dusty Bull,4063382211,Heart Butte K-12 Schools,2019-06-17T04:00:00.000Z,2019-06-28T04:00:00.000Z,"M,T,W,TH,F",8:30AM - 9:00AM,8:30AM - 9:00AM,,,,,,9,N,US,149253,,2019,Pondera
-105.191689,48.11070861,125114,Poplar Activity Center,Open,"400 Court Ave Poplar, MT 59255",,Poplar,MT,59255,4066504694,,Mary,Plante,4066504694,Fort Peck Tribes,2019-06-26T04:00:00.000Z,2019-08-16T04:00:00.000Z,"M,T,W,TH,F",8:00AM - 1:00PM,8:00AM - 9:30AM,11:30AM - 1:00PM,,,,,9,N,US,20841,,2019,Roosevelt
-113.4357454,48.8671858,129059,Babb School,Open,"4063 Highway 89 North Babb, MT 59411",,Babb,MT,59411,4063387952,,Lynne,Keenan,4063387952,Browning Public Schools,2019-06-10T04:00:00.000Z,2019-06-27T04:00:00.000Z,"M,T,W,TH,F",8:00AM - 12:30PM,8:00AM - 8:30AM,12:00PM - 12:30PM,,,,,9,U,US,138683,,2019,Glacier
-113.0299667,48.5667326,129060,Blackfeet Homes,Open,"6008 Frank Drive Browning, MT 59417",,Browning,MT,59417,4063387952,,Lynne,Keenan,4063387952,Browning Public Schools,2019-06-04T04:00:00.000Z,2019-08-16T04:00:00.000Z,"M,T,W,TH,F",11:40AM - 12:10PM,,11:40AM - 12:10PM,,,,,9,U,US,50086,,2019,Glacier
-112.5390216,45.9999992,129061,Butte High School Career Center,Open,"1050 S. Montana Butte, MT 59701",,Butte,MT,59701,4065222969,,kathy,cannon,4065222969,Butte Human Res Council XII,2019-06-17T04:00:00.000Z,2019-07-29T04:00:00.000Z,"M,T,W,TH,F",8:30AM - 12:30PM,8:30AM - 9:30AM,10:30AM - 12:30PM,,,,,9,U,US,41751,,2019,Silver Bow
-114.2288719,48.08002255,120395,Somers Beach,Open,"5300 Hwy 93 Somers, MT 59932",,Somers,MT,59932,4068573301,,Robin,Vogler,4068573301,Somers Elementary,2019-06-17T04:00:00.000Z,2019-06-17T04:00:00.000Z,"M,T,W,TH,F",11:00AM - 1:00PM,,11:00AM - 1:00PM,,,,,8,U,US,141016,,2019,Flathead
-113.0185068,48.55484271,120396,BPS Community Garden,Open,"308 1st Ave SW Browning, MT 59417",,Browning,MT,59417,4063387952,,Lynne,Keenan,4063387952,Browning Public Schools,2019-06-04T04:00:00.000Z,2019-06-14T04:00:00.000Z,"M,T,W,TH,F",11:00AM - 11:30AM,,11:00AM - 11:30AM,,,,,8,U,US,138855,,2019,Glacier
-112.0128391,46.58887686,120397,Ray Bjork Learning Center,Open,"1600 9th Avenue Helena, MT 59601",,Helena,MT,59601,4063242512,,Robert,Worthy,4063242512,Helena Public Schools,2019-06-17T04:00:00.000Z,2019-08-08T04:00:00.000Z,"M,T,W,TH,F",8:15AM - 11:45AM,8:15AM - 8:45AM,11:00AM - 11:45AM,,,,,8,U,US,144496,,2019,Lewis and Clark
-111.1085181,44.65845853,131456,Smokey Waters Day Camp,Open,"10 S. Geyser St West Yellowstone, MT 59758",,West Yellowstone,MT,59758,4065867600,,Lyra,Leigh-Nedbor,4065867600,Gallatin Valley Food Bank,2019-06-28T04:00:00.000Z,2019-08-16T04:00:00.000Z,"M,T,W,TH,F",2:30PM - 3:00PM,,,,2:30PM - 3:00PM,,,10,N,US,150594,,2019,Gallatin
-109.8284784,46.436145,131457,Harlowton K-12,Open,"304 Division Street Harlowton, MT 59036",,Harlowton,MT,59036,4066324324,,Julie,Wojtowick,4066324324,Harlowton Public Schools,2019-06-03T04:00:00.000Z,2019-06-20T04:00:00.000Z,"M,T,W,TH",8:30AM - 1:00PM,8:30AM - 10:00AM,12:00PM - 1:00PM,,,,,10,N,US,150133,,2019,Wheatland
-114.1867393,48.37398247,134050,Boys and Girls Club,Open,"540 4th Ave W Columbia Falls, MT 59912",,Columbia Falls,MT,59912,4068628620,249,Jay,Stagg,4068628620,Whitefish Public Schools,2019-06-17T04:00:00.000Z,2019-08-23T04:00:00.000Z,"M,T,W,TH,F",8:00AM - 12:30PM,8:00AM - 9:00AM,12:00PM - 12:30PM,,,,,10,U,US,145871,,2019,Flathead
-112.5242104,45.98079222,142783,Stodden Park,Open,"3105 S Utah Ave Butte, MT 59701",,Butte,MT,59701,4064980038,,JP,Gallagher,4064980038,Butte Human Res Council XII,2019-07-12T04:00:00.000Z,2019-07-13T04:00:00.000Z,F,12:00PM - 2:00PM,,12:00PM - 2:00PM,,,,,12,N,US,152410,,2019,Silver Bow
-114.9048433,48.76412132,145540,Fortine School,Open,"358 Meadow Creek Rd Fortine, MT 59918",,Fortine,MT,59918,4068824531,,Regan,Lewis,4068824531,Fortine Elementary,2019-06-17T04:00:00.000Z,2019-08-16T04:00:00.000Z,"M,T,W,TH,F",8:00AM - 1:00PM,8:00AM - 9:00AM,12:00PM - 1:00PM,,,,,12,U,US,18914,,2019,Lincoln
-107.3958509,45.131031,149157,Wyola 7-8,Open,"203 Mondell Wyola, MT 59089",,Wyola,MT,59089,4063432722,0,Christy,Wright,4063432722,Wyola Elementary,2019-06-10T04:00:00.000Z,2019-08-06T04:00:00.000Z,"M,T,W,TH,F",10:00AM - 2:30PM,10:00AM - 12:00PM,1:00PM - 2:30PM,,,,,13,U,US,141549,,2019,Big Horn
-112.3342504,45.5457845,149158,Twin Bridges School,Open,"216 W 6th Ave Twin Bridges, MT 59754",,Twin Bridges,MT,59754,4066845656,,Melanie,Johnson,4066845656,Twin Bridges K-12 Schools,2019-06-10T04:00:00.000Z,2019-07-25T04:00:00.000Z,"M,T,W,TH",8:00AM - 12:15PM,8:00AM - 8:30AM,11:30AM - 12:15PM,,,,,13,U,US,145141,,2019,Madison
-114.4811337,47.003996,149160,Alberton School,Open,"306 Railroad St. Alberton, MT 59820",,Alberton,MT,59820,4065490543,213,Jamie,Breidenbach,4065490543,"Missoula Food Bank, Inc.",2019-06-03T04:00:00.000Z,2019-08-15T04:00:00.000Z,"M,T,W,TH",10:30AM - 1:00PM,,12:00PM - 1:00PM,10:30AM - 11:00AM,,,,13,U,US,109572,,2019,Mineral
-104.7152563,48.15243431,137240,Fort Kipp Community Hall,Open,"Ft KP 1 St (James Black Dog Hall) Brockton, MT 59213",James Black Dog Hall,Brockton,MT,59213,4066504694,,Mary,Plante,4066504694,Fort Peck Tribes,2019-06-26T04:00:00.000Z,2019-08-16T04:00:00.000Z,"M,T,W,TH,F",8:30AM - 12:45PM,8:30AM - 9:30AM,11:45AM - 12:45PM,,,,,11,N,US,151198,,2019,Roosevelt
-115.5452863,48.40061731,139537,Libby Christian Church,Open,"100 Kootenai River Rd Libby, MT 59923",,Libby,MT,59923,4062938811,,Ellen,Mills,4062938811,Libby K-12 Schools,2019-06-10T04:00:00.000Z,2019-06-14T04:00:00.000Z,"M,T,W,TH",8:30AM - 12:30PM,8:30AM - 9:00AM,12:00PM - 12:30PM,,,,,11,U,US,44831,,2019,Lincoln
-114.058071,48.38139252,155613,Canyon Elementary,Open,"200 North St (3rd St E) Hungry Horse, MT 59919",3rd St E,Hungry Horse,MT,59919,4068628620,249,Jay,Stagg,4068628620,Whitefish Public Schools,2019-06-17T04:00:00.000Z,2019-08-23T04:00:00.000Z,"M,T,W,TH,F",11:15AM - 11:45AM,,11:15AM - 11:45AM,,,,,16,U,US,151082,,2019,Flathead
-114.1657921,47.68819547,155614,Cherry Valley School,Open,"107 8th Ave W Polson, MT 59860",,Polson,MT,59860,4068836333,514,Janice,Capdeville,4068836333,Polson Public Schools,2019-06-17T04:00:00.000Z,2019-08-09T04:00:00.000Z,"M,T,W,TH,F",7:30AM - 1:15PM,7:30AM - 9:30AM,11:00AM - 1:15PM,,,,,16,U,US,26500,,2019,Lake
-114.1784586,46.02817353,155615,Darby School,Open,"209 School Drive Darby, MT 59829",,Darby,MT,59829,4068211451,,Dave,Thomas,4068211451,Darby K-12 Schools,2019-06-10T04:00:00.000Z,2019-08-16T04:00:00.000Z,"M,T,W,TH,F",9:00AM - 10:59AM,9:00AM - 10:59AM,,,,,,16,U,US,26952,,2019,Ravalli
-114.1781589,46.020663,155616,Darby City Park,Open,"100 Main St Darby, MT 59829",,Darby,MT,59829,4068211310,,Dave,Thomas,4068211310,Darby K-12 Schools,2019-06-11T04:00:00.000Z,2019-08-15T04:00:00.000Z,"M,T,W,TH,F",11:00AM - 1:30PM,,11:00AM - 1:30PM,,,,,16,U,US,103357,,2019,Ravalli
-108.4982101,45.79207256,155617,North Park,Open,"6th Ave N Billings, MT 59101",,Billings,MT,59101,4062815880,,Brenda,Schueler,4062815880,Billings Public Schools,2019-06-05T04:00:00.000Z,2019-08-09T04:00:00.000Z,"M,T,W,TH,F",12:00PM - 1:00PM,,12:00PM - 1:00PM,,,,,16,U,US,140421,,2019,Yellowstone
-108.5151209,45.767628,156685,Orchard School,Open,"120 Jackson Billings, MT 59101",,Billings,MT,59101,4062815880,,Brenda,Schueler,4062815880,Billings Public Schools,2019-06-05T04:00:00.000Z,2019-08-16T04:00:00.000Z,"M,T,W,TH,F",8:30AM - 1:00PM,8:30AM - 9:00AM,11:30AM - 1:00PM,,,,,17,U,US,54222,,2019,Yellowstone
-108.5418691,46.44629982,156686,Roundup Youth Center,Open,"544 Main Street Roundup, MT 59072",,Roundup,MT,59072,4063200912,,Stacey,Isle,4063200912,Roundup Youth Center,2019-05-28T04:00:00.000Z,2019-08-20T04:00:00.000Z,"M,T,W,TH,F",8:00AM - 1:30PM,8:00AM - 10:45AM,11:00AM - 1:30PM,,,,,17,U,US,21126,,2019,Musselshell
,,,,,,,,,,,,,,,,,,,,,,,,,,,,,,,,
,,,,,,,,,,,,,,,,,,,,,,,,,,,,,,,,
,,,,,,,,,,,,,,,,,,,,,,,,,,,,,,,,
,,,,,,,,,,,,,,,,,,,,,,,,,,,,,,,,
,,,,,,,,,,,,,,,,,,,,,,,,,,,,,,,,
,,,,,,,,,,,,,,,,,,,,,,,,,,,,,,,,
,,,,,,,,,,,,,,,,,,,,,,,,,,,,,,,,
,,,,,,,,,,,,,,,,,,,,,,,,,,,,,,,,
,,,,,,,,,,,,,,,,,,,,,,,,,,,,,,,,
,,,,,,,,,,,,,,,,,,,,,,,,,,,,,,,,
,,,,,,,,,,,,,,,,,,,,,,,,,,,,,,,,
,,,,,,,,,,,,,,,,,,,,,,,,,,,,,,,,
,,,,,,,,,,,,,,,,,,,,,,,,,,,,,,,,
,,,,,,,,,,,,,,,,,,,,,,,,,,,,,,,,
,,,,,,,,,,,,,,,,,,,,,,,,,,,,,,,,
,,,,,,,,,,,,,,,,,,,,,,,,,,,,,,,,
,,,,,,,,,,,,,,,,,,,,,,,,,,,,,,,,
,,,,,,,,,,,,,,,,,,,,,,,,,,,,,,,,
,,,,,,,,,,,,,,,,,,,,,,,,,,,,,,,,
,,,,,,,,,,,,,,,,,,,,,,,,,,,,,,,,
,,,,,,,,,,,,,,,,,,,,,,,,,,,,,,,,
,,,,,,,,,,,,,,,,,,,,,,,,,,,,,,,,
,,,,,,,,,,,,,,,,,,,,,,,,,,,,,,,,
,,,,,,,,,,,,,,,,,,,,,,,,,,,,,,,,
,,,,,,,,,,,,,,,,,,,,,,,,,,,,,,,,
,,,,,,,,,,,,,,,,,,,,,,,,,,,,,,,,
,,,,,,,,,,,,,,,,,,,,,,,,,,,,,,,,
,,,,,,,,,,,,,,,,,,,,,,,,,,,,,,,,
,,,,,,,,,,,,,,,,,,,,,,,,,,,,,,,,
,,,,,,,,,,,,,,,,,,,,,,,,,,,,,,,,
,,,,,,,,,,,,,,,,,,,,,,,,,,,,,,,,
,,,,,,,,,,,,,,,,,,,,,,,,,,,,,,,,
,,,,,,,,,,,,,,,,,,,,,,,,,,,,,,,,
,,,,,,,,,,,,,,,,,,,,,,,,,,,,,,,,
,,,,,,,,,,,,,,,,,,,,,,,,,,,,,,,,
,,,,,,,,,,,,,,,,,,,,,,,,,,,,,,,,
,,,,,,,,,,,,,,,,,,,,,,,,,,,,,,,,
,,,,,,,,,,,,,,,,,,,,,,,,,,,,,,,,
,,,,,,,,,,,,,,,,,,,,,,,,,,,,,,,,
,,,,,,,,,,,,,,,,,,,,,,,,,,,,,,,,
,,,,,,,,,,,,,,,,,,,,,,,,,,,,,,,,
,,,,,,,,,,,,,,,,,,,,,,,,,,,,,,,,
,,,,,,,,,,,,,,,,,,,,,,,,,,,,,,,,
,,,,,,,,,,,,,,,,,,,,,,,,,,,,,,,,
,,,,,,,,,,,,,,,,,,,,,,,,,,,,,,,,
,,,,,,,,,,,,,,,,,,,,,,,,,,,,,,,,
,,,,,,,,,,,,,,,,,,,,,,,,,,,,,,,,
,,,,,,,,,,,,,,,,,,,,,,,,,,,,,,,,
,,,,,,,,,,,,,,,,,,,,,,,,,,,,,,,,
,,,,,,,,,,,,,,,,,,,,,,,,,,,,,,,,
,,,,,,,,,,,,,,,,,,,,,,,,,,,,,,,,
,,,,,,,,,,,,,,,,,,,,,,,,,,,,,,,,
,,,,,,,,,,,,,,,,,,,,,,,,,,,,,,,,
,,,,,,,,,,,,,,,,,,,,,,,,,,,,,,,,
,,,,,,,,,,,,,,,,,,,,,,,,,,,,,,,,
,,,,,,,,,,,,,,,,,,,,,,,,,,,,,,,,
,,,,,,,,,,,,,,,,,,,,,,,,,,,,,,,,
,,,,,,,,,,,,,,,,,,,,,,,,,,,,,,,,
,,,,,,,,,,,,,,,,,,,,,,,,,,,,,,,,
,,,,,,,,,,,,,,,,,,,,,,,,,,,,,,,,
,,,,,,,,,,,,,,,,,,,,,,,,,,,,,,,,
,,,,,,,,,,,,,,,,,,,,,,,,,,,,,,,,
,,,,,,,,,,,,,,,,,,,,,,,,,,,,,,,,
,,,,,,,,,,,,,,,,,,,,,,,,,,,,,,,,
,,,,,,,,,,,,,,,,,,,,,,,,,,,,,,,,
,,,,,,,,,,,,,,,,,,,,,,,,,,,,,,,,
,,,,,,,,,,,,,,,,,,,,,,,,,,,,,,,,
,,,,,,,,,,,,,,,,,,,,,,,,,,,,,,,,
,,,,,,,,,,,,,,,,,,,,,,,,,,,,,,,,
,,,,,,,,,,,,,,,,,,,,,,,,,,,,,,,,
,,,,,,,,,,,,,,,,,,,,,,,,,,,,,,,,
,,,,,,,,,,,,,,,,,,,,,,,,,,,,,,,,
,,,,,,,,,,,,,,,,,,,,,,,,,,,,,,,,
,,,,,,,,,,,,,,,,,,,,,,,,,,,,,,,,
,,,,,,,,,,,,,,,,,,,,,,,,,,,,,,,,
,,,,,,,,,,,,,,,,,,,,,,,,,,,,,,,,
,,,,,,,,,,,,,,,,,,,,,,,,,,,,,,,,
,,,,,,,,,,,,,,,,,,,,,,,,,,,,,,,,
,,,,,,,,,,,,,,,,,,,,,,,,,,,,,,,,
,,,,,,,,,,,,,,,,,,,,,,,,,,,,,,,,
,,,,,,,,,,,,,,,,,,,,,,,,,,,,,,,,
,,,,,,,,,,,,,,,,,,,,,,,,,,,,,,,,
,,,,,,,,,,,,,,,,,,,,,,,,,,,,,,,,
,,,,,,,,,,,,,,,,,,,,,,,,,,,,,,,,
,,,,,,,,,,,,,,,,,,,,,,,,,,,,,,,,
,,,,,,,,,,,,,,,,,,,,,,,,,,,,,,,,
,,,,,,,,,,,,,,,,,,,,,,,,,,,,,,,,
,,,,,,,,,,,,,,,,,,,,,,,,,,,,,,,,
,,,,,,,,,,,,,,,,,,,,,,,,,,,,,,,,
,,,,,,,,,,,,,,,,,,,,,,,,,,,,,,,,
,,,,,,,,,,,,,,,,,,,,,,,,,,,,,,,,
,,,,,,,,,,,,,,,,,,,,,,,,,,,,,,,,
,,,,,,,,,,,,,,,,,,,,,,,,,,,,,,,,
,,,,,,,,,,,,,,,,,,,,,,,,,,,,,,,,
,,,,,,,,,,,,,,,,,,,,,,,,,,,,,,,,
,,,,,,,,,,,,,,,,,,,,,,,,,,,,,,,,
,,,,,,,,,,,,,,,,,,,,,,,,,,,,,,,,
,,,,,,,,,,,,,,,,,,,,,,,,,,,,,,,,
,,,,,,,,,,,,,,,,,,,,,,,,,,,,,,,,
,,,,,,,,,,,,,,,,,,,,,,,,,,,,,,,,
,,,,,,,,,,,,,,,,,,,,,,,,,,,,,,,,
,,,,,,,,,,,,,,,,,,,,,,,,,,,,,,,,
,,,,,,,,,,,,,,,,,,,,,,,,,,,,,,,,
,,,,,,,,,,,,,,,,,,,,,,,,,,,,,,,,
,,,,,,,,,,,,,,,,,,,,,,,,,,,,,,,,
,,,,,,,,,,,,,,,,,,,,,,,,,,,,,,,,
,,,,,,,,,,,,,,,,,,,,,,,,,,,,,,,,
,,,,,,,,,,,,,,,,,,,,,,,,,,,,,,,,
,,,,,,,,,,,,,,,,,,,,,,,,,,,,,,,,
,,,,,,,,,,,,,,,,,,,,,,,,,,,,,,,,
,,,,,,,,,,,,,,,,,,,,,,,,,,,,,,,,
,,,,,,,,,,,,,,,,,,,,,,,,,,,,,,,,
,,,,,,,,,,,,,,,,,,,,,,,,,,,,,,,,
,,,,,,,,,,,,,,,,,,,,,,,,,,,,,,,,
,,,,,,,,,,,,,,,,,,,,,,,,,,,,,,,,
,,,,,,,,,,,,,,,,,,,,,,,,,,,,,,,,
,,,,,,,,,,,,,,,,,,,,,,,,,,,,,,,,
,,,,,,,,,,,,,,,,,,,,,,,,,,,,,,,,
,,,,,,,,,,,,,,,,,,,,,,,,,,,,,,,,
,,,,,,,,,,,,,,,,,,,,,,,,,,,,,,,,
,,,,,,,,,,,,,,,,,,,,,,,,,,,,,,,,
,,,,,,,,,,,,,,,,,,,,,,,,,,,,,,,,
,,,,,,,,,,,,,,,,,,,,,,,,,,,,,,,,
,,,,,,,,,,,,,,,,,,,,,,,,,,,,,,,,
,,,,,,,,,,,,,,,,,,,,,,,,,,,,,,,,
,,,,,,,,,,,,,,,,,,,,,,,,,,,,,,,,
,,,,,,,,,,,,,,,,,,,,,,,,,,,,,,,,
,,,,,,,,,,,,,,,,,,,,,,,,,,,,,,,,
,,,,,,,,,,,,,,,,,,,,,,,,,,,,,,,,
,,,,,,,,,,,,,,,,,,,,,,,,,,,,,,,,
,,,,,,,,,,,,,,,,,,,,,,,,,,,,,,,,
,,,,,,,,,,,,,,,,,,,,,,,,,,,,,,,,
,,,,,,,,,,,,,,,,,,,,,,,,,,,,,,,,
,,,,,,,,,,,,,,,,,,,,,,,,,,,,,,,,
,,,,,,,,,,,,,,,,,,,,,,,,,,,,,,,,
,,,,,,,,,,,,,,,,,,,,,,,,,,,,,,,,
,,,,,,,,,,,,,,,,,,,,,,,,,,,,,,,,
,,,,,,,,,,,,,,,,,,,,,,,,,,,,,,,,
,,,,,,,,,,,,,,,,,,,,,,,,,,,,,,,,
,,,,,,,,,,,,,,,,,,,,,,,,,,,,,,,,
,,,,,,,,,,,,,,,,,,,,,,,,,,,,,,,,
,,,,,,,,,,,,,,,,,,,,,,,,,,,,,,,,
,,,,,,,,,,,,,,,,,,,,,,,,,,,,,,,,
,,,,,,,,,,,,,,,,,,,,,,,,,,,,,,,,
,,,,,,,,,,,,,,,,,,,,,,,,,,,,,,,,
,,,,,,,,,,,,,,,,,,,,,,,,,,,,,,,,
,,,,,,,,,,,,,,,,,,,,,,,,,,,,,,,,
,,,,,,,,,,,,,,,,,,,,,,,,,,,,,,,,
,,,,,,,,,,,,,,,,,,,,,,,,,,,,,,,,
,,,,,,,,,,,,,,,,,,,,,,,,,,,,,,,,
,,,,,,,,,,,,,,,,,,,,,,,,,,,,,,,,
,,,,,,,,,,,,,,,,,,,,,,,,,,,,,,,,
,,,,,,,,,,,,,,,,,,,,,,,,,,,,,,,,
,,,,,,,,,,,,,,,,,,,,,,,,,,,,,,,,
,,,,,,,,,,,,,,,,,,,,,,,,,,,,,,,,
,,,,,,,,,,,,,,,,,,,,,,,,,,,,,,,,
,,,,,,,,,,,,,,,,,,,,,,,,,,,,,,,,
,,,,,,,,,,,,,,,,,,,,,,,,,,,,,,,,
,,,,,,,,,,,,,,,,,,,,,,,,,,,,,,,,
,,,,,,,,,,,,,,,,,,,,,,,,,,,,,,,,
,,,,,,,,,,,,,,,,,,,,,,,,,,,,,,,,
,,,,,,,,,,,,,,,,,,,,,,,,,,,,,,,,
,,,,,,,,,,,,,,,,,,,,,,,,,,,,,,,,
,,,,,,,,,,,,,,,,,,,,,,,,,,,,,,,,
,,,,,,,,,,,,,,,,,,,,,,,,,,,,,,,,
,,,,,,,,,,,,,,,,,,,,,,,,,,,,,,,,
,,,,,,,,,,,,,,,,,,,,,,,,,,,,,,,,
,,,,,,,,,,,,,,,,,,,,,,,,,,,,,,,,
,,,,,,,,,,,,,,,,,,,,,,,,,,,,,,,,
,,,,,,,,,,,,,,,,,,,,,,,,,,,,,,,,
,,,,,,,,,,,,,,,,,,,,,,,,,,,,,,,,
,,,,,,,,,,,,,,,,,,,,,,,,,,,,,,,,
,,,,,,,,,,,,,,,,,,,,,,,,,,,,,,,,
,,,,,,,,,,,,,,,,,,,,,,,,,,,,,,,,
,,,,,,,,,,,,,,,,,,,,,,,,,,,,,,,,
,,,,,,,,,,,,,,,,,,,,,,,,,,,,,,,,
,,,,,,,,,,,,,,,,,,,,,,,,,,,,,,,,
,,,,,,,,,,,,,,,,,,,,,,,,,,,,,,,,
,,,,,,,,,,,,,,,,,,,,,,,,,,,,,,,,
,,,,,,,,,,,,,,,,,,,,,,,,,,,,,,,,
,,,,,,,,,,,,,,,,,,,,,,,,,,,,,,,,
,,,,,,,,,,,,,,,,,,,,,,,,,,,,,,,,
,,,,,,,,,,,,,,,,,,,,,,,,,,,,,,,,
,,,,,,,,,,,,,,,,,,,,,,,,,,,,,,,,
,,,,,,,,,,,,,,,,,,,,,,,,,,,,,,,,
,,,,,,,,,,,,,,,,,,,,,,,,,,,,,,,,
,,,,,,,,,,,,,,,,,,,,,,,,,,,,,,,,
,,,,,,,,,,,,,,,,,,,,,,,,,,,,,,,,
,,,,,,,,,,,,,,,,,,,,,,,,,,,,,,,,
,,,,,,,,,,,,,,,,,,,,,,,,,,,,,,,,
,,,,,,,,,,,,,,,,,,,,,,,,,,,,,,,,
,,,,,,,,,,,,,,,,,,,,,,,,,,,,,,,,
,,,,,,,,,,,,,,,,,,,,,,,,,,,,,,,,
,,,,,,,,,,,,,,,,,,,,,,,,,,,,,,,,
,,,,,,,,,,,,,,,,,,,,,,,,,,,,,,,,
,,,,,,,,,,,,,,,,,,,,,,,,,,,,,,,,
,,,,,,,,,,,,,,,,,,,,,,,,,,,,,,,,
,,,,,,,,,,,,,,,,,,,,,,,,,,,,,,,,
,,,,,,,,,,,,,,,,,,,,,,,,,,,,,,,,
,,,,,,,,,,,,,,,,,,,,,,,,,,,,,,,,
,,,,,,,,,,,,,,,,,,,,,,,,,,,,,,,,
,,,,,,,,,,,,,,,,,,,,,,,,,,,,,,,,
,,,,,,,,,,,,,,,,,,,,,,,,,,,,,,,,
,,,,,,,,,,,,,,,,,,,,,,,,,,,,,,,,
,,,,,,,,,,,,,,,,,,,,,,,,,,,,,,,,
,,,,,,,,,,,,,,,,,,,,,,,,,,,,,,,,
,,,,,,,,,,,,,,,,,,,,,,,,,,,,,,,,
,,,,,,,,,,,,,,,,,,,,,,,,,,,,,,,,
,,,,,,,,,,,,,,,,,,,,,,,,,,,,,,,,
,,,,,,,,,,,,,,,,,,,,,,,,,,,,,,,,
,,,,,,,,,,,,,,,,,,,,,,,,,,,,,,,,
,,,,,,,,,,,,,,,,,,,,,,,,,,,,,,,,
,,,,,,,,,,,,,,,,,,,,,,,,,,,,,,,,
,,,,,,,,,,,,,,,,,,,,,,,,,,,,,,,,
,,,,,,,,,,,,,,,,,,,,,,,,,,,,,,,,
,,,,,,,,,,,,,,,,,,,,,,,,,,,,,,,,
,,,,,,,,,,,,,,,,,,,,,,,,,,,,,,,,
,,,,,,,,,,,,,,,,,,,,,,,,,,,,,,,,
,,,,,,,,,,,,,,,,,,,,,,,,,,,,,,,,
,,,,,,,,,,,,,,,,,,,,,,,,,,,,,,,,
,,,,,,,,,,,,,,,,,,,,,,,,,,,,,,,,
,,,,,,,,,,,,,,,,,,,,,,,,,,,,,,,,
,,,,,,,,,,,,,,,,,,,,,,,,,,,,,,,,
,,,,,,,,,,,,,,,,,,,,,,,,,,,,,,,,
,,,,,,,,,,,,,,,,,,,,,,,,,,,,,,,,
,,,,,,,,,,,,,,,,,,,,,,,,,,,,,,,,
,,,,,,,,,,,,,,,,,,,,,,,,,,,,,,,,
,,,,,,,,,,,,,,,,,,,,,,,,,,,,,,,,
,,,,,,,,,,,,,,,,,,,,,,,,,,,,,,,,
,,,,,,,,,,,,,,,,,,,,,,,,,,,,,,,,
,,,,,,,,,,,,,,,,,,,,,,,,,,,,,,,,
,,,,,,,,,,,,,,,,,,,,,,,,,,,,,,,,
,,,,,,,,,,,,,,,,,,,,,,,,,,,,,,,,
,,,,,,,,,,,,,,,,,,,,,,,,,,,,,,,,
,,,,,,,,,,,,,,,,,,,,,,,,,,,,,,,,
,,,,,,,,,,,,,,,,,,,,,,,,,,,,,,,,
,,,,,,,,,,,,,,,,,,,,,,,,,,,,,,,,
,,,,,,,,,,,,,,,,,,,,,,,,,,,,,,,,
,,,,,,,,,,,,,,,,,,,,,,,,,,,,,,,,
,,,,,,,,,,,,,,,,,,,,,,,,,,,,,,,,
,,,,,,,,,,,,,,,,,,,,,,,,,,,,,,,,
,,,,,,,,,,,,,,,,,,,,,,,,,,,,,,,,
,,,,,,,,,,,,,,,,,,,,,,,,,,,,,,,,
,,,,,,,,,,,,,,,,,,,,,,,,,,,,,,,,
,,,,,,,,,,,,,,,,,,,,,,,,,,,,,,,,
,,,,,,,,,,,,,,,,,,,,,,,,,,,,,,,,
,,,,,,,,,,,,,,,,,,,,,,,,,,,,,,,,
,,,,,,,,,,,,,,,,,,,,,,,,,,,,,,,,
,,,,,,,,,,,,,,,,,,,,,,,,,,,,,,,,
,,,,,,,,,,,,,,,,,,,,,,,,,,,,,,,,
,,,,,,,,,,,,,,,,,,,,,,,,,,,,,,,,
,,,,,,,,,,,,,,,,,,,,,,,,,,,,,,,,
,,,,,,,,,,,,,,,,,,,,,,,,,,,,,,,,
,,,,,,,,,,,,,,,,,,,,,,,,,,,,,,,,
,,,,,,,,,,,,,,,,,,,,,,,,,,,,,,,,
,,,,,,,,,,,,,,,,,,,,,,,,,,,,,,,,
,,,,,,,,,,,,,,,,,,,,,,,,,,,,,,,,
,,,,,,,,,,,,,,,,,,,,,,,,,,,,,,,,
,,,,,,,,,,,,,,,,,,,,,,,,,,,,,,,,
,,,,,,,,,,,,,,,,,,,,,,,,,,,,,,,,
,,,,,,,,,,,,,,,,,,,,,,,,,,,,,,,,
,,,,,,,,,,,,,,,,,,,,,,,,,,,,,,,,
,,,,,,,,,,,,,,,,,,,,,,,,,,,,,,,,
,,,,,,,,,,,,,,,,,,,,,,,,,,,,,,,,
,,,,,,,,,,,,,,,,,,,,,,,,,,,,,,,,
,,,,,,,,,,,,,,,,,,,,,,,,,,,,,,,,
,,,,,,,,,,,,,,,,,,,,,,,,,,,,,,,,
,,,,,,,,,,,,,,,,,,,,,,,,,,,,,,,,
,,,,,,,,,,,,,,,,,,,,,,,,,,,,,,,,
,,,,,,,,,,,,,,,,,,,,,,,,,,,,,,,,
,,,,,,,,,,,,,,,,,,,,,,,,,,,,,,,,
,,,,,,,,,,,,,,,,,,,,,,,,,,,,,,,,
,,,,,,,,,,,,,,,,,,,,,,,,,,,,,,,,
,,,,,,,,,,,,,,,,,,,,,,,,,,,,,,,,
,,,,,,,,,,,,,,,,,,,,,,,,,,,,,,,,
,,,,,,,,,,,,,,,,,,,,,,,,,,,,,,,,
,,,,,,,,,,,,,,,,,,,,,,,,,,,,,,,,
,,,,,,,,,,,,,,,,,,,,,,,,,,,,,,,,
,,,,,,,,,,,,,,,,,,,,,,,,,,,,,,,,
,,,,,,,,,,,,,,,,,,,,,,,,,,,,,,,,
,,,,,,,,,,,,,,,,,,,,,,,,,,,,,,,,
,,,,,,,,,,,,,,,,,,,,,,,,,,,,,,,,
,,,,,,,,,,,,,,,,,,,,,,,,,,,,,,,,
,,,,,,,,,,,,,,,,,,,,,,,,,,,,,,,,
,,,,,,,,,,,,,,,,,,,,,,,,,,,,,,,,
,,,,,,,,,,,,,,,,,,,,,,,,,,,,,,,,
,,,,,,,,,,,,,,,,,,,,,,,,,,,,,,,,
,,,,,,,,,,,,,,,,,,,,,,,,,,,,,,,,
,,,,,,,,,,,,,,,,,,,,,,,,,,,,,,,,
,,,,,,,,,,,,,,,,,,,,,,,,,,,,,,,,
,,,,,,,,,,,,,,,,,,,,,,,,,,,,,,,,
,,,,,,,,,,,,,,,,,,,,,,,,,,,,,,,,
,,,,,,,,,,,,,,,,,,,,,,,,,,,,,,,,
,,,,,,,,,,,,,,,,,,,,,,,,,,,,,,,,
,,,,,,,,,,,,,,,,,,,,,,,,,,,,,,,,
,,,,,,,,,,,,,,,,,,,,,,,,,,,,,,,,
,,,,,,,,,,,,,,,,,,,,,,,,,,,,,,,,
,,,,,,,,,,,,,,,,,,,,,,,,,,,,,,,,
,,,,,,,,,,,,,,,,,,,,,,,,,,,,,,,,
,,,,,,,,,,,,,,,,,,,,,,,,,,,,,,,,
,,,,,,,,,,,,,,,,,,,,,,,,,,,,,,,,
,,,,,,,,,,,,,,,,,,,,,,,,,,,,,,,,
,,,,,,,,,,,,,,,,,,,,,,,,,,,,,,,,
,,,,,,,,,,,,,,,,,,,,,,,,,,,,,,,,
,,,,,,,,,,,,,,,,,,,,,,,,,,,,,,,,
,,,,,,,,,,,,,,,,,,,,,,,,,,,,,,,,
,,,,,,,,,,,,,,,,,,,,,,,,,,,,,,,,
,,,,,,,,,,,,,,,,,,,,,,,,,,,,,,,,
,,,,,,,,,,,,,,,,,,,,,,,,,,,,,,,,
,,,,,,,,,,,,,,,,,,,,,,,,,,,,,,,,
,,,,,,,,,,,,,,,,,,,,,,,,,,,,,,,,
,,,,,,,,,,,,,,,,,,,,,,,,,,,,,,,,
,,,,,,,,,,,,,,,,,,,,,,,,,,,,,,,,
,,,,,,,,,,,,,,,,,,,,,,,,,,,,,,,,
,,,,,,,,,,,,,,,,,,,,,,,,,,,,,,,,
,,,,,,,,,,,,,,,,,,,,,,,,,,,,,,,,
,,,,,,,,,,,,,,,,,,,,,,,,,,,,,,,,
,,,,,,,,,,,,,,,,,,,,,,,,,,,,,,,,
,,,,,,,,,,,,,,,,,,,,,,,,,,,,,,,,
,,,,,,,,,,,,,,,,,,,,,,,,,,,,,,,,
,,,,,,,,,,,,,,,,,,,,,,,,,,,,,,,,
,,,,,,,,,,,,,,,,,,,,,,,,,,,,,,,,
,,,,,,,,,,,,,,,,,,,,,,,,,,,,,,,,
,,,,,,,,,,,,,,,,,,,,,,,,,,,,,,,,
,,,,,,,,,,,,,,,,,,,,,,,,,,,,,,,,
,,,,,,,,,,,,,,,,,,,,,,,,,,,,,,,,
,,,,,,,,,,,,,,,,,,,,,,,,,,,,,,,,
,,,,,,,,,,,,,,,,,,,,,,,,,,,,,,,,
,,,,,,,,,,,,,,,,,,,,,,,,,,,,,,,,
,,,,,,,,,,,,,,,,,,,,,,,,,,,,,,,,
,,,,,,,,,,,,,,,,,,,,,,,,,,,,,,,,
,,,,,,,,,,,,,,,,,,,,,,,,,,,,,,,,
,,,,,,,,,,,,,,,,,,,,,,,,,,,,,,,,
,,,,,,,,,,,,,,,,,,,,,,,,,,,,,,,,
,,,,,,,,,,,,,,,,,,,,,,,,,,,,,,,,
,,,,,,,,,,,,,,,,,,,,,,,,,,,,,,,,
,,,,,,,,,,,,,,,,,,,,,,,,,,,,,,,,
,,,,,,,,,,,,,,,,,,,,,,,,,,,,,,,,
,,,,,,,,,,,,,,,,,,,,,,,,,,,,,,,,
,,,,,,,,,,,,,,,,,,,,,,,,,,,,,,,,
,,,,,,,,,,,,,,,,,,,,,,,,,,,,,,,,
,,,,,,,,,,,,,,,,,,,,,,,,,,,,,,,,
,,,,,,,,,,,,,,,,,,,,,,,,,,,,,,,,
,,,,,,,,,,,,,,,,,,,,,,,,,,,,,,,,
,,,,,,,,,,,,,,,,,,,,,,,,,,,,,,,,
,,,,,,,,,,,,,,,,,,,,,,,,,,,,,,,,
,,,,,,,,,,,,,,,,,,,,,,,,,,,,,,,,
,,,,,,,,,,,,,,,,,,,,,,,,,,,,,,,,
,,,,,,,,,,,,,,,,,,,,,,,,,,,,,,,,
,,,,,,,,,,,,,,,,,,,,,,,,,,,,,,,,
,,,,,,,,,,,,,,,,,,,,,,,,,,,,,,,,
,,,,,,,,,,,,,,,,,,,,,,,,,,,,,,,,
,,,,,,,,,,,,,,,,,,,,,,,,,,,,,,,,
,,,,,,,,,,,,,,,,,,,,,,,,,,,,,,,,
,,,,,,,,,,,,,,,,,,,,,,,,,,,,,,,,
,,,,,,,,,,,,,,,,,,,,,,,,,,,,,,,,
,,,,,,,,,,,,,,,,,,,,,,,,,,,,,,,,
,,,,,,,,,,,,,,,,,,,,,,,,,,,,,,,,
,,,,,,,,,,,,,,,,,,,,,,,,,,,,,,,,
,,,,,,,,,,,,,,,,,,,,,,,,,,,,,,,,
,,,,,,,,,,,,,,,,,,,,,,,,,,,,,,,,
,,,,,,,,,,,,,,,,,,,,,,,,,,,,,,,,
,,,,,,,,,,,,,,,,,,,,,,,,,,,,,,,,
,,,,,,,,,,,,,,,,,,,,,,,,,,,,,,,,
,,,,,,,,,,,,,,,,,,,,,,,,,,,,,,,,
,,,,,,,,,,,,,,,,,,,,,,,,,,,,,,,,
,,,,,,,,,,,,,,,,,,,,,,,,,,,,,,,,
,,,,,,,,,,,,,,,,,,,,,,,,,,,,,,,,
,,,,,,,,,,,,,,,,,,,,,,,,,,,,,,,,
,,,,,,,,,,,,,,,,,,,,,,,,,,,,,,,,
,,,,,,,,,,,,,,,,,,,,,,,,,,,,,,,,
,,,,,,,,,,,,,,,,,,,,,,,,,,,,,,,,
,,,,,,,,,,,,,,,,,,,,,,,,,,,,,,,,
,,,,,,,,,,,,,,,,,,,,,,,,,,,,,,,,
,,,,,,,,,,,,,,,,,,,,,,,,,,,,,,,,
,,,,,,,,,,,,,,,,,,,,,,,,,,,,,,,,
,,,,,,,,,,,,,,,,,,,,,,,,,,,,,,,,
,,,,,,,,,,,,,,,,,,,,,,,,,,,,,,,,
,,,,,,,,,,,,,,,,,,,,,,,,,,,,,,,,
,,,,,,,,,,,,,,,,,,,,,,,,,,,,,,,,
,,,,,,,,,,,,,,,,,,,,,,,,,,,,,,,,
,,,,,,,,,,,,,,,,,,,,,,,,,,,,,,,,
,,,,,,,,,,,,,,,,,,,,,,,,,,,,,,,,
,,,,,,,,,,,,,,,,,,,,,,,,,,,,,,,,
,,,,,,,,,,,,,,,,,,,,,,,,,,,,,,,,
,,,,,,,,,,,,,,,,,,,,,,,,,,,,,,,,
,,,,,,,,,,,,,,,,,,,,,,,,,,,,,,,,
,,,,,,,,,,,,,,,,,,,,,,,,,,,,,,,,
,,,,,,,,,,,,,,,,,,,,,,,,,,,,,,,,
,,,,,,,,,,,,,,,,,,,,,,,,,,,,,,,,
,,,,,,,,,,,,,,,,,,,,,,,,,,,,,,,,
,,,,,,,,,,,,,,,,,,,,,,,,,,,,,,,,
,,,,,,,,,,,,,,,,,,,,,,,,,,,,,,,,
,,,,,,,,,,,,,,,,,,,,,,,,,,,,,,,,
,,,,,,,,,,,,,,,,,,,,,,,,,,,,,,,,
,,,,,,,,,,,,,,,,,,,,,,,,,,,,,,,,
,,,,,,,,,,,,,,,,,,,,,,,,,,,,,,,,
,,,,,,,,,,,,,,,,,,,,,,,,,,,,,,,,
,,,,,,,,,,,,,,,,,,,,,,,,,,,,,,,,
,,,,,,,,,,,,,,,,,,,,,,,,,,,,,,,,
,,,,,,,,,,,,,,,,,,,,,,,,,,,,,,,,
,,,,,,,,,,,,,,,,,,,,,,,,,,,,,,,,
,,,,,,,,,,,,,,,,,,,,,,,,,,,,,,,,
,,,,,,,,,,,,,,,,,,,,,,,,,,,,,,,,
,,,,,,,,,,,,,,,,,,,,,,,,,,,,,,,,
,,,,,,,,,,,,,,,,,,,,,,,,,,,,,,,,
,,,,,,,,,,,,,,,,,,,,,,,,,,,,,,,,
,,,,,,,,,,,,,,,,,,,,,,,,,,,,,,,,
,,,,,,,,,,,,,,,,,,,,,,,,,,,,,,,,
,,,,,,,,,,,,,,,,,,,,,,,,,,,,,,,,
,,,,,,,,,,,,,,,,,,,,,,,,,,,,,,,,
,,,,,,,,,,,,,,,,,,,,,,,,,,,,,,,,
,,,,,,,,,,,,,,,,,,,,,,,,,,,,,,,,
,,,,,,,,,,,,,,,,,,,,,,,,,,,,,,,,
,,,,,,,,,,,,,,,,,,,,,,,,,,,,,,,,
,,,,,,,,,,,,,,,,,,,,,,,,,,,,,,,,
,,,,,,,,,,,,,,,,,,,,,,,,,,,,,,,,
,,,,,,,,,,,,,,,,,,,,,,,,,,,,,,,,
,,,,,,,,,,,,,,,,,,,,,,,,,,,,,,,,
,,,,,,,,,,,,,,,,,,,,,,,,,,,,,,,,
,,,,,,,,,,,,,,,,,,,,,,,,,,,,,,,,
,,,,,,,,,,,,,,,,,,,,,,,,,,,,,,,,
,,,,,,,,,,,,,,,,,,,,,,,,,,,,,,,,
,,,,,,,,,,,,,,,,,,,,,,,,,,,,,,,,
,,,,,,,,,,,,,,,,,,,,,,,,,,,,,,,,
,,,,,,,,,,,,,,,,,,,,,,,,,,,,,,,,
,,,,,,,,,,,,,,,,,,,,,,,,,,,,,,,,
,,,,,,,,,,,,,,,,,,,,,,,,,,,,,,,,
,,,,,,,,,,,,,,,,,,,,,,,,,,,,,,,,
,,,,,,,,,,,,,,,,,,,,,,,,,,,,,,,,
,,,,,,,,,,,,,,,,,,,,,,,,,,,,,,,,
,,,,,,,,,,,,,,,,,,,,,,,,,,,,,,,,
,,,,,,,,,,,,,,,,,,,,,,,,,,,,,,,,
,,,,,,,,,,,,,,,,,,,,,,,,,,,,,,,,
,,,,,,,,,,,,,,,,,,,,,,,,,,,,,,,,
,,,,,,,,,,,,,,,,,,,,,,,,,,,,,,,,
,,,,,,,,,,,,,,,,,,,,,,,,,,,,,,,,
,,,,,,,,,,,,,,,,,,,,,,,,,,,,,,,,
,,,,,,,,,,,,,,,,,,,,,,,,,,,,,,,,
,,,,,,,,,,,,,,,,,,,,,,,,,,,,,,,,
,,,,,,,,,,,,,,,,,,,,,,,,,,,,,,,,
,,,,,,,,,,,,,,,,,,,,,,,,,,,,,,,,
,,,,,,,,,,,,,,,,,,,,,,,,,,,,,,,,
,,,,,,,,,,,,,,,,,,,,,,,,,,,,,,,,
,,,,,,,,,,,,,,,,,,,,,,,,,,,,,,,,
,,,,,,,,,,,,,,,,,,,,,,,,,,,,,,,,
,,,,,,,,,,,,,,,,,,,,,,,,,,,,,,,,
,,,,,,,,,,,,,,,,,,,,,,,,,,,,,,,,
,,,,,,,,,,,,,,,,,,,,,,,,,,,,,,,,
,,,,,,,,,,,,,,,,,,,,,,,,,,,,,,,,
,,,,,,,,,,,,,,,,,,,,,,,,,,,,,,,,
,,,,,,,,,,,,,,,,,,,,,,,,,,,,,,,,
,,,,,,,,,,,,,,,,,,,,,,,,,,,,,,,,
,,,,,,,,,,,,,,,,,,,,,,,,,,,,,,,,
,,,,,,,,,,,,,,,,,,,,,,,,,,,,,,,,
,,,,,,,,,,,,,,,,,,,,,,,,,,,,,,,,
,,,,,,,,,,,,,,,,,,,,,,,,,,,,,,,,
,,,,,,,,,,,,,,,,,,,,,,,,,,,,,,,,
,,,,,,,,,,,,,,,,,,,,,,,,,,,,,,,,
,,,,,,,,,,,,,,,,,,,,,,,,,,,,,,,,
,,,,,,,,,,,,,,,,,,,,,,,,,,,,,,,,
,,,,,,,,,,,,,,,,,,,,,,,,,,,,,,,,
,,,,,,,,,,,,,,,,,,,,,,,,,,,,,,,,
,,,,,,,,,,,,,,,,,,,,,,,,,,,,,,,,
,,,,,,,,,,,,,,,,,,,,,,,,,,,,,,,,
,,,,,,,,,,,,,,,,,,,,,,,,,,,,,,,,
,,,,,,,,,,,,,,,,,,,,,,,,,,,,,,,,
,,,,,,,,,,,,,,,,,,,,,,,,,,,,,,,,
,,,,,,,,,,,,,,,,,,,,,,,,,,,,,,,,
,,,,,,,,,,,,,,,,,,,,,,,,,,,,,,,,
,,,,,,,,,,,,,,,,,,,,,,,,,,,,,,,,
,,,,,,,,,,,,,,,,,,,,,,,,,,,,,,,,
,,,,,,,,,,,,,,,,,,,,,,,,,,,,,,,,
,,,,,,,,,,,,,,,,,,,,,,,,,,,,,,,,
,,,,,,,,,,,,,,,,,,,,,,,,,,,,,,,,
,,,,,,,,,,,,,,,,,,,,,,,,,,,,,,,,
,,,,,,,,,,,,,,,,,,,,,,,,,,,,,,,,
,,,,,,,,,,,,,,,,,,,,,,,,,,,,,,,,
,,,,,,,,,,,,,,,,,,,,,,,,,,,,,,,,
,,,,,,,,,,,,,,,,,,,,,,,,,,,,,,,,
,,,,,,,,,,,,,,,,,,,,,,,,,,,,,,,,
,,,,,,,,,,,,,,,,,,,,,,,,,,,,,,,,
,,,,,,,,,,,,,,,,,,,,,,,,,,,,,,,,
,,,,,,,,,,,,,,,,,,,,,,,,,,,,,,,,
,,,,,,,,,,,,,,,,,,,,,,,,,,,,,,,,
,,,,,,,,,,,,,,,,,,,,,,,,,,,,,,,,
,,,,,,,,,,,,,,,,,,,,,,,,,,,,,,,,
,,,,,,,,,,,,,,,,,,,,,,,,,,,,,,,,
,,,,,,,,,,,,,,,,,,,,,,,,,,,,,,,,
,,,,,,,,,,,,,,,,,,,,,,,,,,,,,,,,
,,,,,,,,,,,,,,,,,,,,,,,,,,,,,,,,
,,,,,,,,,,,,,,,,,,,,,,,,,,,,,,,,
,,,,,,,,,,,,,,,,,,,,,,,,,,,,,,,,
,,,,,,,,,,,,,,,,,,,,,,,,,,,,,,,,
,,,,,,,,,,,,,,,,,,,,,,,,,,,,,,,,
,,,,,,,,,,,,,,,,,,,,,,,,,,,,,,,,
,,,,,,,,,,,,,,,,,,,,,,,,,,,,,,,,
,,,,,,,,,,,,,,,,,,,,,,,,,,,,,,,,
,,,,,,,,,,,,,,,,,,,,,,,,,,,,,,,,
,,,,,,,,,,,,,,,,,,,,,,,,,,,,,,,,
,,,,,,,,,,,,,,,,,,,,,,,,,,,,,,,,
,,,,,,,,,,,,,,,,,,,,,,,,,,,,,,,,
,,,,,,,,,,,,,,,,,,,,,,,,,,,,,,,,
,,,,,,,,,,,,,,,,,,,,,,,,,,,,,,,,
,,,,,,,,,,,,,,,,,,,,,,,,,,,,,,,,
,,,,,,,,,,,,,,,,,,,,,,,,,,,,,,,,
,,,,,,,,,,,,,,,,,,,,,,,,,,,,,,,,
,,,,,,,,,,,,,,,,,,,,,,,,,,,,,,,,
,,,,,,,,,,,,,,,,,,,,,,,,,,,,,,,,
,,,,,,,,,,,,,,,,,,,,,,,,,,,,,,,,
,,,,,,,,,,,,,,,,,,,,,,,,,,,,,,,,
,,,,,,,,,,,,,,,,,,,,,,,,,,,,,,,,
,,,,,,,,,,,,,,,,,,,,,,,,,,,,,,,,
,,,,,,,,,,,,,,,,,,,,,,,,,,,,,,,,
,,,,,,,,,,,,,,,,,,,,,,,,,,,,,,,,
,,,,,,,,,,,,,,,,,,,,,,,,,,,,,,,,
,,,,,,,,,,,,,,,,,,,,,,,,,,,,,,,,
,,,,,,,,,,,,,,,,,,,,,,,,,,,,,,,,
,,,,,,,,,,,,,,,,,,,,,,,,,,,,,,,,
,,,,,,,,,,,,,,,,,,,,,,,,,,,,,,,,
,,,,,,,,,,,,,,,,,,,,,,,,,,,,,,,,
,,,,,,,,,,,,,,,,,,,,,,,,,,,,,,,,
,,,,,,,,,,,,,,,,,,,,,,,,,,,,,,,,
,,,,,,,,,,,,,,,,,,,,,,,,,,,,,,,,
,,,,,,,,,,,,,,,,,,,,,,,,,,,,,,,,
,,,,,,,,,,,,,,,,,,,,,,,,,,,,,,,,
,,,,,,,,,,,,,,,,,,,,,,,,,,,,,,,,
,,,,,,,,,,,,,,,,,,,,,,,,,,,,,,,,
,,,,,,,,,,,,,,,,,,,,,,,,,,,,,,,,
,,,,,,,,,,,,,,,,,,,,,,,,,,,,,,,,
,,,,,,,,,,,,,,,,,,,,,,,,,,,,,,,,
,,,,,,,,,,,,,,,,,,,,,,,,,,,,,,,,
,,,,,,,,,,,,,,,,,,,,,,,,,,,,,,,,
,,,,,,,,,,,,,,,,,,,,,,,,,,,,,,,,
,,,,,,,,,,,,,,,,,,,,,,,,,,,,,,,,
,,,,,,,,,,,,,,,,,,,,,,,,,,,,,,,,
,,,,,,,,,,,,,,,,,,,,,,,,,,,,,,,,
,,,,,,,,,,,,,,,,,,,,,,,,,,,,,,,,
,,,,,,,,,,,,,,,,,,,,,,,,,,,,,,,,
,,,,,,,,,,,,,,,,,,,,,,,,,,,,,,,,
,,,,,,,,,,,,,,,,,,,,,,,,,,,,,,,,
,,,,,,,,,,,,,,,,,,,,,,,,,,,,,,,,
,,,,,,,,,,,,,,,,,,,,,,,,,,,,,,,,
,,,,,,,,,,,,,,,,,,,,,,,,,,,,,,,,
,,,,,,,,,,,,,,,,,,,,,,,,,,,,,,,,
,,,,,,,,,,,,,,,,,,,,,,,,,,,,,,,,
,,,,,,,,,,,,,,,,,,,,,,,,,,,,,,,,
,,,,,,,,,,,,,,,,,,,,,,,,,,,,,,,,
,,,,,,,,,,,,,,,,,,,,,,,,,,,,,,,,
,,,,,,,,,,,,,,,,,,,,,,,,,,,,,,,,
,,,,,,,,,,,,,,,,,,,,,,,,,,,,,,,,
,,,,,,,,,,,,,,,,,,,,,,,,,,,,,,,,
,,,,,,,,,,,,,,,,,,,,,,,,,,,,,,,,
,,,,,,,,,,,,,,,,,,,,,,,,,,,,,,,,
,,,,,,,,,,,,,,,,,,,,,,,,,,,,,,,,
,,,,,,,,,,,,,,,,,,,,,,,,,,,,,,,,
,,,,,,,,,,,,,,,,,,,,,,,,,,,,,,,,
,,,,,,,,,,,,,,,,,,,,,,,,,,,,,,,,
,,,,,,,,,,,,,,,,,,,,,,,,,,,,,,,,
,,,,,,,,,,,,,,,,,,,,,,,,,,,,,,,,
,,,,,,,,,,,,,,,,,,,,,,,,,,,,,,,,
,,,,,,,,,,,,,,,,,,,,,,,,,,,,,,,,
,,,,,,,,,,,,,,,,,,,,,,,,,,,,,,,,
,,,,,,,,,,,,,,,,,,,,,,,,,,,,,,,,
,,,,,,,,,,,,,,,,,,,,,,,,,,,,,,,,
,,,,,,,,,,,,,,,,,,,,,,,,,,,,,,,,
,,,,,,,,,,,,,,,,,,,,,,,,,,,,,,,,
,,,,,,,,,,,,,,,,,,,,,,,,,,,,,,,,
,,,,,,,,,,,,,,,,,,,,,,,,,,,,,,,,
,,,,,,,,,,,,,,,,,,,,,,,,,,,,,,,,
,,,,,,,,,,,,,,,,,,,,,,,,,,,,,,,,
,,,,,,,,,,,,,,,,,,,,,,,,,,,,,,,,
,,,,,,,,,,,,,,,,,,,,,,,,,,,,,,,,
,,,,,,,,,,,,,,,,,,,,,,,,,,,,,,,,
,,,,,,,,,,,,,,,,,,,,,,,,,,,,,,,,
,,,,,,,,,,,,,,,,,,,,,,,,,,,,,,,,
,,,,,,,,,,,,,,,,,,,,,,,,,,,,,,,,
,,,,,,,,,,,,,,,,,,,,,,,,,,,,,,,,
,,,,,,,,,,,,,,,,,,,,,,,,,,,,,,,,
,,,,,,,,,,,,,,,,,,,,,,,,,,,,,,,,
,,,,,,,,,,,,,,,,,,,,,,,,,,,,,,,,
,,,,,,,,,,,,,,,,,,,,,,,,,,,,,,,,
,,,,,,,,,,,,,,,,,,,,,,,,,,,,,,,,
,,,,,,,,,,,,,,,,,,,,,,,,,,,,,,,,
,,,,,,,,,,,,,,,,,,,,,,,,,,,,,,,,
,,,,,,,,,,,,,,,,,,,,,,,,,,,,,,,,
,,,,,,,,,,,,,,,,,,,,,,,,,,,,,,,,
,,,,,,,,,,,,,,,,,,,,,,,,,,,,,,,,
,,,,,,,,,,,,,,,,,,,,,,,,,,,,,,,,
,,,,,,,,,,,,,,,,,,,,,,,,,,,,,,,,
,,,,,,,,,,,,,,,,,,,,,,,,,,,,,,,,
,,,,,,,,,,,,,,,,,,,,,,,,,,,,,,,,
,,,,,,,,,,,,,,,,,,,,,,,,,,,,,,,,
,,,,,,,,,,,,,,,,,,,,,,,,,,,,,,,,
,,,,,,,,,,,,,,,,,,,,,,,,,,,,,,,,
,,,,,,,,,,,,,,,,,,,,,,,,,,,,,,,,
,,,,,,,,,,,,,,,,,,,,,,,,,,,,,,,,
,,,,,,,,,,,,,,,,,,,,,,,,,,,,,,,,
,,,,,,,,,,,,,,,,,,,,,,,,,,,,,,,,
,,,,,,,,,,,,,,,,,,,,,,,,,,,,,,,,
,,,,,,,,,,,,,,,,,,,,,,,,,,,,,,,,
,,,,,,,,,,,,,,,,,,,,,,,,,,,,,,,,
,,,,,,,,,,,,,,,,,,,,,,,,,,,,,,,,
,,,,,,,,,,,,,,,,,,,,,,,,,,,,,,,,
,,,,,,,,,,,,,,,,,,,,,,,,,,,,,,,,
,,,,,,,,,,,,,,,,,,,,,,,,,,,,,,,,
,,,,,,,,,,,,,,,,,,,,,,,,,,,,,,,,
,,,,,,,,,,,,,,,,,,,,,,,,,,,,,,,,
,,,,,,,,,,,,,,,,,,,,,,,,,,,,,,,,
,,,,,,,,,,,,,,,,,,,,,,,,,,,,,,,,
,,,,,,,,,,,,,,,,,,,,,,,,,,,,,,,,
,,,,,,,,,,,,,,,,,,,,,,,,,,,,,,,,
,,,,,,,,,,,,,,,,,,,,,,,,,,,,,,,,
,,,,,,,,,,,,,,,,,,,,,,,,,,,,,,,,
,,,,,,,,,,,,,,,,,,,,,,,,,,,,,,,,
,,,,,,,,,,,,,,,,,,,,,,,,,,,,,,,,
,,,,,,,,,,,,,,,,,,,,,,,,,,,,,,,,
,,,,,,,,,,,,,,,,,,,,,,,,,,,,,,,,
,,,,,,,,,,,,,,,,,,,,,,,,,,,,,,,,
,,,,,,,,,,,,,,,,,,,,,,,,,,,,,,,,
,,,,,,,,,,,,,,,,,,,,,,,,,,,,,,,,
,,,,,,,,,,,,,,,,,,,,,,,,,,,,,,,,
,,,,,,,,,,,,,,,,,,,,,,,,,,,,,,,,
,,,,,,,,,,,,,,,,,,,,,,,,,,,,,,,,
,,,,,,,,,,,,,,,,,,,,,,,,,,,,,,,,
,,,,,,,,,,,,,,,,,,,,,,,,,,,,,,,,
,,,,,,,,,,,,,,,,,,,,,,,,,,,,,,,,
,,,,,,,,,,,,,,,,,,,,,,,,,,,,,,,,
,,,,,,,,,,,,,,,,,,,,,,,,,,,,,,,,
,,,,,,,,,,,,,,,,,,,,,,,,,,,,,,,,
,,,,,,,,,,,,,,,,,,,,,,,,,,,,,,,,
,,,,,,,,,,,,,,,,,,,,,,,,,,,,,,,,
,,,,,,,,,,,,,,,,,,,,,,,,,,,,,,,,
,,,,,,,,,,,,,,,,,,,,,,,,,,,,,,,,
,,,,,,,,,,,,,,,,,,,,,,,,,,,,,,,,
,,,,,,,,,,,,,,,,,,,,,,,,,,,,,,,,
,,,,,,,,,,,,,,,,,,,,,,,,,,,,,,,,
,,,,,,,,,,,,,,,,,,,,,,,,,,,,,,,,
,,,,,,,,,,,,,,,,,,,,,,,,,,,,,,,,
,,,,,,,,,,,,,,,,,,,,,,,,,,,,,,,,
,,,,,,,,,,,,,,,,,,,,,,,,,,,,,,,,
,,,,,,,,,,,,,,,,,,,,,,,,,,,,,,,,
,,,,,,,,,,,,,,,,,,,,,,,,,,,,,,,,
,,,,,,,,,,,,,,,,,,,,,,,,,,,,,,,,
,,,,,,,,,,,,,,,,,,,,,,,,,,,,,,,,
,,,,,,,,,,,,,,,,,,,,,,,,,,,,,,,,
,,,,,,,,,,,,,,,,,,,,,,,,,,,,,,,,
,,,,,,,,,,,,,,,,,,,,,,,,,,,,,,,,
,,,,,,,,,,,,,,,,,,,,,,,,,,,,,,,,
,,,,,,,,,,,,,,,,,,,,,,,,,,,,,,,,
,,,,,,,,,,,,,,,,,,,,,,,,,,,,,,,,
,,,,,,,,,,,,,,,,,,,,,,,,,,,,,,,,
,,,,,,,,,,,,,,,,,,,,,,,,,,,,,,,,
,,,,,,,,,,,,,,,,,,,,,,,,,,,,,,,,
,,,,,,,,,,,,,,,,,,,,,,,,,,,,,,,,
,,,,,,,,,,,,,,,,,,,,,,,,,,,,,,,,
,,,,,,,,,,,,,,,,,,,,,,,,,,,,,,,,
,,,,,,,,,,,,,,,,,,,,,,,,,,,,,,,,
,,,,,,,,,,,,,,,,,,,,,,,,,,,,,,,,
,,,,,,,,,,,,,,,,,,,,,,,,,,,,,,,,
,,,,,,,,,,,,,,,,,,,,,,,,,,,,,,,,
,,,,,,,,,,,,,,,,,,,,,,,,,,,,,,,,
,,,,,,,,,,,,,,,,,,,,,,,,,,,,,,,,
,,,,,,,,,,,,,,,,,,,,,,,,,,,,,,,,
,,,,,,,,,,,,,,,,,,,,,,,,,,,,,,,,
,,,,,,,,,,,,,,,,,,,,,,,,,,,,,,,,
,,,,,,,,,,,,,,,,,,,,,,,,,,,,,,,,
,,,,,,,,,,,,,,,,,,,,,,,,,,,,,,,,
,,,,,,,,,,,,,,,,,,,,,,,,,,,,,,,,
,,,,,,,,,,,,,,,,,,,,,,,,,,,,,,,,
,,,,,,,,,,,,,,,,,,,,,,,,,,,,,,,,
,,,,,,,,,,,,,,,,,,,,,,,,,,,,,,,,
,,,,,,,,,,,,,,,,,,,,,,,,,,,,,,,,
,,,,,,,,,,,,,,,,,,,,,,,,,,,,,,,,
,,,,,,,,,,,,,,,,,,,,,,,,,,,,,,,,
,,,,,,,,,,,,,,,,,,,,,,,,,,,,,,,,
,,,,,,,,,,,,,,,,,,,,,,,,,,,,,,,,
,,,,,,,,,,,,,,,,,,,,,,,,,,,,,,,,
,,,,,,,,,,,,,,,,,,,,,,,,,,,,,,,,
,,,,,,,,,,,,,,,,,,,,,,,,,,,,,,,,
,,,,,,,,,,,,,,,,,,,,,,,,,,,,,,,,
,,,,,,,,,,,,,,,,,,,,,,,,,,,,,,,,
,,,,,,,,,,,,,,,,,,,,,,,,,,,,,,,,
,,,,,,,,,,,,,,,,,,,,,,,,,,,,,,,,
,,,,,,,,,,,,,,,,,,,,,,,,,,,,,,,,
,,,,,,,,,,,,,,,,,,,,,,,,,,,,,,,,
,,,,,,,,,,,,,,,,,,,,,,,,,,,,,,,,
,,,,,,,,,,,,,,,,,,,,,,,,,,,,,,,,
,,,,,,,,,,,,,,,,,,,,,,,,,,,,,,,,
,,,,,,,,,,,,,,,,,,,,,,,,,,,,,,,,
,,,,,,,,,,,,,,,,,,,,,,,,,,,,,,,,
,,,,,,,,,,,,,,,,,,,,,,,,,,,,,,,,
,,,,,,,,,,,,,,,,,,,,,,,,,,,,,,,,
,,,,,,,,,,,,,,,,,,,,,,,,,,,,,,,,
,,,,,,,,,,,,,,,,,,,,,,,,,,,,,,,,
,,,,,,,,,,,,,,,,,,,,,,,,,,,,,,,,
,,,,,,,,,,,,,,,,,,,,,,,,,,,,,,,,
,,,,,,,,,,,,,,,,,,,,,,,,,,,,,,,,
,,,,,,,,,,,,,,,,,,,,,,,,,,,,,,,,
,,,,,,,,,,,,,,,,,,,,,,,,,,,,,,,,
,,,,,,,,,,,,,,,,,,,,,,,,,,,,,,,,
,,,,,,,,,,,,,,,,,,,,,,,,,,,,,,,,
,,,,,,,,,,,,,,,,,,,,,,,,,,,,,,,,
,,,,,,,,,,,,,,,,,,,,,,,,,,,,,,,,
,,,,,,,,,,,,,,,,,,,,,,,,,,,,,,,,
,,,,,,,,,,,,,,,,,,,,,,,,,,,,,,,,
,,,,,,,,,,,,,,,,,,,,,,,,,,,,,,,,
,,,,,,,,,,,,,,,,,,,,,,,,,,,,,,,,
,,,,,,,,,,,,,,,,,,,,,,,,,,,,,,,,
,,,,,,,,,,,,,,,,,,,,,,,,,,,,,,,,
,,,,,,,,,,,,,,,,,,,,,,,,,,,,,,,,
,,,,,,,,,,,,,,,,,,,,,,,,,,,,,,,,
,,,,,,,,,,,,,,,,,,,,,,,,,,,,,,,,
,,,,,,,,,,,,,,,,,,,,,,,,,,,,,,,,
,,,,,,,,,,,,,,,,,,,,,,,,,,,,,,,,
,,,,,,,,,,,,,,,,,,,,,,,,,,,,,,,,
,,,,,,,,,,,,,,,,,,,,,,,,,,,,,,,,
,,,,,,,,,,,,,,,,,,,,,,,,,,,,,,,,
,,,,,,,,,,,,,,,,,,,,,,,,,,,,,,,,
,,,,,,,,,,,,,,,,,,,,,,,,,,,,,,,,
,,,,,,,,,,,,,,,,,,,,,,,,,,,,,,,,
,,,,,,,,,,,,,,,,,,,,,,,,,,,,,,,,
,,,,,,,,,,,,,,,,,,,,,,,,,,,,,,,,
,,,,,,,,,,,,,,,,,,,,,,,,,,,,,,,,
,,,,,,,,,,,,,,,,,,,,,,,,,,,,,,,,
,,,,,,,,,,,,,,,,,,,,,,,,,,,,,,,,
,,,,,,,,,,,,,,,,,,,,,,,,,,,,,,,,
,,,,,,,,,,,,,,,,,,,,,,,,,,,,,,,,
,,,,,,,,,,,,,,,,,,,,,,,,,,,,,,,,
,,,,,,,,,,,,,,,,,,,,,,,,,,,,,,,,
,,,,,,,,,,,,,,,,,,,,,,,,,,,,,,,,
,,,,,,,,,,,,,,,,,,,,,,,,,,,,,,,,
,,,,,,,,,,,,,,,,,,,,,,,,,,,,,,,,
,,,,,,,,,,,,,,,,,,,,,,,,,,,,,,,,
,,,,,,,,,,,,,,,,,,,,,,,,,,,,,,,,
,,,,,,,,,,,,,,,,,,,,,,,,,,,,,,,,
,,,,,,,,,,,,,,,,,,,,,,,,,,,,,,,,
,,,,,,,,,,,,,,,,,,,,,,,,,,,,,,,,
,,,,,,,,,,,,,,,,,,,,,,,,,,,,,,,,
,,,,,,,,,,,,,,,,,,,,,,,,,,,,,,,,
,,,,,,,,,,,,,,,,,,,,,,,,,,,,,,,,
,,,,,,,,,,,,,,,,,,,,,,,,,,,,,,,,
,,,,,,,,,,,,,,,,,,,,,,,,,,,,,,,,
,,,,,,,,,,,,,,,,,,,,,,,,,,,,,,,,
,,,,,,,,,,,,,,,,,,,,,,,,,,,,,,,,
,,,,,,,,,,,,,,,,,,,,,,,,,,,,,,,,
,,,,,,,,,,,,,,,,,,,,,,,,,,,,,,,,
,,,,,,,,,,,,,,,,,,,,,,,,,,,,,,,,
,,,,,,,,,,,,,,,,,,,,,,,,,,,,,,,,
,,,,,,,,,,,,,,,,,,,,,,,,,,,,,,,,
,,,,,,,,,,,,,,,,,,,,,,,,,,,,,,,,
,,,,,,,,,,,,,,,,,,,,,,,,,,,,,,,,
,,,,,,,,,,,,,,,,,,,,,,,,,,,,,,,,
,,,,,,,,,,,,,,,,,,,,,,,,,,,,,,,,
,,,,,,,,,,,,,,,,,,,,,,,,,,,,,,,,
,,,,,,,,,,,,,,,,,,,,,,,,,,,,,,,,
,,,,,,,,,,,,,,,,,,,,,,,,,,,,,,,,
,,,,,,,,,,,,,,,,,,,,,,,,,,,,,,,,
,,,,,,,,,,,,,,,,,,,,,,,,,,,,,,,,
,,,,,,,,,,,,,,,,,,,,,,,,,,,,,,,,
,,,,,,,,,,,,,,,,,,,,,,,,,,,,,,,,
,,,,,,,,,,,,,,,,,,,,,,,,,,,,,,,,
,,,,,,,,,,,,,,,,,,,,,,,,,,,,,,,,
,,,,,,,,,,,,,,,,,,,,,,,,,,,,,,,,
,,,,,,,,,,,,,,,,,,,,,,,,,,,,,,,,
,,,,,,,,,,,,,,,,,,,,,,,,,,,,,,,,
,,,,,,,,,,,,,,,,,,,,,,,,,,,,,,,,
,,,,,,,,,,,,,,,,,,,,,,,,,,,,,,,,
,,,,,,,,,,,,,,,,,,,,,,,,,,,,,,,,
,,,,,,,,,,,,,,,,,,,,,,,,,,,,,,,,
,,,,,,,,,,,,,,,,,,,,,,,,,,,,,,,,
,,,,,,,,,,,,,,,,,,,,,,,,,,,,,,,,
,,,,,,,,,,,,,,,,,,,,,,,,,,,,,,,,
,,,,,,,,,,,,,,,,,,,,,,,,,,,,,,,,
,,,,,,,,,,,,,,,,,,,,,,,,,,,,,,,,
,,,,,,,,,,,,,,,,,,,,,,,,,,,,,,,,
,,,,,,,,,,,,,,,,,,,,,,,,,,,,,,,,
,,,,,,,,,,,,,,,,,,,,,,,,,,,,,,,,
,,,,,,,,,,,,,,,,,,,,,,,,,,,,,,,,
,,,,,,,,,,,,,,,,,,,,,,,,,,,,,,,,
,,,,,,,,,,,,,,,,,,,,,,,,,,,,,,,,
,,,,,,,,,,,,,,,,,,,,,,,,,,,,,,,,
,,,,,,,,,,,,,,,,,,,,,,,,,,,,,,,,
,,,,,,,,,,,,,,,,,,,,,,,,,,,,,,,,
,,,,,,,,,,,,,,,,,,,,,,,,,,,,,,,,
,,,,,,,,,,,,,,,,,,,,,,,,,,,,,,,,
,,,,,,,,,,,,,,,,,,,,,,,,,,,,,,,,
,,,,,,,,,,,,,,,,,,,,,,,,,,,,,,,,
,,,,,,,,,,,,,,,,,,,,,,,,,,,,,,,,
,,,,,,,,,,,,,,,,,,,,,,,,,,,,,,,,
,,,,,,,,,,,,,,,,,,,,,,,,,,,,,,,,
,,,,,,,,,,,,,,,,,,,,,,,,,,,,,,,,
,,,,,,,,,,,,,,,,,,,,,,,,,,,,,,,,
,,,,,,,,,,,,,,,,,,,,,,,,,,,,,,,,
,,,,,,,,,,,,,,,,,,,,,,,,,,,,,,,,
,,,,,,,,,,,,,,,,,,,,,,,,,,,,,,,,
,,,,,,,,,,,,,,,,,,,,,,,,,,,,,,,,
,,,,,,,,,,,,,,,,,,,,,,,,,,,,,,,,
,,,,,,,,,,,,,,,,,,,,,,,,,,,,,,,,
,,,,,,,,,,,,,,,,,,,,,,,,,,,,,,,,
,,,,,,,,,,,,,,,,,,,,,,,,,,,,,,,,
,,,,,,,,,,,,,,,,,,,,,,,,,,,,,,,,
,,,,,,,,,,,,,,,,,,,,,,,,,,,,,,,,
,,,,,,,,,,,,,,,,,,,,,,,,,,,,,,,,
,,,,,,,,,,,,,,,,,,,,,,,,,,,,,,,,
,,,,,,,,,,,,,,,,,,,,,,,,,,,,,,,,
,,,,,,,,,,,,,,,,,,,,,,,,,,,,,,,,
,,,,,,,,,,,,,,,,,,,,,,,,,,,,,,,,
,,,,,,,,,,,,,,,,,,,,,,,,,,,,,,,,
,,,,,,,,,,,,,,,,,,,,,,,,,,,,,,,,
,,,,,,,,,,,,,,,,,,,,,,,,,,,,,,,,
,,,,,,,,,,,,,,,,,,,,,,,,,,,,,,,,
,,,,,,,,,,,,,,,,,,,,,,,,,,,,,,,,
,,,,,,,,,,,,,,,,,,,,,,,,,,,,,,,,
,,,,,,,,,,,,,,,,,,,,,,,,,,,,,,,,
,,,,,,,,,,,,,,,,,,,,,,,,,,,,,,,,
,,,,,,,,,,,,,,,,,,,,,,,,,,,,,,,,
,,,,,,,,,,,,,,,,,,,,,,,,,,,,,,,,
,,,,,,,,,,,,,,,,,,,,,,,,,,,,,,,,
,,,,,,,,,,,,,,,,,,,,,,,,,,,,,,,,
,,,,,,,,,,,,,,,,,,,,,,,,,,,,,,,,
,,,,,,,,,,,,,,,,,,,,,,,,,,,,,,,,
,,,,,,,,,,,,,,,,,,,,,,,,,,,,,,,,
,,,,,,,,,,,,,,,,,,,,,,,,,,,,,,,,
,,,,,,,,,,,,,,,,,,,,,,,,,,,,,,,,
,,,,,,,,,,,,,,,,,,,,,,,,,,,,,,,,
,,,,,,,,,,,,,,,,,,,,,,,,,,,,,,,,
,,,,,,,,,,,,,,,,,,,,,,,,,,,,,,,,
,,,,,,,,,,,,,,,,,,,,,,,,,,,,,,,,
,,,,,,,,,,,,,,,,,,,,,,,,,,,,,,,,
