long,lat,objectID,siteName,siteStatus,siteAddress,siteAddress2,siteCity,siteState,siteZip,sitePhone,ext,contactFirstName,contactLastName,contactPhone,sponsoringOrganization,startDate,endDate,daysofOperation,comments,breakfastTime,lunchTime,snackTimeAM,snackTimePM,dinnerSupperTime,mealTypesServed,cycleNumber,recordStatus,country,fnsid,created,season,county
-77.10532968,36.21462177,47041,Aulander Elementary,Open,"2515 N. C. 305 Aulander, NC 27805",,Aulander,NC,27805,2527941214,1214,Bettie,warren,2527941214,Bertie County Schools,2019-03-11T04:00:00.000Z,2019-03-22T04:00:00.000Z,"M,T,W,TH,F",8:00AM - 11:30AM,8:00AM - 8:30AM,11:00AM - 11:30AM,,,,"B,L",1,N,US,15343,,2019,Bertie
-80.6195585,35.49617697,47042,A L Brown High,Open,"415 East 1st Street Kannapolis, NC 28083",,Kannapolis,NC,28083,7049323537,,Karen,Whitley,7049323537,Kannapolis City Schools,2019-06-24T04:00:00.000Z,2019-07-25T04:00:00.000Z,"M,T,W,TH",8:00AM - 1:00PM,,11:30AM - 1:00PM,8:00AM - 8:30AM,,,"L,M",1,N,US,129103,,2019,Cabarrus
-80.63454766,35.50343723,47043,Kannapolis YMCA,Open,"101 YMCA Drive Kannapolis, NC 28081",,Kannapolis,NC,28081,7049385617,,Kim,Simpson,7049385617,Kannapolis City Schools,2019-06-24T04:00:00.000Z,2019-07-25T04:00:00.000Z,"M,T,W,TH",11:30AM - 3:30PM,,11:30AM - 1:00PM,,3:00PM - 3:30PM,,"L,A",1,N,US,16010,,2019,Cabarrus
-80.61820127,35.49272144,47044,GW Carver Elementary,Open,"525 East C Street Kannapolis, NC 28081",,Kannapolis,NC,28081,7049385617,,Kim,Simpson,7049385617,Kannapolis City Schools,2019-06-24T04:00:00.000Z,2019-07-25T04:00:00.000Z,"M,T,W,TH",8:00AM - 1:00PM,8:00AM - 8:30AM,11:30AM - 1:00PM,,,,"B,L",1,N,US,118275,,2019,Cabarrus
-77.64533349,36.45154628,47047,William L Manning Elementary,Open,"940 Park Avenue Roanoke Rapids, NC 27870",,Roanoke Rapids,NC,27870,2525197478,,Ann,Bailey,2525197478,Roanoke Rapids City Schools,2019-06-10T04:00:00.000Z,2019-06-25T04:00:00.000Z,"M,T,W,TH",8:00AM - 12:00PM,8:00AM - 8:45AM,11:00AM - 12:00PM,,,,"B,L",1,N,US,122446,,2019,Halifax
-82.58622783,35.66601331,47048,Black Locust trailer Park,Open,"Lot #81 Black Locust Dr Asheville, NC 28804",,Asheville,NC,28804,8282555974,,Sheryl,Harris,8282555974,Buncombe County Schools,2019-06-17T04:00:00.000Z,2019-08-09T04:00:00.000Z,"M,T,W,TH,F",12:30PM - 1:30PM,,12:30PM - 1:30PM,,,,L,1,N,US,3359,,2019,Buncombe
-82.37631041,35.60351463,47049,Ridgeview Mobile Park,Open,"49 Alan Campos Circle Swannanoa, NC 28778",,Swannanoa,NC,28778,8282555974,,Sheryl,Harris,8282555974,Buncombe County Schools,2019-06-17T04:00:00.000Z,2019-08-09T04:00:00.000Z,"M,T,W,TH,F",11:15AM - 12:15PM,,11:15AM - 12:15PM,,,,L,1,N,US,74531,,2019,Buncombe
-82.51652351,35.59599457,47050,Spruce Hill Apt,Open,"201 Spruce Hill Ct Asheville, NC 28805",,Asheville,NC,28805,8282555974,,Sheryl,Harris,8282555974,Buncombe County Schools,2019-06-17T04:00:00.000Z,2019-08-09T04:00:00.000Z,"M,T,W,TH,F",12:15PM - 1:00PM,,12:15PM - 1:00PM,,,,L,1,N,US,38977,,2019,Buncombe
-82.49380889,35.59024932,47051,Charles C. Bell Elementary RTA Camp,Open,"90 Maple Springs Road Asheville, NC 28805",,Asheville,NC,28805,8282555974,,Sheryl,Harris,8282555974,Buncombe County Schools,2019-06-26T04:00:00.000Z,2019-07-18T04:00:00.000Z,"M,T,W,TH",8:00AM - 12:30PM,8:00AM - 9:00AM,10:30AM - 12:30PM,,,,"B,L",1,N,US,15509,,2019,Buncombe
-82.66406319,35.53292447,47052,Hominy Valley Read to Achieve,Open,"450 Enka Lake Road Candler, NC 28715",,Candler,NC,28715,8282555974,,Sheryl,Harris,8282555974,Buncombe County Schools,2019-06-26T04:00:00.000Z,2019-07-18T04:00:00.000Z,"M,T,W,TH",8:00AM - 12:00PM,8:00AM - 9:00AM,11:00AM - 12:00PM,,,,"B,L",1,N,US,15926,,2019,Buncombe
-82.52756442,35.45702468,47053,Hahn's Gymnastics,Open,"18 Legend Drive Arden, NC 28704",,Arden,NC,28704,8282555974,,Sheryl,Harris,8282555974,Buncombe County Schools,2019-06-17T04:00:00.000Z,2019-08-09T04:00:00.000Z,"M,T,W,TH,F",11:30AM - 4:30PM,,11:30AM - 12:30PM,,4:00PM - 4:30PM,,"L,A",1,N,US,73806,,2019,Buncombe
-82.47354039,35.55263503,47054,Curci's Fairview Terrace,Open,"14 Curci Drive Asheville, NC 28803",,Asheville,NC,28803,8282555974,,Sheryl,Harris,8282555974,Buncombe County Schools,2019-06-17T04:00:00.000Z,2019-08-09T04:00:00.000Z,"M,T,W,TH,F",11:15AM - 12:15PM,,11:15AM - 12:15PM,,,,L,1,N,US,73513,,2019,Buncombe
-82.5767376,35.68484605,47055,Homestead Apartments,Open,"315 Aiken Road Asheville, NC 28804",,Asheville,NC,28804,8282555974,,Sheryl,Harris,8282555974,Buncombe County Schools,2019-06-17T04:00:00.000Z,2019-08-07T04:00:00.000Z,"M,W",11:45AM - 12:30PM,,11:45AM - 12:30PM,,,,L,1,N,US,111302,,2019,Buncombe
-82.56437965,35.7037322,47056,Dry Ridge Apartments,Open,"21 Clinton Street Weaverville, NC 28787",,Weaverville,NC,28787,8284848424,,Sheryl,Harris,8284848424,Buncombe County Schools,2019-06-18T04:00:00.000Z,2019-08-09T04:00:00.000Z,"T,F",11:45AM - 12:45PM,,11:45AM - 12:45PM,,,,L,1,N,US,106794,,2019,Buncombe
-82.59994812,35.5538167,47057,WNC Farmers Market,Open,"570 Brevard Road Asheville, NC 28806",,Asheville,NC,28806,8282555974,,Sheryl,Harris,8282555974,Buncombe County Schools,2019-06-17T04:00:00.000Z,2019-08-09T04:00:00.000Z,"M,T,W,TH,F",12:00PM - 1:00PM,,12:00PM - 1:00PM,,,,L,1,N,US,130400,,2019,Buncombe
-82.55467431,35.57768012,47061,Herb Watts Park,Open,"64 Erskine Street Asheville, NC 28801",,Asheville,NC,28801,8283506108,,Janette,Broda,8283506108,Asheville City Schools,2019-06-10T04:00:00.000Z,2019-08-09T04:00:00.000Z,"M,T,W,TH,F",11:00AM - 11:30AM,,11:00AM - 11:30AM,,,,L,1,N,US,129568,,2019,Buncombe
-82.57139388,35.60835527,47062,Klondyke Apartments,Open,"500 Montford Avenue Asheville, NC 28801",,Asheville,NC,28801,8283506108,,Janette,Broda,8283506108,Asheville City Schools,2019-06-10T04:00:00.000Z,2019-08-09T04:00:00.000Z,"M,T,W,TH,F",11:45AM - 12:15PM,,11:45AM - 12:15PM,,,,L,1,N,US,129693,,2019,Buncombe
-81.56525348,35.74706072,47063,Valdese Elementary,Open,"298 Praley Street Valdese, NC 28690",,Valdese,NC,28690,8284394320,,Angela,Hensley,8284394320,Burke County Schools,2019-06-10T04:00:00.000Z,2019-08-15T04:00:00.000Z,"M,T,W,TH",11:00AM - 4:30PM,,11:00AM - 1:00PM,,3:30PM - 4:30PM,,"L,A",1,N,US,16781,,2019,Burke
-81.69001092,35.74233879,47064,Burke United Christian Ministries,Open,"305 West Union Street (B) Morganton, NC 28655",B,Morganton,NC,28655,8284394320,,Angela,Hensley,8284394320,Burke County Schools,2019-06-10T04:00:00.000Z,2019-08-15T04:00:00.000Z,"M,T,W,TH",10:45AM - 12:30PM,,10:45AM - 12:30PM,,,,L,1,N,US,80958,,2019,Burke
-81.70122005,35.75442381,47065,Mountain View Elementary School,Open,"805 Bouchelle Street Morganton, NC 28655",,Morganton,NC,28655,8284394320,,Angela,Hensley,8284394320,Burke County Schools,2019-06-10T04:00:00.000Z,2019-08-15T04:00:00.000Z,"M,T,W,TH",11:00AM - 4:30PM,,11:00AM - 1:00PM,,3:30PM - 4:30PM,,"L,A",1,N,US,129869,,2019,Burke
-80.59663867,35.41293032,47066,Long School,Open,"310 Kerr St. Concord, NC 28025",,Concord,NC,28025,7042605558,,Gayle,Buddenbaum,7042605558,Cabarrus County Schools,2019-06-24T04:00:00.000Z,2019-08-16T04:00:00.000Z,"M,T,W,TH,F",11:35AM - 11:55AM,,11:35AM - 11:55AM,,,,L,1,N,US,44969,,2019,Cabarrus
-80.58272467,35.42492349,47067,Greens Of Concord,Open,"1400 Daley Circle Dr NE Concord, NC 28027",,Concord,NC,28027,7042605558,,Gayle,Buddenbaum,7042605558,Cabarrus County Schools,2019-06-24T04:00:00.000Z,2019-08-16T04:00:00.000Z,"M,T,W,TH,F",11:10AM - 11:30AM,,11:10AM - 11:30AM,,,,L,1,N,US,43687,,2019,Cabarrus
-80.6348604,35.36476475,47068,Concord Pointe Apartments,Open,"4400 Concord Pointe Ln SW Concord, NC 28027",,Concord,NC,28027,7042605558,,Gayle,Buddenbaum,7042605558,Cabarrus County Schools,2019-06-24T04:00:00.000Z,2019-08-16T04:00:00.000Z,"M,T,W,TH,F",1:45PM - 2:05PM,,1:45PM - 2:05PM,,,,L,1,N,US,77743,,2019,Cabarrus
-80.60167463,35.40644592,47069,Clintwood,Open,"240 Clintwood Dr NW Concord, NC 28027",,Concord,NC,28027,7042605558,,Gayle,Buddenbaum,7042605558,Cabarrus County Schools,2019-06-24T04:00:00.000Z,2019-08-16T04:00:00.000Z,"M,T,W,TH,F",12:25PM - 12:45PM,,12:25PM - 12:45PM,,,,L,1,N,US,42250,,2019,Cabarrus
-80.64224439,35.40496083,47070,Crestview Mobile Park,Open,"3743 Patricia Dr NW Concord, NC 28027",,Concord,NC,28027,7042605558,,Gayle,Buddenbaum,7042605558,Cabarrus County Schools,2019-06-24T04:00:00.000Z,2019-08-16T04:00:00.000Z,"M,T,W,TH,F",1:45PM - 2:05PM,,1:45PM - 2:05PM,,,,L,1,N,US,120841,,2019,Cabarrus
-80.57206334,35.37142621,47071,Glen Laurel,Open,"3244 Glen Laurel Concord, NC 28025",,Concord,NC,28025,7042605558,,Gayle,Buddenbaum,7042605558,Cabarrus County Schools,2019-06-24T04:00:00.000Z,2019-08-16T04:00:00.000Z,"M,T,W,TH,F",1:15PM - 1:35PM,,1:15PM - 1:35PM,,,,L,1,N,US,43538,,2019,Cabarrus
-80.62430361,35.37523045,47072,Wolf Meadow,Open,"150 Wolf Meadow Drive Concord, NC 28027",,Concord,NC,28027,7047845129,,Gayle,Buddenbaum,7047845129,Cabarrus County Schools,2018-10-01T04:00:00.000Z,2019-09-30T04:00:00.000Z,"M,T,W,TH,F",7:30AM - 12:15PM,7:30AM - 8:30AM,11:00AM - 12:15PM,,,,"B,L",1,N,US,71799,,2019,Cabarrus
-80.68041482,35.37248985,47073,Carolina Village MHP,Open,"2401 Lancaster St. NW (Intersection of Monroe Ct. NW and Fairbanks Dr. NW) Concord, NC 28027",Intersection of Monroe Ct. NW and Fairbanks Dr. NW,Concord,NC,28027,7042605558,,Gayle,Buddenbaum,7042605558,Cabarrus County Schools,2019-06-24T04:00:00.000Z,2019-08-16T04:00:00.000Z,"M,T,W,TH,F",1:20PM - 1:40PM,,1:20PM - 1:40PM,,,,L,1,N,US,99734,,2019,Cabarrus
-80.55782352,35.36221927,47074,Countryview MHP,Open,"3975 Grossbeak Dr. (Intersection of Grossbeak Dr. and Pheasant Dr.) Concord, NC 28025",Intersection of Grossbeak Dr. and Pheasant Dr.,Concord,NC,28025,7042605561,,Carrie,Bostic,7042605561,Cabarrus County Schools,2019-06-24T04:00:00.000Z,2019-08-16T04:00:00.000Z,"M,T,W,TH,F",12:25PM - 12:45PM,,12:25PM - 12:45PM,,,,L,1,N,US,99757,,2019,Cabarrus
-80.6059136,35.41164512,47075,Suburban MHP,Open,"4 Tower Cir NW Concord, NC 28027",,Concord,NC,28027,7042605558,,Gayle,Buddenbaum,7042605558,Cabarrus County Schools,2019-06-24T04:00:00.000Z,2019-08-16T04:00:00.000Z,"M,T,W,TH,F",12:00PM - 12:20PM,,12:00PM - 12:20PM,,,,L,1,N,US,79825,,2019,Cabarrus
-80.55782352,35.36221927,47076,Countryview MHP II,Open,"3975 Grossbeak Dr. (Intersection of Pintail Dr. and Goldeneye Dr.) Concord, NC 28025",Intersection of Pintail Dr. and Goldeneye Dr.,Concord,NC,28025,7042605561,,Carrie,Bostic,7042605561,Cabarrus County Schools,2019-06-24T04:00:00.000Z,2019-08-16T04:00:00.000Z,"M,T,W,TH,F",12:00PM - 12:20PM,,12:00PM - 12:20PM,,,,L,1,N,US,99758,,2019,Cabarrus
-80.63123979,35.43473494,47077,Brooke Pointe Apartment,Open,"1445 Farrington Dr NW Concord, NC 28027",,Concord,NC,28027,7042605561,,Carrie,Bostic,7042605561,Cabarrus County Schools,2019-06-24T04:00:00.000Z,2019-08-16T04:00:00.000Z,"M,T,W,TH,F",11:35AM - 11:55AM,,11:35AM - 11:55AM,,,,L,1,N,US,120603,,2019,Cabarrus
-80.63083008,35.43447004,47078,Farrington West Apts,Open,"3140 Chapwin Circle NW Concord NC, NC 28027",,Concord NC,NC,28027,7042605561,,Carrie,Bostic,7042605561,Cabarrus County Schools,2019-06-24T04:00:00.000Z,2019-08-16T04:00:00.000Z,"M,T,W,TH,F",12:00PM - 12:20PM,,12:00PM - 12:20PM,,,,L,1,N,US,121008,,2019,Cabarrus
-80.61338205,35.43118956,47079,Crestview Apartments,Open,"1003 Southampton Dr. Concord, NC 28027",,Concord,NC,28027,7042605561,,carrie,bostic,7042605561,Cabarrus County Schools,2019-06-24T04:00:00.000Z,2019-08-16T04:00:00.000Z,"M,T,W,TH,F",10:40AM - 11:00AM,,10:40AM - 11:00AM,,,,L,1,N,US,129342,,2019,Cabarrus
-80.4623935,35.38172852,47080,Oakland Glenn MHP,Open,"2600 Monta Dr Concord, NC 28027",,Concord,NC,28027,7042605561,,Carrie,Bostic,7042605561,Cabarrus County Schools,2019-06-24T04:00:00.000Z,2019-08-16T04:00:00.000Z,"M,T,W,TH,F",10:40AM - 11:00AM,,10:40AM - 11:00AM,,,,L,1,N,US,112386,,2019,Cabarrus
-80.53026491,35.34765025,47081,Southern Hill,Open,"2600 Farm Pond Rd Concord, NC 28027",,Concord,NC,28027,7042605561,,Carrie,Bostic,7042605561,Cabarrus County Schools,2019-06-24T04:00:00.000Z,2019-08-16T04:00:00.000Z,"M,T,W,TH,F",11:10AM - 11:30AM,,11:10AM - 11:30AM,,,,L,1,N,US,113068,,2019,Cabarrus
-80.53127862,35.3500003,47082,Woodwridge MHP,Open,"2800 Golfball Circle Concord, NC 28027",,Concord,NC,28027,7042605561,,carrie,Bostic,7042605561,Cabarrus County Schools,2019-06-24T04:00:00.000Z,2019-08-16T04:00:00.000Z,"M,T,W,TH,F",11:35AM - 11:55AM,,11:35AM - 11:55AM,,,,L,1,N,US,113793,,2019,Cabarrus
-80.57531582,35.36527444,47083,Patriots Point,Open,"3699 Patriots Pointe Dr concord, NC 28027",,concord,NC,28027,7042605561,,Carrie,Bostic,7042605561,Cabarrus County Schools,2019-06-24T04:00:00.000Z,2019-08-16T04:00:00.000Z,"M,T,W,TH,F",12:50PM - 1:10PM,,12:50PM - 1:10PM,,,,L,1,N,US,121862,,2019,Cabarrus
-80.64007974,35.40733927,47084,Crestview MHP II,Open,"3714 Patricia Dr NW Concord, NC 28027",,Concord,NC,28027,7042605558,,Gayle,Buddenbaum,7042605558,Cabarrus County Schools,2019-06-24T04:00:00.000Z,2019-08-16T04:00:00.000Z,"M,T,W,TH,F",1:20PM - 1:40PM,,1:20PM - 1:40PM,,,,L,1,N,US,120840,,2019,Cabarrus
-80.62275444,35.44740628,47085,Linker MHP,Open,"4140 Linker Ave. Concord, NC 28027",,Concord,NC,28027,7042605558,,Gayle,Buddenbaum,7042605558,Cabarrus County Schools,2019-06-24T04:00:00.000Z,2019-08-16T04:00:00.000Z,"M,T,W,TH,F",11:10AM - 11:30AM,,11:10AM - 11:30AM,,,,L,1,N,US,129760,,2019,Cabarrus
-80.63255619,35.43436532,47086,Concord Flats Apt. Homes,Open,"3105 Patrick Henry Dr. Concord, NC 28027",,Concord,NC,28027,7042605558,,Gayle,Buddenbaum,7042605558,Cabarrus County Schools,2019-06-24T04:00:00.000Z,2019-08-16T04:00:00.000Z,"M,T,W,TH,F",12:25PM - 12:45PM,,12:25PM - 12:45PM,,,,L,1,N,US,129326,,2019,Cabarrus
-80.61417934,35.41689985,47087,Hinson MHP,Open,"645 Concord Parkway N Concord, NC 28027",,Concord,NC,28027,7042605558,,Gayle,Buddenbaum,7042605558,Cabarrus County Schools,2019-06-24T04:00:00.000Z,2019-08-16T04:00:00.000Z,"M,T,W,TH,F",12:50PM - 1:10PM,,12:50PM - 1:10PM,,,,L,1,N,US,129581,,2019,Cabarrus
-76.64592249,34.72849439,47089,Beaufort Elementary,Open,"110 Caraway Drive Beaufort, NC 28516",,Beaufort,NC,28516,2527284583,1140,Tammy,Rinehart,2527284583,Carteret County Public Schools,2019-06-11T04:00:00.000Z,2019-06-27T04:00:00.000Z,"M,T,W,TH,F",7:30AM - 12:00PM,7:30AM - 8:00AM,11:30AM - 12:00PM,,,,"B,L",1,N,US,70937,,2019,Carteret
-76.65846871,34.72162804,47090,Beaufort Boys & Girls Club,Open,"601 Mulberry Street Beaufort, NC 28516",,Beaufort,NC,28516,2527284583,1140,Tammy,Rinehart,2527284583,Carteret County Public Schools,2019-06-10T04:00:00.000Z,2019-08-14T04:00:00.000Z,"M,T,W,TH,F",8:00AM - 1:00PM,8:00AM - 9:00AM,12:00PM - 1:00PM,,,,"B,L",1,N,US,70936,,2019,Carteret
-76.56621413,34.73000179,47092,The Bridge Down East,Open,"1344 Harkers Island Rd Harkers Island, NC 28531",,Harkers Island,NC,28531,2527284583,1140,Tammy,Rinehart,2527284583,Carteret County Public Schools,2019-07-08T04:00:00.000Z,2019-08-01T04:00:00.000Z,"M,T,W,TH",11:00AM - 4:00PM,,11:00AM - 12:00PM,,3:00PM - 4:00PM,,"L,A",1,N,US,71707,,2019,Carteret
-76.95163713,34.72119916,47093,Bogue Sound Elementary School,Open,"3323 Highway 24 Newport, NC 28570",,Newport,NC,28570,2527284583,1140,Tammy,Rinehart,2527284583,Carteret County Public Schools,2019-06-11T04:00:00.000Z,2019-06-28T04:00:00.000Z,"M,T,W,TH,F",7:30AM - 12:00PM,7:30AM - 8:00AM,11:30AM - 12:00PM,,,,"B,L",1,N,US,73280,,2019,Carteret
-77.05610599,34.6972089,47094,Cape Carteret Aquatic Center,Open,"300 Taylor Notion Rd Cape Carteret, NC 28584",,Cape Carteret,NC,28584,2527284583,1140,Tammy,Rinehart,2527284583,Carteret County Public Schools,2019-06-10T04:00:00.000Z,2019-08-16T04:00:00.000Z,"M,T,W,TH,F",12:00PM - 3:15PM,,12:00PM - 12:30PM,,3:00PM - 3:15PM,,"L,A",1,N,US,71010,,2019,Carteret
-76.85648845,34.78528318,47095,Saint James Day Care & Preschool,Open,"1011 Orange St Newport, NC 28570",,Newport,NC,28570,2527284583,1140,Tammy,Rinehart,2527284583,Carteret County Public Schools,2019-06-10T04:00:00.000Z,2019-08-16T04:00:00.000Z,"M,T,W,TH,F",11:15AM - 3:30PM,,11:15AM - 11:45AM,,3:00PM - 3:30PM,,"L,A",1,N,US,71617,,2019,Carteret
-76.62669484,34.78232914,47097,East Carteret High School Band,Open,"3263 Hwy. 70 Beaufort, NC 28516",,Beaufort,NC,28516,2527284583,1140,Tammy,Rinehart,2527284583,Carteret County Public Schools,2019-06-11T04:00:00.000Z,2019-07-26T04:00:00.000Z,"M,T,W,TH,F",12:00PM - 3:30PM,,12:00PM - 12:30PM,,3:00PM - 3:30PM,,"L,A",1,N,US,117928,,2019,Carteret
-76.77759692,34.73556959,47099,Morehead City Primary School - Camp Invention,Open,"4409 Country Club Road Morehead City, NC 28557",,Morehead City,NC,28557,2527284582,1140,Tammy,Rinehart,2527284582,Carteret County Public Schools,2019-07-15T04:00:00.000Z,2019-07-18T04:00:00.000Z,"M,T,W,TH",9:30AM - 1:15PM,,12:30PM - 1:15PM,9:30AM - 9:45AM,,,"L,M",1,N,US,125509,,2019,Carteret
-81.22184711,35.70076735,47100,Conover Special Education,Open,"108 7th Street Place SW Conover, NC 28613",,Conover,NC,28613,8284643191,269,Tara,Kelley,8284643191,Newton Conover City Schools,2019-06-14T04:00:00.000Z,2019-08-10T04:00:00.000Z,"M,T,W,TH,F",8:00AM - 11:30AM,8:00AM - 8:30AM,11:00AM - 11:30AM,,,,"B,L",1,N,US,129330,,2019,Catawba
-81.22517553,35.6772964,47101,Newton-Conover High,Open,"338 West 15th Street Newton, NC 28658",,Newton,NC,28658,8284643191,269,Tara,Kelley,8284643191,Newton Conover City Schools,2019-06-14T04:00:00.000Z,2019-07-19T04:00:00.000Z,"M,T,W,TH,F",7:45AM - 12:15PM,7:45AM - 8:00AM,12:00PM - 12:15PM,,,,"B,L",1,N,US,129894,,2019,Catawba
-81.22493851,35.73243695,47102,Newton-Conover Middle,Open,"873 Northern Drive NW Conover, NC 28613",,Conover,NC,28613,8284643191,269,Tara,Kelley,8284643191,Newton Conover City Schools,2019-06-14T04:00:00.000Z,2019-06-14T04:00:00.000Z,F,8:00AM - 12:00PM,8:00AM - 8:30AM,11:30AM - 12:00PM,,,,"B,L",1,N,US,71464,,2019,Catawba
-81.19983772,35.71946691,47103,Shuford Elementary,Open,"810 Hunsucker Drive Conover, NC 28613",,Conover,NC,28613,8284643191,269,Tara,Kelley,8284643191,Newton Conover City Schools,2019-06-14T04:00:00.000Z,2019-06-14T04:00:00.000Z,F,8:00AM - 11:30AM,8:00AM - 8:30AM,11:00AM - 11:30AM,,,,"B,L",1,N,US,130110,,2019,Catawba
-81.22892289,35.6538295,47104,South Newton Elementary,Open,"306 West I Street Newton, NC 28658",,Newton,NC,28658,8284643191,269,Tara,Kelley,8284643191,Newton Conover City Schools,2019-06-14T04:00:00.000Z,2019-06-14T04:00:00.000Z,F,8:00AM - 12:00PM,8:00AM - 8:30AM,11:30AM - 12:00PM,,,,"B,L",1,N,US,130139,,2019,Catawba
-81.55833618,35.28779731,47107,Graham Elementary,Open,"1100 Blanton Street Shelby, NC 28150",,Shelby,NC,28150,7044768000,7858,Becky,Haynes,7044768000,Cleveland County Schools,2019-03-18T04:00:00.000Z,2019-03-28T04:00:00.000Z,"M,T,W,TH,F",7:00AM - 1:00PM,7:00AM - 9:00AM,11:00AM - 1:00PM,,,,"B,L",1,N,US,71253,,2019,Cleveland
-78.89882854,35.12675141,47111,College Lakes Recreation Center,Open,"4945 Rosahill Road Fayetteville, NC 28311",,Fayetteville,NC,28311,9106782659,,Evelyn,Adkins,9106782659,Cumberland County Schools,2019-05-28T04:00:00.000Z,2019-08-02T04:00:00.000Z,"M,T,W,TH,F",11:00AM - 12:30PM,,11:00AM - 12:30PM,,,,L,1,N,US,8304,,2019,Cumberland
-78.76184162,35.12160492,47112,Eastover-Central Recreation Center,Open,"3637 Pembroke Fayetteville, NC 28312",,Fayetteville,NC,28312,9106782659,,Evelyn,Adkins,9106782659,Cumberland County Schools,2019-05-28T04:00:00.000Z,2019-08-02T04:00:00.000Z,"M,T,W,TH,F",11:15AM - 12:45PM,,11:15AM - 12:45PM,,,,L,1,N,US,8511,,2019,Cumberland
-78.92348015,35.03984406,47114,Gilmore Therapeutic Rec. Center,Open,"1600 Purdue Drive Fayetteville, NC 28303",,Fayetteville,NC,28303,9106782659,,Evelyn,Adkins,9106782659,Cumberland County Schools,2019-05-28T04:00:00.000Z,2019-08-02T04:00:00.000Z,"M,T,W,TH,F",11:00AM - 12:30PM,,11:00AM - 12:30PM,,,,L,1,N,US,8711,,2019,Cumberland
-78.86703702,34.89079044,47115,Gray's Creek Recreation Center,Open,"2964 School Road Hope Mills, NC 28348",,Hope Mills,NC,28348,9106782659,,Evelyn,Adkins,9106782659,Cumberland County Schools,2019-05-28T04:00:00.000Z,2019-08-02T04:00:00.000Z,"M,T,W,TH,F",11:15AM - 12:30PM,,11:15AM - 12:30PM,,,,L,1,N,US,8755,,2019,Cumberland
-78.95647092,34.97255549,47116,"Hope Mills, Town of Hope Mills",Open,"5766 Rockfish Road Hope Mills, NC 28348",,Hope Mills,NC,28348,9106782659,,Evelyn,Adkins,9106782659,Cumberland County Schools,2019-06-03T04:00:00.000Z,2019-08-02T04:00:00.000Z,"M,T,W,TH,F",11:00AM - 12:30PM,,11:00AM - 12:30PM,,,,L,1,N,US,8872,,2019,Cumberland
-78.92289735,35.06849343,47117,Kiwanis Recreation Center,Open,"352 Devers Street (Will eat inside recreation center and outside at picnic tables) Fayetteville, NC 28303",Will eat inside recreation center and outside at picnic tables,Fayetteville,NC,28303,9106782659,,Evelyn,Adkins,9106782659,Cumberland County Schools,2019-05-28T04:00:00.000Z,2019-08-02T04:00:00.000Z,"M,T,W,TH,F",11:00AM - 1:00PM,,11:00AM - 1:00PM,,,,L,1,N,US,9052,,2019,Cumberland
-79.07648751,35.05081166,47118,Lake Rim Recreation Center,Open,"1455 Hoke Loop Road Fayetteville, NC 28314",,Fayetteville,NC,28314,9106782659,,Evelyn,Akdins,9106782659,Cumberland County Schools,2019-05-28T04:00:00.000Z,2019-08-02T04:00:00.000Z,"M,T,W,TH,F",11:00AM - 12:30PM,,11:00AM - 12:30PM,,,,L,1,N,US,9074,,2019,Cumberland
-78.8975135,35.02865534,47119,Massey Hill Recreation Center,Open,"1612 Camden Road Fayetteville, NC 28306",,Fayetteville,NC,28306,9106782659,,Evelyn,Adkins,9106782659,Cumberland County Schools,2019-05-28T04:00:00.000Z,2019-08-02T04:00:00.000Z,"M,T,W,TH,F",11:00AM - 12:30PM,,11:00AM - 12:30PM,,,,L,1,N,US,9256,,2019,Cumberland
-78.85600891,35.17970806,47120,Pine Forest Recreation Center,Open,"6901 Ramsey Street Fayetteville, NC 28311",,Fayetteville,NC,28311,9106782659,,Evelyn,Adkins,9106782659,Cumberland County Schools,2019-05-28T04:00:00.000Z,2019-08-02T04:00:00.000Z,"M,T,W,TH,F",11:15AM - 12:30PM,,11:15AM - 12:30PM,,,,L,1,N,US,9624,,2019,Cumberland
-78.89797802,35.07794885,47121,Smith Recreation Center,Open,"1520 Slater Ave Fayetteville, NC 28301",,Fayetteville,NC,28301,9106782659,,Evelyn,Adkins,9106782659,Cumberland County Schools,2019-05-28T04:00:00.000Z,2019-08-02T04:00:00.000Z,"M,T,W,TH,F",11:00AM - 1:00PM,,11:00AM - 1:00PM,,,,L,1,N,US,9927,,2019,Cumberland
-78.87231369,35.0397475,47122,Spivey Recreation Center,Open,"500 Fisher Street Fayetteville, NC 28301",,Fayetteville,NC,28301,9106782659,,Evelyn,Adkins,9106782659,Cumberland County Schools,2019-05-28T04:00:00.000Z,2019-08-02T04:00:00.000Z,"M,T,W,TH,F",11:00AM - 12:30PM,,11:00AM - 12:30PM,,,,L,1,N,US,9985,,2019,Cumberland
-78.69676241,35.01436697,47123,Stedman Recreation Center,Open,"175 Circle Drive Stedman, NC 28391",,Stedman,NC,28391,9106782659,,Evelyn,Adkins,9106782659,Cumberland County Schools,2019-05-28T04:00:00.000Z,2019-08-02T04:00:00.000Z,"M,T,W,TH,F",11:00AM - 12:30PM,,11:00AM - 12:30PM,,,,L,1,N,US,79786,,2019,Cumberland
-78.98793298,35.0821516,47124,Westover Recreation Center,Open,"267 Bonanza Drive Fayetteville, NC 28303",,Fayetteville,NC,28303,9106782659,,Evelyn,Adkins,9106782659,Cumberland County Schools,2019-05-28T04:00:00.000Z,2019-08-02T04:00:00.000Z,"M,T,W,TH,F",11:00AM - 12:30PM,,11:00AM - 12:30PM,,,,L,1,N,US,10277,,2019,Cumberland
-78.99330475,35.05829148,47125,Cliffdale Recreation Center,Open,"6404 Cliffdale Road Fayetteville, NC 28314",,Fayetteville,NC,28314,9106782659,,Evelyn,Adkins,9106782659,Cumberland County Schools,2019-05-28T04:00:00.000Z,2019-08-02T04:00:00.000Z,"M,T,W,TH,F",11:15AM - 12:30PM,,11:15AM - 12:30PM,,,,L,1,N,US,8290,,2019,Cumberland
-79.0144756,34.98117775,47126,Stoney Point Recreation Center,Open,"7411 Rockfish Road Fayetteville, NC 28306",,Fayetteville,NC,28306,9106782659,,Evelyn,Adkins,9106782659,Cumberland County Schools,2019-05-28T04:00:00.000Z,2019-08-02T04:00:00.000Z,"M,T,W,TH,F",11:15AM - 12:30PM,,11:15AM - 12:30PM,,,,L,1,N,US,79809,,2019,Cumberland
-80.08587026,35.7974214,47127,Brier Creek Elementary,Open,"175 Watford Road Thomasville, NC 27360",,Thomasville,NC,27360,3362425647,,Lynn,Essick,3362425647,Davidson County Schools,2019-07-08T04:00:00.000Z,2019-07-31T04:00:00.000Z,"M,T,W,TH",7:30AM - 1:15PM,7:30AM - 8:30AM,11:30AM - 1:15PM,,,,"B,L",1,N,US,75369,,2019,Davidson
-80.11880174,35.63333088,47128,Denton Elementary,Open,"305 West Salisbury Street Denton, NC 27239",,Denton,NC,27239,3362425647,,Lynn,Essick,3362425647,Davidson County Schools,2019-07-08T04:00:00.000Z,2019-07-31T04:00:00.000Z,"M,T,W,TH",7:30AM - 1:30PM,7:30AM - 8:30AM,11:30AM - 1:30PM,,,,"B,L",1,N,US,75631,,2019,Davidson
-80.08129582,35.9216767,47129,Hasty Elementary,Open,"325 Hasty School Road Thomasville, NC 27360",,Thomasville,NC,27360,3362425647,,Lynn,Essick,3362425647,Davidson County Schools,2019-07-08T04:00:00.000Z,2019-07-31T04:00:00.000Z,"M,T,W,TH",7:30AM - 1:15PM,7:30AM - 8:30AM,11:30AM - 1:15PM,,,,"B,L",1,N,US,75919,,2019,Davidson
-80.101008,35.73235942,47130,Silver Valley Elementary,Open,"11161 E. Old Hwy 64 Lexington, NC 27292",,Lexington,NC,27292,3362425647,,Lynn,Essick,3362425647,Davidson County Schools,2019-07-08T04:00:00.000Z,2019-07-31T04:00:00.000Z,"M,T,W,TH",7:30AM - 1:15PM,7:30AM - 8:30AM,11:30AM - 1:15PM,,,,"B,L",1,N,US,130118,,2019,Davidson
-80.25719533,35.90298003,47131,Welcome Elementary,Open,"5701 Old US Hwy52 Lexington, NC 27295",,Lexington,NC,27295,3362425647,,Lynn,Essick,3362425647,Davidson County Schools,2019-07-08T04:00:00.000Z,2019-07-31T04:00:00.000Z,"M,T,W,TH",7:30AM - 1:15PM,7:30AM - 8:30AM,11:30AM - 1:15PM,,,,"B,L",1,N,US,77017,,2019,Davidson
-80.32337179,35.79049096,47132,Tyro Elementary,Open,"450 Cow Palace Road Lexington, NC 27292",,Lexington,NC,27292,3362425647,,Lynn,Essick,3362425647,Davidson County Schools,2019-07-08T04:00:00.000Z,2019-07-31T04:00:00.000Z,"M,T,W,TH",7:30AM - 1:30PM,7:30AM - 8:30AM,11:30AM - 1:30PM,,,,"B,L",1,N,US,76949,,2019,Davidson
-80.27069338,35.6632593,47133,Southmont Elementary,Open,"398 Owen Rd. Lexington, NC 27292",,Lexington,NC,27292,3362425647,,Lynn,Essick,3362425647,Davidson County Schools,2019-07-08T04:00:00.000Z,2019-07-31T04:00:00.000Z,"M,T,W,TH",7:30AM - 1:15PM,7:30AM - 8:30AM,11:30AM - 1:15PM,,,,"B,L",1,N,US,130143,,2019,Davidson
-78.83866752,35.94203501,47135,Bethesda Elementary,Open,"2009 S. Miami Boulevard Durham, NC 27703",,Durham,NC,27703,9195602370,,Greg,Braswell,9195602370,Durham Public Schools,2019-05-01T04:00:00.000Z,2019-05-01T04:00:00.000Z,W,8:30AM - 1:00PM,8:30AM - 9:30AM,11:00AM - 1:00PM,,,,"B,L",1,N,US,41399,,2019,Durham
-78.83626589,36.02782861,47137,Glenn Elementary,Open,"2415 E. Geer St Durham, NC 27704",,Durham,NC,27704,9195602370,,Gregory,Braswell,9195602370,Durham Public Schools,2019-05-01T04:00:00.000Z,2019-05-01T04:00:00.000Z,W,8:30AM - 1:00PM,8:30AM - 9:30AM,11:00AM - 1:00PM,,,,"B,L",1,N,US,129509,,2019,Durham
-78.90094264,35.96591162,47146,Sheperd Middle,Open,"2401 Dakota Street Durham, NC 27703",,Durham,NC,27703,9195602370,,Greg,Braswell,9195602370,Durham Public Schools,2019-05-01T04:00:00.000Z,2019-05-01T04:00:00.000Z,W,8:30AM - 1:00PM,8:30AM - 9:30AM,11:00AM - 1:00PM,,,,"B,L",1,N,US,91767,,2019,Durham
-80.22225253,36.11781739,47148,Ashley Elementary,Open,"1647 Ashley School Circle Winston-Salem, NC 27105",,Winston-Salem,NC,27105,3367034204,,Courtney,Thompson,3367034204,Forsyth County Schools,2019-06-17T04:00:00.000Z,2019-08-08T04:00:00.000Z,"M,T,W,TH",8:15AM - 12:30PM,8:15AM - 8:45AM,11:30AM - 12:30PM,,,,"B,L",1,N,US,49812,,2019,Forsyth
-80.20871439,36.13429425,47150,Carver High,Open,"3545 Carver School Road Winston Salem, NC 27105",,Winston Salem,NC,27105,3367272301,,Tracey,Fulp,3367272301,Forsyth County Schools,2019-06-17T04:00:00.000Z,2019-08-08T04:00:00.000Z,"M,T,W,TH",8:15AM - 12:30PM,8:15AM - 8:45AM,11:30AM - 12:30PM,,,,"B,L",1,N,US,129253,,2019,Forsyth
-80.25661758,36.10886068,47151,Cook Elementary,Open,"920 W. 11th Street Winston Salem, NC 27105",,Winston Salem,NC,27105,3367034202,,Michelle,Hood,3367034202,Forsyth County Schools,2019-06-17T04:00:00.000Z,2019-08-08T04:00:00.000Z,"M,T,W,TH",8:15AM - 12:30PM,8:15AM - 8:45AM,11:30AM - 12:30PM,,,,"B,L",1,N,US,129333,,2019,Forsyth
-80.2639594,36.03978373,47153,Griffith Elementary,Open,"1385 W. Clemmonsville Road Winston Salem, NC 27127",,Winston Salem,NC,27127,3367034258,,Rhonda,Chambers,3367034258,Forsyth County Schools,2019-06-17T04:00:00.000Z,2019-08-08T04:00:00.000Z,"M,T,W,TH",8:15AM - 12:30PM,8:15AM - 8:45AM,11:30AM - 12:30PM,,,,"B,L",1,N,US,129535,,2019,Forsyth
-80.20035058,36.15765346,47154,Ibraham Elementary,Open,"5036 Old Walkertown Road Winston Salem, NC 27105",,Winston Salem,NC,27105,3367036773,,Kathy,Grubb,3367036773,Forsyth County Schools,2019-06-17T04:00:00.000Z,2019-08-08T04:00:00.000Z,"M,T,W,TH",8:15AM - 12:30PM,8:15AM - 8:45AM,11:30AM - 12:30PM,,,,"B,L",1,N,US,129608,,2019,Forsyth
-80.2346923,36.1080025,47155,Kennedy Learning,Open,"890 E. 11th Street Winston Salem, NC 27101",,Winston Salem,NC,27101,3367034159,,Twanna,Gardner,3367034159,Forsyth County Schools,2019-06-17T04:00:00.000Z,2019-08-08T04:00:00.000Z,"M,T,W,TH",8:15AM - 12:30PM,8:15AM - 8:45AM,11:30AM - 12:30PM,,,,"B,L",1,N,US,129674,,2019,Forsyth
-80.25517404,36.07876444,47156,Diggs/Latham Elementary School,Open,"986 Hutton Street Winston Salem, NC 27101",,Winston Salem,NC,27101,3367034104,,Octavia,House,3367034104,Forsyth County Schools,2019-06-17T04:00:00.000Z,2019-08-08T04:00:00.000Z,"M,T,W,TH",8:15AM - 12:30PM,8:15AM - 8:45AM,11:30AM - 12:30PM,,,,"B,L",1,N,US,129371,,2019,Forsyth
-80.238766,36.06212658,47157,Main Street Academy,Open,"2700 S. Main Street Winston Salem, NC 27127",,Winston Salem,NC,27127,3367034187,,Mitzi,Howell,3367034187,Forsyth County Schools,2019-06-17T04:00:00.000Z,2019-08-08T04:00:00.000Z,"M,T,W,TH",8:00AM - 12:30PM,8:00AM - 8:30AM,11:30AM - 12:30PM,,,,"B,L",1,N,US,129796,,2019,Forsyth
-83.79801659,35.32545861,47158,Robbinsville High,Open,"301 Sweetwater Road Robbinsville, NC 28771",,Robbinsville,NC,28771,8284799820,1014,Jerri D.,Moody,8284799820,Graham County Schools,2019-06-10T04:00:00.000Z,2019-07-31T04:00:00.000Z,"M,T,W,TH,F",8:00AM - 12:15PM,8:00AM - 9:00AM,11:15AM - 12:15PM,,,,"B,L",1,N,US,6416,,2019,Graham
-83.01423326,35.47933551,47159,Hazelwood Elementary School,Open,"1111 Plott Creek Road Waynesville, NC 28786",,Waynesville,NC,28786,8284562443,,Shannon,Clark,8284562443,Haywood County Schools,2019-06-10T04:00:00.000Z,2019-08-09T04:00:00.000Z,"M,T,W,TH,F",8:00AM - 12:40PM,8:00AM - 8:40AM,12:00PM - 12:40PM,,,,"B,L",1,N,US,4732,,2019,Haywood
-82.89624804,35.5329668,47160,Clyde Elementary School,Open,"4182 Old Clyde Rd. Clyde, NC 28721",,Clyde,NC,28721,8286279703,,Lou Ann,Wyatt,8286279703,Haywood County Schools,2019-06-13T04:00:00.000Z,2019-08-09T04:00:00.000Z,"M,T,W,TH,F",8:00AM - 12:30PM,8:00AM - 9:00AM,11:30AM - 12:30PM,,,,"B,L",1,N,US,3849,,2019,Haywood
-82.43710465,35.29603492,47162,King Creek Apartments and HUD,Open,"230 King Creek Blvd Hendersonville, NC 28792",,Hendersonville,NC,28792,8288916310,,Amanda,Stansbury,8288916310,Henderson County Schools,2019-06-24T04:00:00.000Z,2019-08-16T04:00:00.000Z,"M,T,W,TH,F",10:30AM - 10:55AM,,10:30AM - 10:55AM,,,,L,1,N,US,44548,,2019,Henderson
-82.40874569,35.28888969,47163,Dodd Meadows Community Cetner,Open,"315 Crest RD E Flat Rock, NC 28726",,E Flat Rock,NC,28726,8288916310,,Amanda,Stansbury,8288916310,Henderson County Schools,2019-06-24T04:00:00.000Z,2019-08-16T04:00:00.000Z,"M,T,W,TH,F",11:05AM - 11:30AM,,11:05AM - 11:30AM,,,,L,1,N,US,73546,,2019,Henderson
-82.43163579,35.34116954,47164,SUgarloaf Apartments,Open,"10 Hope Circle Hendersonville, NC 28792",,Hendersonville,NC,28792,8288916310,,Amanda,Stansbury,8288916310,Henderson County Schools,2019-06-24T04:00:00.000Z,2019-08-16T04:00:00.000Z,"M,T,W,TH,F",12:55PM - 1:20PM,,12:55PM - 1:20PM,,,,L,1,N,US,71693,,2019,Henderson
-82.41440706,35.29095922,47165,Leisure Ln,Open,"90 Crest Hill Rd East Flat Rock, NC 28726",,East Flat Rock,NC,28726,8288916310,,Amanda,Stansbury,8288916310,Henderson County Schools,2019-06-24T04:00:00.000Z,2019-08-16T04:00:00.000Z,"M,T,W,TH,F",12:15PM - 12:35PM,,12:15PM - 12:35PM,,,,L,1,N,US,78717,,2019,Henderson
-78.32454224,35.53073054,47167,Reach Our Communities,Open,"700 E Booker Dairy Rd Smithfield, NC 27577",,Smithfield,NC,27577,9196345807,,Tarsha,Johnson,9196345807,Johnston County Schools,2019-07-08T04:00:00.000Z,2019-07-31T04:00:00.000Z,"M,T,W,TH",8:00AM - 12:30PM,8:00AM - 9:00AM,11:30AM - 12:30PM,,,,"B,L",1,N,US,121978,,2019,Johnston
-78.45105183,35.65159118,47170,The Light Church of Clayton,Open,"400 Wall Street Clayton, NC 27520",,Clayton,NC,27520,9192635157,,Laneau,Lee,9192635157,Johnston County Schools,2019-07-29T04:00:00.000Z,2019-08-09T04:00:00.000Z,"M,T,W,TH,F",8:00AM - 12:30PM,8:00AM - 8:30AM,12:00PM - 12:30PM,,,,"B,L",1,N,US,71709,,2019,Johnston
-78.30010811,35.73450984,47172,Corinth Holders Elementary,Open,"3976 NC-231 Zebulon, NC 27597",,Zebulon,NC,27597,9193657560,2403,Ginger,Matthews,9193657560,Johnston County Schools,2019-05-01T04:00:00.000Z,2019-05-01T04:00:00.000Z,W,8:00AM - 8:30PM,8:00AM - 8:30PM,11:30AM - 12:30PM,,,,"B,L",1,N,US,129336,,2019,Johnston
-78.43231794,35.44957509,47173,Four Oaks Elementary,Open,"180 W Hatcher St Four Oaks, NC 27524",,Four Oaks,NC,27524,9199632165,2803,Laura,Chavis,9199632165,Johnston County Schools,2019-05-01T04:00:00.000Z,2019-05-01T04:00:00.000Z,W,8:00AM - 12:30PM,8:00AM - 8:30AM,11:30AM - 12:30PM,,,,"B,L",1,N,US,129462,,2019,Johnston
-78.17683686,35.46297525,47174,Princeton Elementary,Open,"650 Holts Pond Rd Princeton, NC 27569",,Princeton,NC,27569,9199360755,4303,Wendy,Creech,9199360755,Johnston County Schools,2019-05-01T04:00:00.000Z,2019-05-01T04:00:00.000Z,W,8:00AM - 12:30PM,8:00AM - 8:30AM,11:30AM - 12:30PM,,,,"B,L",1,N,US,130002,,2019,Johnston
-77.57674229,35.2964297,47175,Kinston High,Open,"2601 N. Queen St. Kinston, NC 28501",,Kinston,NC,28501,2525271109,1049,Danelle,Smith,2525271109,Lenoir County Public Schools,2019-06-10T04:00:00.000Z,2019-08-08T04:00:00.000Z,"M,T,W,TH",8:30AM - 12:30PM,8:30AM - 9:30AM,11:30AM - 12:30PM,,,,"B,L",1,N,US,44579,,2019,Lenoir
-77.51960685,35.32012252,47176,Contentnea Savannah School,Open,"3401 Ferrell Road Kinston, NC 28501",,Kinston,NC,28501,2525271109,1049,Danelle,Smith,2525271109,Lenoir County Public Schools,2019-07-08T04:00:00.000Z,2019-08-01T04:00:00.000Z,"M,T,W,TH",7:45AM - 1:00PM,7:45AM - 8:45AM,11:00AM - 1:00PM,,,,"B,L",1,N,US,81314,,2019,Lenoir
-77.78975017,35.30747052,47179,Lagrange Elementary,Open,"402 W. Railroad St. LaGrange, NC 28551",,LaGrange,NC,28551,2525271109,1049,Danelle,Smith,2525271109,Lenoir County Public Schools,2019-07-08T04:00:00.000Z,2019-08-01T04:00:00.000Z,"M,T,W,TH",7:30AM - 12:30PM,7:30AM - 8:30AM,11:30AM - 12:30PM,,,,"B,L",1,N,US,82389,,2019,Lenoir
-77.70511983,35.14631333,47180,South Lenoir High School,Open,"3355 Old Hwy 11 Deep Run, NC 28525",,Deep Run,NC,28525,2525271109,1049,Danelle,Smith,2525271109,Lenoir County Public Schools,2019-06-10T04:00:00.000Z,2019-08-08T04:00:00.000Z,"M,T,W,TH",8:00AM - 12:30PM,8:00AM - 9:00AM,11:30AM - 12:30PM,,,,"B,L",1,N,US,130137,,2019,Lenoir
-81.26175764,35.46199213,47181,Betty Ross Park,Open,"800 S. Madison Street Lincolnton, NC 28092",,Lincolnton,NC,28092,7047361017,20130,Amanda,Davis,7047361017,Lincoln County Schools,2019-06-12T04:00:00.000Z,2019-07-26T04:00:00.000Z,"M,T,W,TH,F",11:00AM - 12:00PM,,11:00AM - 12:00PM,,,,L,1,N,US,3321,,2019,Lincoln
-81.16713005,35.45904055,47182,Iron Station Reading Enrichment,Open,"4207 Hwy 27 E Iron Station, NC 28080",,Iron Station,NC,28080,7047361017,20130,Amanda,Davis,7047361017,Lincoln County Schools,2019-06-17T04:00:00.000Z,2019-07-12T04:00:00.000Z,"M,T,W,TH,F",8:00AM - 12:00PM,8:00AM - 8:30AM,11:30AM - 12:00PM,,,,"B,L",1,N,US,15964,,2019,Lincoln
-81.25534087,35.47508215,47183,A Place To Grow,Open,"410 N Poplar Street Lincolnton, NC 28092",,Lincolnton,NC,28092,7047361017,20130,Amanda,Davis,7047361017,Lincoln County Schools,2019-06-17T04:00:00.000Z,2019-07-26T04:00:00.000Z,"M,T,W,TH,F",8:30AM - 12:00PM,8:30AM - 9:00AM,11:30AM - 12:00PM,,,,"B,L",1,N,US,15292,,2019,Lincoln
-81.21509998,35.47927657,47184,Boger City UMC,Open,"2320 East Main Street Lincolnton, NC 28092",,Lincolnton,NC,28092,7047361017,20130,Amanda,Davis,7047361017,Lincoln County Schools,2019-06-17T04:00:00.000Z,2019-07-26T04:00:00.000Z,"M,T,W,TH,F",12:00PM - 12:30PM,,12:00PM - 12:30PM,,,,L,1,N,US,15405,,2019,Lincoln
-81.09551354,35.47419888,47185,Don't Foul Out,Open,"4137 Hwy 73 Iron Station, NC 28080",,Iron Station,NC,28080,7047361017,20130,Amanda,Davis,7047361017,Lincoln County Schools,2019-06-12T04:00:00.000Z,2019-06-27T04:00:00.000Z,"M,T,W,TH,F",8:30AM - 12:30PM,8:30AM - 9:00AM,12:00PM - 12:30PM,,,,"B,L",1,N,US,8461,,2019,Lincoln
-81.26369667,35.52026802,47186,Jumpstart - LMS,Open,"2361 Startown Road Lincolnton, NC 28092",,Lincolnton,NC,28092,7047361017,20130,Amanda,Davis,7047361017,Lincoln County Schools,2019-07-24T04:00:00.000Z,2019-07-25T04:00:00.000Z,"W,TH",8:00AM - 11:50AM,8:00AM - 8:15AM,11:30AM - 11:50AM,,,,"B,L",1,N,US,76063,,2019,Lincoln
-81.23657686,35.47275202,47187,LC Family YMCA,Open,"1402 E Gaston Street Lincolnton, NC 28092",,Lincolnton,NC,28092,7047361017,20130,Amanda,Davis,7047361017,Lincoln County Schools,2019-06-12T04:00:00.000Z,2019-07-26T04:00:00.000Z,"M,T,W,TH,F",8:00AM - 12:15PM,8:00AM - 8:30AM,11:30AM - 12:15PM,,,,"B,L",1,N,US,9107,,2019,Lincoln
-81.45237073,35.51437507,47190,West Lincoln Park,Open,"369 Hulls Grove Church Road Vale, NC 28168",,Vale,NC,28168,7047361017,20130,Amanda,Davis,7047361017,Lincoln County Schools,2019-06-12T04:00:00.000Z,2019-07-26T04:00:00.000Z,"M,T,W,TH,F",12:30PM - 1:00PM,,12:30PM - 1:00PM,,,,L,1,N,US,71773,,2019,Lincoln
-81.3146433,35.48135008,47191,Childers Elementary,Open,"2595 Rock Dam Road Lincolnton, NC 28092",,Lincolnton,NC,28092,7047361017,20130,Amanda,Davis,7047361017,Lincoln County Schools,2019-06-12T04:00:00.000Z,2019-07-26T04:00:00.000Z,"M,T,W,TH,F",7:30AM - 12:30PM,7:30AM - 8:30AM,10:30AM - 12:30PM,,,,"B,L",1,N,US,106476,,2019,Lincoln
-80.73071486,35.19738221,47193,Albemarle Road Elementary,Open,"7800 Riding Trail Road Charlotte, NC 28212",,Charlotte,NC,28212,9803436041,,Catherine,Beam,9803436041,Charlotte-Mecklenburg Schools,2019-06-24T04:00:00.000Z,2019-08-01T04:00:00.000Z,"M,T,W,TH",8:00AM - 12:00PM,8:00AM - 8:30AM,11:30AM - 12:00PM,,,,"B,L",1,N,US,33789,,2019,Mecklenburg
-80.83363318,35.16550544,47197,Alexander Graham Middle,Open,"1800 Runnymede Lane Charlotte, NC 28211",,Charlotte,NC,28211,9803436041,,Catherine,Beam,9803436041,Charlotte-Mecklenburg Schools,2019-06-17T04:00:00.000Z,2019-07-25T04:00:00.000Z,"M,T,W,TH,F",8:00AM - 12:45PM,8:00AM - 8:30AM,11:45AM - 12:45PM,,,,"B,L",1,N,US,33794,,2019,Mecklenburg
-80.88899489,35.08086881,47198,Pineville Elementary,Open,"204 Lowry Street Pineville, NC 28134",,Pineville,NC,28134,9803436041,,Catherine,Beam,9803436041,Charlotte-Mecklenburg Schools,2019-06-17T04:00:00.000Z,2019-08-09T04:00:00.000Z,"M,T,W,TH,F",7:30AM - 12:30PM,7:30AM - 8:30AM,11:00AM - 12:30PM,,,,"B,L",1,N,US,38141,,2019,Mecklenburg
-80.82752116,35.30680868,47200,Winding Springs Elementary,Open,"6601 Horace Mann Road Charlotte, NC 28269",,Charlotte,NC,28269,9803436041,,Catherine,Beam,9803436041,Charlotte-Mecklenburg Schools,2019-06-17T04:00:00.000Z,2019-08-09T04:00:00.000Z,"M,T,W,TH,F",8:00AM - 1:00PM,8:00AM - 9:00AM,12:00PM - 1:00PM,,,,"B,L",1,N,US,39927,,2019,Mecklenburg
-80.89296893,35.77645202,47202,Academy of Excellence,Open,"612 South Race St Statesville, NC 28166",,Statesville,NC,28166,9803436041,,Catherine,Beam,9803436041,Charlotte-Mecklenburg Schools,2019-06-17T04:00:00.000Z,2019-07-12T04:00:00.000Z,"M,T,W,TH,F",9:00AM - 1:00PM,9:00AM - 10:00AM,12:00PM - 1:00PM,,,,"B,L",1,N,US,117082,,2019,Iredell
-80.88102084,35.78107898,47204,Calvary Presbyterian Church,Open,"531 S Green St Statesville, NC 28677",,Statesville,NC,28677,9803433461,,Catherine,Beam,9803433461,Charlotte-Mecklenburg Schools,2019-06-24T04:00:00.000Z,2019-07-24T04:00:00.000Z,"M,T,W,TH,F",8:15AM - 1:00PM,8:15AM - 9:15AM,12:00PM - 1:00PM,,,,"B,L",1,N,US,34519,,2019,Iredell
-80.90742574,35.24818185,47205,Tuckaseegee Recreation Center,Open,"4820 Tuckaseegee Rd Charlotte, NC 28208",,Charlotte,NC,28208,9803433461,,Catherine,Beam,9803433461,Charlotte-Mecklenburg Schools,2019-06-17T04:00:00.000Z,2019-08-09T04:00:00.000Z,"M,T,W,TH,F",8:30AM - 12:30PM,8:30AM - 9:30AM,11:30AM - 12:30PM,,,,"B,L",1,N,US,48012,,2019,Mecklenburg
-80.7309504,35.20041774,47207,YMCA Simmons,Open,"6824 Democracy Dr Charlotte, NC 28212",,Charlotte,NC,28212,9803436041,,Catherine,Beam,9803436041,Charlotte-Mecklenburg Schools,2019-06-17T04:00:00.000Z,2019-08-09T04:00:00.000Z,"M,T,W,TH,F",8:00AM - 12:30PM,8:00AM - 8:30AM,12:00PM - 12:30PM,,,,"B,L",1,N,US,40053,,2019,Mecklenburg
-80.72043436,35.20418642,47208,Your Destiny,Open,"7212 Albemarle Road Charlotte, NC 28227",,Charlotte,NC,28227,9803433461,,Catherine,Beam,9803433461,Charlotte-Mecklenburg Schools,2019-06-12T04:00:00.000Z,2019-08-09T04:00:00.000Z,"M,T,W,TH,F",8:00AM - 1:00PM,8:00AM - 9:00AM,12:00PM - 1:00PM,,,,"B,L",1,N,US,99967,,2019,Mecklenburg
-80.80215092,35.59037927,47209,Y Readers Park View ES Mooresville,Open,"217 West McNeely Ave Mooresville, NC 28115",,Mooresville,NC,28115,9803436041,,Catherine,Beam,9803436041,Charlotte-Mecklenburg Schools,2019-06-17T04:00:00.000Z,2019-07-17T04:00:00.000Z,"M,T,W,TH",8:00AM - 12:00PM,8:00AM - 8:30AM,11:30AM - 12:00PM,,,,"B,L",1,N,US,48716,,2019,Iredell
-80.72160191,35.23166385,47211,Afrikan Star Academy,Open,"6329 Teaneck Place Charlotte, NC 28215",,Charlotte,NC,28215,9803436041,,Catherine,Beam,9803436041,Charlotte-Mecklenburg Schools,2019-06-12T04:00:00.000Z,2019-08-09T04:00:00.000Z,"M,T,W,TH,F",7:30AM - 12:00PM,7:30AM - 8:00AM,11:30AM - 12:00PM,,,,"B,L",1,N,US,99706,,2019,Mecklenburg
-80.72024184,35.27593797,47215,United Wesleyan Church,Open,"2601 Rocky River Rd Charlotte, NC 28213",,Charlotte,NC,28213,9803436041,,Catherine,Beam,9803436041,Charlotte-Mecklenburg Schools,2019-06-12T04:00:00.000Z,2019-08-09T04:00:00.000Z,"M,T,W,TH,F",8:30AM - 1:00PM,8:30AM - 9:30AM,12:00PM - 1:00PM,,,,"B,L",1,N,US,99946,,2019,Mecklenburg
-80.85622513,35.7555245,47216,YMCA Third Creek,Open,"361 East Barkley Rd Statesville, NC 28677",,Statesville,NC,28677,9803436041,,Catherine,Beam,9803436041,Charlotte-Mecklenburg Schools,2019-06-17T04:00:00.000Z,2019-07-25T04:00:00.000Z,"M,T,W,TH",7:45AM - 1:00PM,7:45AM - 8:15AM,12:30PM - 1:00PM,,,,"B,L",1,N,US,99964,,2019,Iredell
-80.72412484,35.19559745,47218,Albemarle Road Recreation Center,Open,"5027 North Idlewild Road Charlotte, NC 28227",,Charlotte,NC,28227,9803436041,,Catherine,Beam,9803436041,Charlotte-Mecklenburg Schools,2019-06-12T04:00:00.000Z,2019-08-09T04:00:00.000Z,"M,T,W,TH,F",8:30AM - 12:30PM,8:30AM - 9:30AM,11:30AM - 12:30PM,,,,"B,L",1,N,US,117116,,2019,Mecklenburg
-80.89053325,35.13743374,47219,Windgate Place Apartments,Open,"200 Branchview Dr Charlotte, NC 28217",,Charlotte,NC,28217,9803436041,,Catherine,Beam,9803436041,Charlotte-Mecklenburg Schools,2019-06-12T04:00:00.000Z,2019-08-09T04:00:00.000Z,"M,T,W,TH,F",9:30AM - 1:00PM,9:30AM - 10:00AM,12:30PM - 1:00PM,,,,"B,L",1,N,US,113759,,2019,Mecklenburg
-80.79734462,35.21902944,47224,Charlotte Leadership Academy,Open,"2715 Central Ave Charlotte, NC 28205",,Charlotte,NC,28205,9803433461,,Catherine,Beam,9803433461,Charlotte-Mecklenburg Schools,2019-06-12T04:00:00.000Z,2019-08-02T04:00:00.000Z,"M,T,W,TH,F",8:00AM - 12:30PM,8:00AM - 8:30AM,12:00PM - 12:30PM,,,,"B,L",1,N,US,129285,,2019,Mecklenburg
-80.98505613,35.78576117,47226,West Iredell Middle,Open,"303 Watermelon Rd Statesville, NC 28624",,Statesville,NC,28624,9803436041,,Catherine,Beam,9803436041,Charlotte-Mecklenburg Schools,2019-07-24T04:00:00.000Z,2019-07-24T04:00:00.000Z,W,12:00PM - 1:00PM,,12:00PM - 1:00PM,,,,L,1,N,US,130352,,2019,Iredell
-82.15138356,36.01384518,47227,Cane Creek Apartments,Open,"101 Rhododenron Circle Bakersville, NC 28705",,Bakersville,NC,28705,8287662220,2240,Heather,Calhoun,8287662220,Mitchell County Schools,2019-06-18T04:00:00.000Z,2019-07-18T04:00:00.000Z,"T,TH",12:00PM - 12:35PM,,12:00PM - 12:35PM,,,,L,1,N,US,90169,,2019,Mitchell
-82.07442569,35.90249337,47228,Spruce Pine Methodist Churck,Open,"11090 NC-226 Spruce Pine, NC 28777",,Spruce Pine,NC,28777,8287657446,,Jeremy,Troxler,8287657446,Mitchell County Schools,2019-06-18T04:00:00.000Z,2019-07-18T04:00:00.000Z,"M,W",12:00PM - 12:35PM,,12:00PM - 12:35PM,,,,L,1,N,US,130160,,2019,Mitchell
-77.90162799,34.24410337,47229,Rachel Freeman School of Engineering,Open,"3601 Princess Place Wilmigton, NC 28405",,Wilmigton,NC,28405,9102516043,,Kristiana,Gouverneur,9102516043,New Hanover County Schools,2019-04-08T04:00:00.000Z,2019-04-12T04:00:00.000Z,"M,T,W,TH,F",8:00AM - 12:15PM,8:00AM - 8:25AM,11:30AM - 12:15PM,,,,"B,L",1,N,US,71569,,2019,New Hanover
-77.92094753,34.24000076,47231,Snipes Academy of Arts and Design,Open,"2150 Chestnut St Wilmington, NC 28405",,Wilmington,NC,28405,9108156973,,Gale,Karnes,9108156973,New Hanover County Schools,2019-04-04T04:00:00.000Z,2019-04-09T04:00:00.000Z,"M,T,TH,F",8:00AM - 12:30PM,8:00AM - 8:30AM,11:45AM - 12:30PM,,,,"B,L",1,N,US,71649,,2019,New Hanover
-77.92780541,34.21601627,47232,Lake Forest Academy,Open,"1806 S 15th Street Wilmington, NC 28401",,Wilmington,NC,28401,9102544212,,Imer,Smith,9102544212,New Hanover County Schools,2018-12-20T05:00:00.000Z,2019-07-17T04:00:00.000Z,"M,T,W,TH,F",7:30AM - 12:00PM,7:30AM - 8:30AM,11:30AM - 12:00PM,,,,"B,L",1,N,US,52980,,2019,New Hanover
-77.91382126,34.13950162,47234,MARY C WILLIAM (UNEXPECTED CLOSURE),Open,"801 SILVER LAKE RD WILMINGTON, NC 28412",,WILMINGTON,NC,28412,9103502152,,VANESSA,BOZEMAN,9103502152,New Hanover County Schools,2019-05-01T04:00:00.000Z,2019-05-01T04:00:00.000Z,W,11:30AM - 12:30PM,,11:30AM - 12:30PM,,,,L,1,N,US,107886,,2019,New Hanover
-77.92113937,34.29273559,47235,WRIGHTSBORO (UNEXPECTED CLOSURE),Open,"2716 CASTLE HAYNE RD WILMINGTON, NC 28401",,WILMINGTON,NC,28401,9108156912,,BRIGITTE,ROBERTS,9108156912,New Hanover County Schools,2019-05-01T04:00:00.000Z,2019-05-01T04:00:00.000Z,W,11:30AM - 12:30PM,,11:30AM - 12:30PM,,,,L,1,N,US,109427,,2019,New Hanover
-77.93602712,34.23036587,47236,WILLISTON (UNEXPECTED CLOSURE),Open,"401 S 10TH ST WILMINGTON, NC 28401",,WILMINGTON,NC,28401,9108156908,,MICHAEL,MARKANTONE,9108156908,New Hanover County Schools,2019-05-01T04:00:00.000Z,2019-05-01T04:00:00.000Z,W,11:30AM - 12:30PM,,11:30AM - 12:30PM,,,,L,1,N,US,109385,,2019,New Hanover
-77.39252887,34.75364616,47237,Bell Fork Elementary,Open,"500 Bell Fork Road Jacksonville, NC 28540",,Jacksonville,NC,28540,9104552211,20571,Rebecca,Collins,9104552211,Onslow County Schools,2019-07-15T04:00:00.000Z,2019-08-01T04:00:00.000Z,"M,T,W,TH",11:00AM - 12:00PM,,11:00AM - 12:00PM,,,,L,1,N,US,84915,,2019,Onslow
-77.41173538,34.75654187,47238,Clyde Erwin Elementary,Open,"323 New River Drive Jacksonville, NC 28540",,Jacksonville,NC,28540,9104552211,20571,Rebecca,Collins,9104552211,Onslow County Schools,2019-03-15T04:00:00.000Z,2019-03-29T04:00:00.000Z,"M,T,W,TH,F",11:00AM - 12:00PM,,11:00AM - 12:00PM,,,,L,1,N,US,42256,,2019,Onslow
-77.3394014,34.74072319,47239,Hunters Creek Elementary,Open,"3450 Hunters Trail Jacksonville, NC 28546",,Jacksonville,NC,28546,9104552211,20571,Rebecca,Collins,9104552211,Onslow County Schools,2019-07-15T04:00:00.000Z,2019-08-01T04:00:00.000Z,"M,T,W,TH",11:00AM - 12:00PM,,11:00AM - 12:00PM,,,,L,1,N,US,44135,,2019,Onslow
-77.4265829,34.77151411,47241,Northwoods Elementary,Open,"617 Henderson Drive Jacksonville, NC 28540",,Jacksonville,NC,28540,9104552211,20571,Rebecca,Collins,9104552211,Onslow County Schools,2019-06-12T04:00:00.000Z,2019-06-14T04:00:00.000Z,"W,TH,F",11:00AM - 12:00PM,,11:00AM - 12:00PM,,,,L,1,N,US,119135,,2019,Onslow
-77.52741369,34.7335532,47242,Southwest Elementary,Open,"2601 Burgaw Highway Jacksonville, NC 28540",,Jacksonville,NC,28540,9104552211,20571,Rebecca,Collins,9104552211,Onslow County Schools,2019-07-15T04:00:00.000Z,2019-08-01T04:00:00.000Z,"M,T,W,TH",11:00AM - 12:00PM,,11:00AM - 12:00PM,,,,L,1,N,US,88428,,2019,Onslow
-77.46578169,34.81371739,47243,Summersill Elementary,Open,"250 Summersill School Road Jacksonville, NC 28540",,Jacksonville,NC,28540,9104552211,25071,Rebecca,Collins,9104552211,Onslow County Schools,2019-07-15T04:00:00.000Z,2019-08-01T04:00:00.000Z,"M,T,W,TH",11:00AM - 12:00PM,,11:00AM - 12:00PM,,,,L,1,N,US,47642,,2019,Onslow
-79.111338,36.08039589,47245,Hillsborough Elementary,Open,"402 N. Nash Street Hillsborough, NC 27278",,Hillsborough,NC,27278,9197326137,43075,Lisa,Sales,9197326137,Orange County Schools,2019-06-17T04:00:00.000Z,2019-06-28T04:00:00.000Z,"M,T,W,TH,F",7:30AM - 12:30PM,7:30AM - 8:00AM,12:00PM - 12:30PM,,,,"B,L",1,N,US,129000,,2019,Orange
-79.07429525,36.01868786,47246,New Hope Elementary,Open,"1900 New Hope Church Road Chapel Hill, NC 27514",,Chapel Hill,NC,27514,9197328126,44075,Christi,Hemingway,9197328126,Orange County Schools,2019-07-15T04:00:00.000Z,2019-08-08T04:00:00.000Z,"M,T,W,TH",7:30AM - 12:00PM,7:30AM - 8:30AM,11:30AM - 12:00PM,,,,"B,L",1,N,US,5847,,2019,Orange
-79.12577318,36.05239152,47249,Grady Brown Elementary,Open,"1100 New Grady Brown Road Hillsborough, NC 27278",,Hillsborough,NC,27278,9197326138,45075,Jacquelyn,Hester,9197326138,Orange County Schools,2019-07-15T04:00:00.000Z,2019-08-02T04:00:00.000Z,"M,T,W,TH,F",7:30AM - 12:30PM,7:30AM - 8:30AM,11:30AM - 12:30PM,,,,"B,L",1,N,US,71252,,2019,Orange
-79.11405595,36.07981656,47251,Central Elementary,Open,"154 Hayes Street Hillsborough, NC 27278",,Hillsborough,NC,27278,9197328126,41075,Jackie,Hester,9197328126,Orange County Schools,2019-05-01T04:00:00.000Z,2019-06-28T04:00:00.000Z,"M,T,W,TH,F",7:30AM - 12:15PM,7:30AM - 8:00AM,11:30AM - 12:15PM,,,,"B,L",1,N,US,3702,,2019,Orange
-79.01484504,35.94400301,47253,Dobbins Hill Family Resource Center,Open,"1749 Dobbins Drive Chapel hill, NC 27514",,Chapel hill,NC,27514,9199601163,,Carolyn,Brandt,9199601163,Chapel Hill-Carrboro Schools,2019-05-01T04:00:00.000Z,2019-08-09T04:00:00.000Z,"M,T,W,TH,F",11:00AM - 12:30PM,,11:00AM - 12:30PM,,,,L,1,N,US,42668,,2019,Orange
-79.06294106,35.91689205,47255,Northside Read to Achieve,Open,"350 Caldwell St Chapel hill, NC 27516",,Chapel hill,NC,27516,9199678211,28305,Elaine,Watson-Grant,9199678211,Chapel Hill-Carrboro Schools,2019-05-01T04:00:00.000Z,2019-08-09T04:00:00.000Z,"M,T,W,TH,F",8:00AM - 12:00PM,8:00AM - 8:45AM,11:00AM - 12:00PM,,,,"B,L",1,N,US,45980,,2019,Orange
-79.02427124,35.92469041,47256,S. Estes Apartments,Open,"301 S. Estes Dr Chapel hill, NC 27517",,Chapel hill,NC,27517,9199601163,,CAROLYN,BRANDT,9199601163,Chapel Hill-Carrboro Schools,2019-05-01T04:00:00.000Z,2019-08-09T04:00:00.000Z,"M,T,W,TH,F",11:30AM - 12:30PM,,11:30AM - 12:30PM,,,,L,1,N,US,83550,,2019,Orange
-79.82108083,35.69061748,47257,South Asheboro Middle,Open,"523 W Walker Ave Asheboro, NC 27203",,Asheboro,NC,27203,3366294141,,Ronald,Dixon,3366294141,Asheboro City Schools,2019-06-12T04:00:00.000Z,2019-06-27T04:00:00.000Z,"M,T,W,TH",7:40AM - 12:00PM,7:40AM - 8:00AM,10:40AM - 12:00PM,,,,"B,L",1,N,US,122151,,2019,Randolph
-79.80944175,35.67392454,47258,Guy B Teachey Elementary,Open,"294 Newbern Avenue Asheboro, NC 27205",,Asheboro,NC,27205,3366254163,,Ann,Evans,3366254163,Asheboro City Schools,2019-06-12T04:00:00.000Z,2019-06-27T04:00:00.000Z,"M,T,W,TH",7:30AM - 12:00PM,7:30AM - 8:00AM,10:30AM - 12:00PM,,,,"B,L",1,N,US,43732,,2019,Randolph
-80.19619732,35.3546385,47259,Central Elementary,Open,"250 N. Third St. Albemarle, NC 28001",,Albemarle,NC,28001,7049613224,,Barbara,Massey,7049613224,Stanly County Schools,2019-06-17T04:00:00.000Z,2019-08-08T04:00:00.000Z,"M,T,W,TH,F",8:00AM - 1:00PM,8:00AM - 9:00AM,11:00AM - 1:00PM,,,,"B,L",1,N,US,22683,,2019,Stanly
-80.65667611,36.48016956,47260,Meadowview Magnet Middle School - Open Site,Open,"1282 McKinney Road Mount Airy, NC 27030",,Mount Airy,NC,27030,3363868866,,Rodney,Dockery,3363868866,Surry County Schools,2019-06-13T04:00:00.000Z,2019-07-26T04:00:00.000Z,"M,T,W,TH,F",11:00AM - 12:00PM,,11:00AM - 12:00PM,,,,L,1,N,US,129829,,2019,Surry
-80.61516788,36.51130057,47261,Mount Airy High,Open,"1011 N. South Street Mount Airy, NC 27030",,Mount Airy,NC,27030,3367897514,,Celena,Watson,3367897514,Mount Airy City Schools,2019-06-17T04:00:00.000Z,2019-07-26T04:00:00.000Z,"M,T,W,TH,F",8:00AM - 12:30PM,8:00AM - 8:30AM,11:00AM - 12:30PM,,,,"B,L",1,N,US,23546,,2019,Surry
-82.70353308,35.25803023,47266,Transylvania County Parks and Recreation,Open,"1078 Ecusta Road Brevard, NC 28712",,Brevard,NC,28712,8288843156,,Mandi,Bentley,8288843156,Transylvania County Schools,2019-06-10T04:00:00.000Z,2019-08-16T04:00:00.000Z,"M,T,W,TH,F",8:00AM - 2:00PM,,12:00PM - 2:00PM,8:00AM - 9:00AM,,,"L,M",1,N,US,39419,,2019,Transylvania
-78.52166355,35.77530345,47282,Hodge Road Elementary,Open,"2128 Mingo Bluff Blvd Knightdale, NC 27545",,Knightdale,NC,27545,9195883523,,Becky,Bryan,9195883523,Wake County Schools,2019-04-02T04:00:00.000Z,2019-05-01T04:00:00.000Z,W,11:00AM - 1:00PM,,11:00AM - 1:00PM,,,,L,1,N,US,15913,,2019,Wake
-78.58343389,35.77923875,47283,Poe Center for Health Education (Open),Open,"224 Sunnybrook Road Raleigh, NC 27610",,Raleigh,NC,27610,9195883523,,Becky,Bryan,9195883523,Wake County Schools,2019-06-19T04:00:00.000Z,2019-08-07T04:00:00.000Z,W,11:00AM - 12:00PM,,11:00AM - 12:00PM,,,,L,1,N,US,6198,,2019,Wake
-78.54996697,35.89211789,47284,Wildwood Elementary,Open,"8401 Wildwood Forest Drive Raleigh, NC 27616",,Raleigh,NC,27616,9195883523,,Becky,Bryan,9195883523,Wake County Schools,2019-05-01T04:00:00.000Z,2019-05-01T04:00:00.000Z,W,11:00AM - 1:00PM,,11:00AM - 1:00PM,,,,L,1,N,US,16867,,2019,Wake
-78.61482692,35.76519566,47285,Advance Community Health,Open,"1011 Rock Quarry Road Raleigh, NC 27610",,Raleigh,NC,27610,9195883523,,Becky,Bryan,9195883523,Wake County Schools,2019-06-17T04:00:00.000Z,2019-08-08T04:00:00.000Z,"M,T,W,TH",12:00PM - 2:00PM,,12:00PM - 2:00PM,,,,L,1,N,US,109549,,2019,Wake
-78.56975634,35.7701737,47286,Historic Oak View County Park,Open,"4028 Carya Drive Raleigh, NC 27610",,Raleigh,NC,27610,9195883523,,Becky,Bryan,9195883523,Wake County Schools,2019-06-17T04:00:00.000Z,2019-08-09T04:00:00.000Z,"M,T,W,TH,F",11:00AM - 12:00PM,,11:00AM - 12:00PM,,,,L,1,N,US,64113,,2019,Wake
-78.80702283,35.5927165,47287,Pine Acres Community Center,Open,"402 Mclean Street Fuquay-Varina, NC 27526",,Fuquay-Varina,NC,27526,9195883523,,Becky,Bryan,9195883523,Wake County Schools,2019-06-17T04:00:00.000Z,2019-08-09T04:00:00.000Z,"M,T,W,TH,F",12:00PM - 1:00PM,,12:00PM - 1:00PM,,,,L,1,N,US,87843,,2019,Wake
-78.47589106,35.79591541,47289,Knightdale Station Park,Open,"801 N. First Avenue Knightdale, NC 27545",,Knightdale,NC,27545,9195883523,,Becky,Bryan,9195883523,Wake County Schools,2019-06-19T04:00:00.000Z,2019-08-07T04:00:00.000Z,W,11:00AM - 1:00PM,,11:00AM - 1:00PM,,,,L,1,N,US,86813,,2019,Wake
-78.64239269,35.8539568,47290,Green Elementary,Open,"5307 Six Forks Road Raleigh, NC 27609",,Raleigh,NC,27609,9195883523,,Becky,Bryan,9195883523,Wake County Schools,2019-05-01T04:00:00.000Z,2019-05-01T04:00:00.000Z,W,11:00AM - 1:00PM,,11:00AM - 1:00PM,,,,L,1,N,US,121178,,2019,Wake
-78.64235211,35.76681969,47291,Washington Elementary,Open,"1000 Fayetteville Street Raleigh, NC 27601",,Raleigh,NC,27601,9195883523,,Becky,Bryan,9195883523,Wake County Schools,2019-05-01T04:00:00.000Z,2019-05-01T04:00:00.000Z,W,11:00AM - 1:00PM,,11:00AM - 1:00PM,,,,L,1,N,US,130333,,2019,Wake
-78.62965055,35.7726665,47292,Learning Together,Open,"568 E. Lenoir Street (Suite 204) Raleigh, NC 27601",Suite 204,Raleigh,NC,27601,9195883523,,Becky,Bryan,9195883523,Wake County Schools,2019-06-21T04:00:00.000Z,2019-08-09T04:00:00.000Z,F,12:00PM - 1:30PM,,12:00PM - 1:30PM,,,,L,1,N,US,121473,,2019,Wake
-78.54013712,35.87363068,47293,Perry Hill Apartments,Open,"6501 Andron Drive Raleigh, NC 27616",,Raleigh,NC,27616,9195883523,,Becky,Bryan,9195883523,Wake County Schools,2019-06-17T04:00:00.000Z,2019-08-09T04:00:00.000Z,"M,T,W,TH,F",9:00AM - 2:00PM,9:00AM - 10:00AM,1:00PM - 2:00PM,,,,"B,L",1,N,US,123372,,2019,Wake
-78.78183494,35.58630544,47294,Wake County Southern Regional Center,Open,"130 N Judd Parkway, NE Fuquay-Varina, NC 27526",,Fuquay-Varina,NC,27526,9195572501,,Becky,Bryan,9195572501,Wake County Schools,2019-06-20T04:00:00.000Z,2019-08-08T04:00:00.000Z,TH,12:00PM - 1:00PM,,12:00PM - 1:00PM,,,,L,1,N,US,130326,,2019,Wake
-81.18064817,36.23654502,47297,Mulberry Reading Camp,Open,"190 Mulberry School Road North Wilkesboro, NC 28659",,North Wilkesboro,NC,28659,3366514005,,Marty,Johnson,3366514005,Wilkes County Schools,2019-05-31T04:00:00.000Z,2019-07-26T04:00:00.000Z,"M,T,W,TH,F",8:00AM - 12:30PM,8:00AM - 8:30AM,12:00PM - 12:30PM,,,,"B,L",1,N,US,37541,,2019,Wilkes
-81.14829793,36.15965621,47298,Wilkes County Public Library,Open,"215 Tenth Street North Wilkesboro, NC 28659",,North Wilkesboro,NC,28659,3366514005,,Marty,Johnson,3366514005,Wilkes County Schools,2019-06-03T04:00:00.000Z,2019-08-02T04:00:00.000Z,"M,T,W,TH,F",12:00PM - 1:00PM,,12:00PM - 1:00PM,,,,L,1,N,US,16869,,2019,Wilkes
-80.88907178,36.27581119,47299,CBE Reading Camp,Open,"1288 CB Eller School Road Elkin, NC 28621",,Elkin,NC,28621,3366514005,,Marty,Johnson,3366514005,Wilkes County Schools,2019-05-31T04:00:00.000Z,2019-06-05T04:00:00.000Z,"M,T,W,F",8:00AM - 12:30PM,8:00AM - 8:30AM,12:00PM - 12:30PM,,,,"B,L",1,N,US,77584,,2019,Wilkes
-81.2346249,36.18709678,47300,Millers Creek Christian School,Open,"5100 Boone Trail Road Millers Creek, NC 28651",,Millers Creek,NC,28651,3366514005,,Marty,Johnson,3366514005,Wilkes County Schools,2019-06-03T04:00:00.000Z,2019-08-02T04:00:00.000Z,"M,T,W,TH,F",8:00AM - 4:00PM,8:00AM - 8:30AM,,,3:30PM - 4:00PM,,"B,A",1,N,US,16193,,2019,Wilkes
-80.92935088,36.24559231,47304,East Middle Success Academy,Open,"2202 Macedonia Church Road Ronda, NC 28670",,Ronda,NC,28670,3366514005,,Marty,Johnson,3366514005,Wilkes County Schools,2019-05-31T04:00:00.000Z,2019-06-05T04:00:00.000Z,"M,T,W,F",8:00AM - 1:00PM,8:00AM - 8:30AM,12:30PM - 1:00PM,,,,"B,L",1,N,US,77957,,2019,Wilkes
-81.2979731,36.1016428,47305,Boomer Ferguson Success Academy,Open,"556 Boomer Ferguson School Road Boomer, NC 28636",,Boomer,NC,28636,3366514005,,Marty,Johnson,3366514005,Wilkes County Schools,2019-05-31T04:00:00.000Z,2019-06-05T04:00:00.000Z,"M,T,W,F",8:00AM - 12:00PM,8:00AM - 8:30AM,11:30AM - 12:00PM,,,,"B,L",1,N,US,73285,,2019,Wilkes
-81.10016896,36.28155592,47306,North High Success Academy,Open,"2986 Traphill Road Hays, NC 28635",,Hays,NC,28635,3366514005,,Marty,Johnson,3366514005,Wilkes County Schools,2019-05-31T04:00:00.000Z,2019-06-05T04:00:00.000Z,"M,T,W,F",7:50AM - 11:30AM,7:50AM - 8:20AM,,,11:00AM - 11:30AM,,"B,A",1,N,US,79144,,2019,Wilkes
-81.02947853,36.34730784,47307,Traphill Success Academy,Open,"9794 Traphill Road Traphill, NC 28685",,Traphill,NC,28685,3366514005,,Marty,Johnson,3366514005,Wilkes County Schools,2019-05-31T04:00:00.000Z,2019-06-05T04:00:00.000Z,"M,T,W,F",7:20AM - 12:30PM,7:20AM - 7:50AM,12:00PM - 12:30PM,,,,"B,L",1,N,US,74799,,2019,Wilkes
-81.18196229,36.09743526,47308,Moravian Falls Success Academy,Open,"2001 Moravian Falls Road Moravian Falls, NC 28654",,Moravian Falls,NC,28654,3366514005,,Marty,Johnson,3366514005,Wilkes County Schools,2019-05-31T04:00:00.000Z,2019-06-05T04:00:00.000Z,"M,T,W,F",7:30AM - 12:30PM,7:30AM - 8:30AM,11:30AM - 12:30PM,,,,"B,L",1,N,US,74203,,2019,Wilkes
-81.32620369,36.14866422,47309,Mt. Pleasant Success Academy,Open,"532 Champion Mt. Pleasant Road Ferguson, NC 28624",,Ferguson,NC,28624,3366514005,,Marty,Johnson,3366514005,Wilkes County Schools,2019-05-31T04:00:00.000Z,2019-06-05T04:00:00.000Z,"M,T,W,F",7:30AM - 12:30PM,7:30AM - 8:00AM,12:00PM - 12:30PM,,,,"B,L",1,N,US,79041,,2019,Wilkes
-81.15073944,36.26266296,47312,North Middle Success Academy,Open,"2776 Yellow Banks Road North Wilkesboro, NC 28659",,North Wilkesboro,NC,28659,3366514005,,Marty,Johnson,3366514005,Wilkes County Schools,2019-05-31T04:00:00.000Z,2019-06-05T04:00:00.000Z,"M,T,W,F",8:00AM - 12:30PM,8:00AM - 8:30AM,12:00PM - 12:30PM,,,,"B,L",1,N,US,79149,,2019,Wilkes
-81.25980518,36.18369336,47313,West High Success Academy,Open,"6598 Boone Trail Millers Creek, NC 28651",,Millers Creek,NC,28651,3366514005,,Marty,Johnson,3366514005,Wilkes County Schools,2019-05-31T04:00:00.000Z,2019-06-05T04:00:00.000Z,"M,T,W,F",8:00AM - 12:30PM,8:00AM - 8:30AM,,,12:00PM - 12:30PM,,"B,A",1,N,US,80111,,2019,Wilkes
-81.18038749,36.10997407,47314,Wilkes Central Success Academy,Open,"1179 Moravian Falls Road Wilkesboro, NC 28697",,Wilkesboro,NC,28697,3366514005,,Marty,Johnson,3366514005,Wilkes County Schools,2019-05-31T04:00:00.000Z,2019-06-05T04:00:00.000Z,"M,T,W,F",7:15AM - 12:30PM,7:15AM - 7:45AM,,,12:00PM - 12:30PM,,"B,A",1,N,US,84347,,2019,Wilkes
-81.13852157,36.17899343,47315,North Wilkesboro Elementary YMCA Access Academy,Open,"200 Flint hill Road North Wilkesboro, NC 28659",,North Wilkesboro,NC,28659,3366514005,,Marty,Johnson,3366514005,Wilkes County Schools,2019-06-17T04:00:00.000Z,2019-07-25T04:00:00.000Z,"M,T,W,TH",11:40AM - 3:30PM,,11:40AM - 12:15PM,,3:00PM - 3:30PM,,"L,A",1,N,US,129913,,2019,Wilkes
-81.15195198,36.14838312,47318,Wilkesboro Commons,Open,"102 West Main Street Wilkesboro, NC 28697",,Wilkesboro,NC,28697,3366514005,,Marty,Johnson,3366514005,Wilkes County Schools,2019-06-03T04:00:00.000Z,2019-07-31T04:00:00.000Z,"M,W",12:00PM - 1:00PM,,12:00PM - 1:00PM,,,,L,1,N,US,130385,,2019,Wilkes
-77.98111479,35.72148955,47320,John W. Jones Elementary,Open,"4028 NC Highway 42 Wilson, NC 27893",,Wilson,NC,27893,2523997846,,Ann,Barfield,2523997846,Wilson County Schools,2019-06-10T04:00:00.000Z,2019-08-09T04:00:00.000Z,"M,T,W,TH,F",7:30AM - 12:00PM,7:30AM - 8:15AM,11:30AM - 12:00PM,,,,"B,L",1,N,US,5058,,2019,Wilson
-77.93337186,35.74409908,47321,William's Day Camp,Open,"515 Mount Vernon Drive NW Wilson, NC 27893",,Wilson,NC,27893,2523997846,,Ann,Barfield,2523997846,Wilson County Schools,2019-06-10T04:00:00.000Z,2019-08-09T04:00:00.000Z,"M,T,W,TH,F",8:30AM - 1:15PM,8:30AM - 9:15AM,12:15PM - 1:15PM,,,,"B,L",1,N,US,113744,,2019,Wilson
-77.81340546,35.692413,47322,White Oak Summer Day Camp,Open,"5259 Highway 264 East Alternate Wilson, NC 27893",,Wilson,NC,27893,2523997846,,Ann,Barfield,2523997846,Wilson County Schools,2019-06-17T04:00:00.000Z,2019-08-02T04:00:00.000Z,"M,T,W,TH,F",8:00AM - 1:00PM,8:00AM - 9:00AM,12:00PM - 1:00PM,,,,"B,L",1,N,US,7381,,2019,Wilson
-77.92619656,35.73450907,47323,Sports Camp,Open,"500 Sunset Road Wilson, NC 27893",,Wilson,NC,27893,2523997846,8531,Ann,Barfield,2523997846,Wilson County Schools,2019-06-10T04:00:00.000Z,2019-08-09T04:00:00.000Z,"M,T,W,TH,F",8:30AM - 1:15PM,8:30AM - 9:15AM,12:30PM - 1:15PM,,,,"B,L",1,N,US,6769,,2019,Wilson
-77.87408522,35.66057499,47325,Beddingfield High,Open,"4510 Old Stantonsburg Road Wilson, NC 27893",,Wilson,NC,27893,2523997846,8531,Ann,Barfield,2523997846,Wilson County Schools,2019-06-03T04:00:00.000Z,2019-06-06T04:00:00.000Z,"M,T,W,TH",8:00AM - 12:00PM,8:00AM - 8:30AM,11:30AM - 12:00PM,,,,"B,L",1,N,US,109784,,2019,Wilson
-77.85866001,35.80717922,47327,Elm City Middle,Open,"215 East Church Street Elm City, NC 27822",,Elm City,NC,27822,2523997846,8531,Ann,Barfield,2523997846,Wilson County Schools,2019-06-03T04:00:00.000Z,2019-06-06T04:00:00.000Z,"M,T,W,TH",8:30AM - 12:30PM,8:30AM - 9:00AM,12:00PM - 12:30PM,,,,"B,L",1,N,US,129413,,2019,Wilson
-77.90794272,35.71189945,47328,Daniels Learning Center,Open,"723 Elvis Street Wilson, NC 27893",,Wilson,NC,27893,2523997846,8531,Ann,Barfield,2523997846,Wilson County Schools,2019-06-03T04:00:00.000Z,2019-06-06T04:00:00.000Z,"M,T,W,TH",7:30AM - 11:30AM,7:30AM - 8:00AM,11:00AM - 11:30AM,,,,"B,L",1,N,US,129348,,2019,Wilson
-77.92038276,35.75372055,47329,Fike High,Open,"500 Harrison Drive Wilson, NC 27893",,Wilson,NC,27893,2523997846,8531,Ann,Barfield,2523997846,Wilson County Schools,2019-06-03T04:00:00.000Z,2019-06-06T04:00:00.000Z,"M,T,W,TH",7:30AM - 11:30AM,7:30AM - 8:00AM,11:00AM - 11:30AM,,,,"B,L",1,N,US,110820,,2019,Wilson
-77.78273323,35.74431303,47331,Gardners Elementary,Open,"5404 NC 42 Highway East Elm City, NC 27822",,Elm City,NC,27822,2523997846,8531,Ann,Barfield,2523997846,Wilson County Schools,2019-06-03T04:00:00.000Z,2019-06-06T04:00:00.000Z,"M,T,W,TH",8:00AM - 12:00PM,8:00AM - 8:30AM,11:30AM - 12:00PM,,,,"B,L",1,N,US,129491,,2019,Wilson
-77.93900936,35.63962271,47333,Lee Woodard Elementary,Open,"103 Church Street Black Creek, NC 27813",,Black Creek,NC,27813,2522927846,8531,Ann,Barfield,2522927846,Wilson County Schools,2019-06-03T04:00:00.000Z,2019-06-06T04:00:00.000Z,"M,T,W,TH",8:00AM - 12:00PM,8:00AM - 8:30AM,11:30AM - 12:00PM,,,,"B,L",1,N,US,129744,,2019,Wilson
-77.95150998,35.7814816,47335,New Hope Elementary,Open,"4826 Packhouse Road Wilson, NC 27896",,Wilson,NC,27896,2523997846,8531,Ann,Barfield,2523997846,Wilson County Schools,2019-06-03T04:00:00.000Z,2019-06-06T04:00:00.000Z,"M,T,W,TH",8:00AM - 12:00PM,8:00AM - 8:30AM,11:30AM - 12:00PM,,,,"B,L",1,N,US,119088,,2019,Wilson
-78.06691333,35.70202716,47336,Rock Ridge Elementary,Open,"6605 Rock Ridge School Road Rock Ridge, NC 27893",,Rock Ridge,NC,27893,2523997846,8531,Ann,Barfield,2523997846,Wilson County Schools,2019-06-03T04:00:00.000Z,2019-06-06T04:00:00.000Z,"M,T,W,TH",8:00AM - 12:00PM,8:00AM - 8:30AM,11:30AM - 12:00PM,,,,"B,L",1,N,US,130048,,2019,Wilson
-77.82853833,35.60374346,47337,Stantonsburg Elementary,Open,"409 South Main Street Stantonsburg, NC 27883",,Stantonsburg,NC,27883,2523997846,8531,Ann,Barfield,2523997846,Wilson County Schools,2019-06-03T04:00:00.000Z,2019-06-06T04:00:00.000Z,"M,T,W,TH",8:00AM - 12:00PM,8:00AM - 8:30AM,11:30AM - 12:00PM,,,,"B,L",1,N,US,130174,,2019,Wilson
-77.90884615,35.74512641,47338,Toisnot Middle,Open,"1301 Corbett Avenue Wilson, NC 27893",,Wilson,NC,27893,2523997846,8531,Ann,Barfield,2523997846,Wilson County Schools,2019-06-03T04:00:00.000Z,2019-06-06T04:00:00.000Z,"M,T,W,TH",8:30AM - 12:30PM,8:30AM - 9:00AM,12:00PM - 12:30PM,,,,"B,L",1,N,US,130259,,2019,Wilson
-77.94894698,35.71957153,47340,Vinson Bynum Elementary,Open,"1601 South Tarboro Street Wilson, NC 27893",,Wilson,NC,27893,2523997846,8531,Ann,Barfield,2523997846,Wilson County Schools,2019-06-03T04:00:00.000Z,2019-07-26T04:00:00.000Z,"M,T,W,TH,F",8:00AM - 12:00PM,8:00AM - 8:30AM,11:30AM - 12:00PM,,,,"B,L",1,N,US,120069,,2019,Wilson
-77.84860799,35.63068295,47343,Speight Middle,Open,"5514 Stantonsburg Road Stantonsburg, NC 27883",,Stantonsburg,NC,27883,2523997846,8531,Ann,Barfield,2523997846,Wilson County Schools,2019-06-03T04:00:00.000Z,2019-06-06T04:00:00.000Z,"M,T,W,TH",8:30AM - 12:30PM,8:30AM - 9:00AM,12:00PM - 12:30PM,,,,"B,L",1,N,US,130152,,2019,Wilson
-78.03131152,35.67702813,47344,Springfield Middle,Open,"5551 Wiggins Mill Road Lucama, NC 27851",,Lucama,NC,27851,2523997846,8531,Ann,Barfield,2523997846,Wilson County Schools,2019-06-03T04:00:00.000Z,2019-06-06T04:00:00.000Z,"M,T,W,TH",8:30AM - 12:30PM,8:30AM - 9:00AM,12:00PM - 12:30PM,,,,"B,L",1,N,US,130157,,2019,Wilson
-77.8725903,35.80632592,47345,FREDERICK DOUGLASS ELEMENTARY,Open,"5544 Lake Wilson Road Elm City, NC 27822",,Elm City,NC,27822,2523997846,8531,Ann,Barfield,2523997846,Wilson County Schools,2019-06-03T04:00:00.000Z,2019-06-06T04:00:00.000Z,"M,T,W,TH",8:00AM - 12:00PM,8:00AM - 8:30AM,11:30AM - 12:00PM,,,,"B,L",1,N,US,129472,,2019,Wilson
-77.99499598,35.722125,47346,HUNT HIGH,Open,"4559 Lamm Road Wilson, NC 27893",,Wilson,NC,27893,2523997846,8531,Ann,Barfield,2523997846,Wilson County Schools,2019-06-03T04:00:00.000Z,2019-06-06T04:00:00.000Z,"M,T,W,TH",7:30AM - 11:30AM,7:30AM - 8:00AM,11:00AM - 11:30AM,,,,"B,L",1,N,US,129604,,2019,Wilson
-77.92874848,35.7216242,47350,BB&T Youth Center The SPOT,Open,"910 Tarboro St. W Wilson, NC 27893",,Wilson,NC,27893,2529914018,,Matt,Edwards,2529914018,"Wilson Youth United, Inc dba the SPOT",2019-06-03T04:00:00.000Z,2019-08-23T04:00:00.000Z,"M,T,W,TH,F",7:45AM - 1:00PM,7:45AM - 8:45AM,11:45AM - 1:00PM,,,,"B,L",1,N,US,3192,,2019,Wilson
-83.35606674,35.07291531,47353,Dryman's Chapel VBS,Open,"2456 Tessentee Rd. Otto, NC 28763",,Otto,NC,28763,8283476761,,Phillis,Castle,8283476761,Macon Program for Progress,2019-07-08T04:00:00.000Z,2019-07-12T04:00:00.000Z,"M,T,W,TH,F",5:30PM - 6:00PM,,,,,5:30PM - 6:00PM,S,1,N,US,73557,,2019,Macon
-79.15529744,35.47149179,47356,1414 Bragg Street,Open,"1414 Bragg Street Sanford, NC 27330",,Sanford,NC,27330,9197763525,,Brandon,Kivett,9197763525,Boys & Girls Clubs of Central Carolina,2019-06-12T04:00:00.000Z,2019-08-16T04:00:00.000Z,"M,T,W,TH,F",8:30AM - 1:30PM,8:30AM - 9:30AM,12:00PM - 1:30PM,,,,"B,L",1,N,US,129096,,2019,Lee
-80.32279372,36.15893191,47357,Covenant Property Services,Open,"3648 Yarbrough Ave. Winston-Salem, NC 27105",,Winston-Salem,NC,27105,3368300191,,Val,Smith,3368300191,Circle of Generations Inc.,2019-06-12T04:00:00.000Z,2019-08-23T04:00:00.000Z,"M,T,W,TH,F",11:00AM - 11:30AM,,11:00AM - 11:30AM,,,,L,1,N,US,129339,,2019,Forsyth
-80.23195392,36.11382952,47359,Cleveland Avenue Homes,Open,"1135 E. 15th St. Winston-Salem, NC 27105",,Winston-Salem,NC,27105,3368300191,,Manita,Broaddus,3368300191,Circle of Generations Inc.,2019-06-12T04:00:00.000Z,2019-08-23T04:00:00.000Z,"M,T,W,TH,F",12:30PM - 1:00PM,,12:30PM - 1:00PM,,,,L,1,N,US,129303,,2019,Forsyth
-80.51268798,34.98843035,47367,SUTTON PARK,Open,"2303 BROOKS STREET MONROE, NC 28110",,MONROE,NC,28110,7046124149,,GENEVA,PEAY,7046124149,CARING HEARTS OF AMERICA,2019-06-17T04:00:00.000Z,2019-08-23T04:00:00.000Z,"M,T,W,TH,F",1:00PM - 2:00PM,,1:00PM - 2:00PM,,,,L,1,N,US,130202,,2019,Union
-80.80794765,35.19655483,47368,GRIER HEIGHTS PARK,Open,"31OO LEROY STREET CHARLOTTE, NC 28205",,CHARLOTTE,NC,28205,7046124149,,GENEVA,PEAY,7046124149,CARING HEARTS OF AMERICA,2019-06-17T04:00:00.000Z,2019-08-23T04:00:00.000Z,"M,T,W,TH,F",11:00AM - 1:00PM,,11:00AM - 1:00PM,,,,L,1,N,US,129534,,2019,Mecklenburg
-80.86323158,35.16502438,49049,Pinewood Elementary,Open,"805 Seneca Place Charlotte, NC 28210",,Charlotte,NC,28210,9803436041,,Catherine,Beam,9803436041,Charlotte-Mecklenburg Schools,2019-06-17T04:00:00.000Z,2019-07-25T04:00:00.000Z,"M,T,W,TH,F",8:00AM - 12:30PM,8:00AM - 9:00AM,11:30AM - 12:30PM,,,,"B,L",2,N,US,38144,,2019,Mecklenburg
-80.9116524,35.7871525,49055,Prime Time @ NB Mills Elem,Open,"1410 Pearl St Statesville, NC 28677",,Statesville,NC,28677,9803436041,,Catherine,Beam,9803436041,Charlotte-Mecklenburg Schools,2019-06-17T04:00:00.000Z,2019-07-26T04:00:00.000Z,"M,T,W,TH,F",7:30AM - 1:00PM,7:30AM - 8:30AM,12:00PM - 1:00PM,,,,"B,L",2,N,US,38238,,2019,Iredell
-80.83737863,35.804353,49056,RTA @ East Iredell Elementary,Open,"400 East Elementary Road Statesville, NC 28625",,Statesville,NC,28625,9803436041,,Catehrine,Beam,9803436041,Charlotte-Mecklenburg Schools,2019-06-24T04:00:00.000Z,2019-07-18T04:00:00.000Z,"M,T,W,TH",7:30AM - 12:00PM,7:30AM - 8:00AM,11:30AM - 12:00PM,,,,"B,L",2,N,US,99894,,2019,Iredell
-80.85167591,35.80128268,49057,Statesville Fitness & Activity Center,Open,"1875 Simonton Rd Statesville, NC 28625",,Statesville,NC,28625,9803436041,,Catherine,Beam,9803436041,Charlotte-Mecklenburg Schools,2019-06-17T04:00:00.000Z,2019-08-02T04:00:00.000Z,"M,T,W,TH,F",8:00AM - 12:30PM,8:00AM - 9:00AM,11:30AM - 12:30PM,,,,"B,L",2,N,US,47547,,2019,Iredell
-80.75383714,35.15582471,49058,Stonehaven East Apts,Open,"6940 C Fernwood Dr Charlotte, NC 28211",,Charlotte,NC,28211,9803436041,,Catherine,Beam,9803436041,Charlotte-Mecklenburg Schools,2019-06-12T04:00:00.000Z,2019-08-09T04:00:00.000Z,"M,T,W,TH,F",8:00AM - 12:00PM,8:00AM - 8:30AM,11:00AM - 12:00PM,,,,"B,L",2,N,US,99923,,2019,Mecklenburg
-80.87823917,35.21678758,49059,Greater Mt. Sanai Baptist Church,Open,"1243 West Boulvard Charlotte, NC 28208",,Charlotte,NC,28208,9803436041,,Catehrine,Beam,9803436041,Charlotte-Mecklenburg Schools,2019-06-12T04:00:00.000Z,2019-08-09T04:00:00.000Z,"M,T,W,TH,F",8:00AM - 12:30PM,8:00AM - 8:30AM,12:00PM - 12:30PM,,,,"B,L",2,N,US,99796,,2019,Mecklenburg
-80.72104888,35.20355251,49060,Throne of Grace,Open,"7200 Albemarle Rd Suite A Charlotte, NC 28227",,Charlotte,NC,28227,9803436041,,Catherine,Beam,9803436041,Charlotte-Mecklenburg Schools,2019-06-12T04:00:00.000Z,2019-08-09T04:00:00.000Z,"M,T,W,TH,F",8:30AM - 12:30PM,8:30AM - 9:00AM,12:00PM - 12:30PM,,,,"B,L",2,N,US,39379,,2019,Mecklenburg
-80.84078913,35.26654458,49061,Derita/Turning Point,Open,"2400 Carmine Street Charlotte, NC 28206",,Charlotte,NC,28206,9803436041,,Catherine,Beam,9803436041,Charlotte-Mecklenburg Schools,2019-06-17T04:00:00.000Z,2019-08-09T04:00:00.000Z,"M,T,W,TH,F",8:15AM - 12:30PM,8:15AM - 9:15AM,11:30AM - 12:30PM,,,,"B,L",2,N,US,35228,,2019,Mecklenburg
-80.87787226,35.21387371,49062,Revolution Park Sports Academy,Open,"1225 Remount Rd Charlotte, NC 28208",,Charlotte,NC,28208,9803436041,,Catherine,Beam,9803436041,Charlotte-Mecklenburg Schools,2019-06-12T04:00:00.000Z,2019-08-09T04:00:00.000Z,"M,T,W,TH,F",8:30AM - 12:30PM,8:30AM - 9:30AM,11:30AM - 12:30PM,,,,"B,L",2,N,US,46714,,2019,Mecklenburg
-80.78385953,35.19424633,49064,Oakhurst STEAM Academy,Open,"4511 Monroe Road Charlotte, NC 28205",,Charlotte,NC,28205,9803436041,,Cathy,Beam,9803436041,Charlotte-Mecklenburg Schools,2019-06-17T04:00:00.000Z,2019-08-09T04:00:00.000Z,"M,T,W,TH,F",7:30AM - 12:30PM,7:30AM - 8:30AM,11:00AM - 12:30PM,,,,"B,L",2,N,US,121783,,2019,Mecklenburg
-80.81037647,35.30982006,49066,The Right Start Initiatives,Open,"5623 Phillips St Charlotte, NC 28269",,Charlotte,NC,28269,9803436041,,Catherine,Beam,9803436041,Charlotte-Mecklenburg Schools,2019-06-17T04:00:00.000Z,2019-08-02T04:00:00.000Z,"M,T,W,TH,F",9:00AM - 12:30PM,9:00AM - 9:30AM,12:00PM - 12:30PM,,,,"B,L",2,N,US,99935,,2019,Mecklenburg
-80.7568489,35.35635148,49070,Mallard Creek Recreation Center,Open,"2530 Johnston-Oehler Road Charlotte, NC 28269",,Charlotte,NC,28269,9803436041,,Catherine,Beam,9803436041,Charlotte-Mecklenburg Schools,2019-06-17T04:00:00.000Z,2019-08-09T04:00:00.000Z,"M,T,W,TH,F",7:30AM - 1:00PM,7:30AM - 8:30AM,12:00PM - 1:00PM,,,,"B,L",2,N,US,45092,,2019,Mecklenburg
-80.97438583,35.75540722,49071,RTA @ Celeste Henkle Elementary,Open,"1503 Old Mountain Road Statesville, NC 28677",,Statesville,NC,28677,9803436041,,Catherine,Beam,9803436041,Charlotte-Mecklenburg Schools,2019-06-24T04:00:00.000Z,2019-07-18T04:00:00.000Z,"M,T,W,TH",7:30AM - 12:15PM,7:30AM - 8:30AM,11:15AM - 12:15PM,,,,"B,L",2,N,US,38585,,2019,Iredell
-80.89456827,35.27715229,49072,Greater Salem Church,Open,"5318 Salem Church Road Charlotte, NC 28216",,Charlotte,NC,28216,9803436041,,Cathy,Beam,9803436041,Charlotte-Mecklenburg Schools,2019-06-17T04:00:00.000Z,2019-08-09T04:00:00.000Z,"M,T,W,TH,F",7:45AM - 1:00PM,7:45AM - 8:45AM,12:00PM - 1:00PM,,,,"B,L",2,N,US,36075,,2019,Mecklenburg
-80.77376686,35.26935347,49074,Greenville Memorial AME Zion Church,Open,"6116 Monteith Drive Charlotte, NC 28213",,Charlotte,NC,28213,9803436041,,Catherine,Beam,9803436041,Charlotte-Mecklenburg Schools,2019-06-17T04:00:00.000Z,2019-08-09T04:00:00.000Z,"M,T,W,TH,F",7:30AM - 1:00PM,7:30AM - 8:30AM,12:00PM - 1:00PM,,,,"B,L",2,N,US,99800,,2019,Mecklenburg
-80.85726283,35.28238317,49075,Simpspm Gillespie United Methodist Church,Open,"3545 Beatties Ford Rd Charlotte, NC 28216",,Charlotte,NC,28216,9803436041,,Catherine,Beam,9803436041,Charlotte-Mecklenburg Schools,2019-06-12T04:00:00.000Z,2019-08-09T04:00:00.000Z,"M,T,W,TH,F",8:00AM - 11:30AM,8:00AM - 8:30AM,11:00AM - 11:30AM,,,,"B,L",2,N,US,99908,,2019,Mecklenburg
-80.68363607,35.25870509,49077,Reedy Creek Elementary,Open,"10801 Plaza Road Extension Charlotte, NC 28215",,Charlotte,NC,28215,9803436041,,Catherine,Beam,9803436041,Charlotte-Mecklenburg Schools,2019-06-17T04:00:00.000Z,2019-08-09T04:00:00.000Z,"M,T,W,TH,F",8:30AM - 1:00PM,8:30AM - 9:30AM,12:00PM - 1:00PM,,,,"B,L",2,N,US,99889,,2019,Mecklenburg
-80.83198813,35.2287537,49079,First Ward Elementary,Open,"715 North Caldwell Street Charlotte, NC 28202",,Charlotte,NC,28202,9803436041,,Catherine,Beam,9803436041,Charlotte-Mecklenburg Schools,2019-06-17T04:00:00.000Z,2019-07-25T04:00:00.000Z,"M,T,W,TH,F",8:00AM - 12:30PM,8:00AM - 8:30AM,11:30AM - 12:30PM,,,,"B,L",2,N,US,35729,,2019,Mecklenburg
-80.75667505,35.23286845,49082,St. Thomas Lutheran Church,Open,"4013 Shamrock Dr Charlotte, NC 28215",,Charlotte,NC,28215,9803433461,,Catherine,Beam,9803433461,Charlotte-Mecklenburg Schools,2019-06-12T04:00:00.000Z,2019-08-09T04:00:00.000Z,"M,T,W,TH,F",8:30AM - 1:00PM,8:30AM - 9:30AM,12:00PM - 1:00PM,,,,"B,L",2,N,US,122226,,2019,Mecklenburg
-80.87223458,35.78679432,49084,Statesville Middle School,Open,"321 Clegg St Statesville, NC 28677",,Statesville,NC,28677,9803433461,,Catherine,Beam,9803433461,Charlotte-Mecklenburg Schools,2019-07-25T04:00:00.000Z,2019-07-25T04:00:00.000Z,TH,11:30AM - 12:30PM,,11:30AM - 12:30PM,,,,L,2,N,US,122232,,2019,Iredell
-80.90833661,35.209278,49085,HO Graham Metropolitan Presbyterian Church,Open,"2926 Old Steele Creek Road Charlotte, NC 28208",,Charlotte,NC,28208,9803433461,,Catherine,Beam,9803433461,Charlotte-Mecklenburg Schools,2019-06-12T04:00:00.000Z,2019-08-09T04:00:00.000Z,"M,T,W,TH,F",8:30AM - 12:00PM,8:30AM - 9:30AM,11:30AM - 12:00PM,,,,"B,L",2,N,US,118374,,2019,Mecklenburg
-80.77279206,35.33476084,49086,Mallard Creek Elementary,Open,"9801 Mallard Creek Road Charlotte, NC 28262",,Charlotte,NC,28262,9803436041,,Catherine,Beam,9803436041,Charlotte-Mecklenburg Schools,2019-06-17T04:00:00.000Z,2019-08-09T04:00:00.000Z,"M,T,W,TH,F",7:30AM - 1:00PM,7:30AM - 8:00AM,11:00AM - 1:00PM,,,,"B,L",2,N,US,131663,,2019,Mecklenburg
-80.87502864,35.20249925,49087,Marie G Davis IB K-8,Open,"3351 Griffith Street Charlotte, NC 28203",,Charlotte,NC,28203,9803436041,,Catherine,Beam,9803436041,Charlotte-Mecklenburg Schools,2019-06-17T04:00:00.000Z,2019-07-25T04:00:00.000Z,"M,T,W,TH,F",8:00AM - 12:30PM,8:00AM - 8:30AM,11:30AM - 12:30PM,,,,"B,L",2,N,US,131669,,2019,Mecklenburg
-80.85062021,35.25060331,49088,Oaklawn Elementary,Open,"1810 Oaklawn Ave Charlotte, NC 28216",,Charlotte,NC,28216,9803436041,,Catherine,Beam,9803436041,Charlotte-Mecklenburg Schools,2019-06-17T04:00:00.000Z,2019-08-09T04:00:00.000Z,"M,T,W,TH,F",7:30AM - 12:00PM,7:30AM - 8:00AM,11:00AM - 12:00PM,,,,"B,L",2,N,US,131787,,2019,Mecklenburg
-80.70922938,35.13016203,49089,Monkey Joe's of Matthews,Open,"10101-C E Indepenedence Blvd Matthews, NC 28105",,Matthews,NC,28105,9803436041,,Catherine,Beam,9803436041,Charlotte-Mecklenburg Schools,2019-06-12T04:00:00.000Z,2019-08-09T04:00:00.000Z,"M,T,W,TH,F",8:00AM - 12:30PM,8:00AM - 9:00AM,11:30AM - 12:30PM,,,,"B,L",2,N,US,131717,,2019,Mecklenburg
-80.78859324,35.83740465,49090,East Iredell Middle,Open,"590 Chestnut Grove Road Statesville, NC 28677",,Statesville,NC,28677,9803436041,,Catherine,Beam,9803436041,Charlotte-Mecklenburg Schools,2019-07-24T04:00:00.000Z,2019-07-24T04:00:00.000Z,W,11:30AM - 12:30PM,,11:30AM - 12:30PM,,,,L,2,N,US,131244,,2019,Iredell
-80.87504281,35.96895671,49091,North Iredell Middle,Open,"2467 Jennings Rd Olin, NC 28660",,Olin,NC,28660,9803436041,,Catherine,Beam,9803436041,Charlotte-Mecklenburg Schools,2019-07-23T04:00:00.000Z,2019-07-23T04:00:00.000Z,T,11:30AM - 12:30PM,,11:30AM - 12:30PM,,,,L,2,N,US,131764,,2019,Iredell
-80.88682875,35.69800617,49092,Troutman Middle,Open,"305 Rumple St Troutman, NC 28166",,Troutman,NC,28166,9803436041,,Catherine,Beam,9803436041,Charlotte-Mecklenburg Schools,2019-07-25T04:00:00.000Z,2019-07-25T04:00:00.000Z,TH,12:00PM - 1:00PM,,12:00PM - 1:00PM,,,,L,2,N,US,132096,,2019,Iredell
-78.58909218,35.10457496,49104,Clement Elementary,Open,"3220 Maxwell Road Autryville, NC 28318",,Autryville,NC,28318,9105924111,1,April,Jordan,9105924111,Sampson County Schools,2019-06-11T04:00:00.000Z,2019-06-25T04:00:00.000Z,"M,T,W,TH,F",7:45AM - 12:00PM,7:45AM - 8:30AM,10:45AM - 12:00PM,,,,"B,L",2,N,US,110311,,2019,Sampson
-78.23642653,35.09123873,49105,Hargrove Elementary,Open,"7725 Faison Hwy Faison, NC 28341",,Faison,NC,28341,9105924111,1,April,Jordan,9105924111,Sampson County Schools,2019-06-11T04:00:00.000Z,2019-06-25T04:00:00.000Z,"M,T,W,TH,F",8:00AM - 12:30PM,8:00AM - 9:00AM,11:00AM - 12:30PM,,,,"B,L",2,N,US,111163,,2019,Sampson
-78.32838105,35.18069804,49106,Hobbton Elementary,Open,"12361 Hobbton Hwy. Newton Grove, NC 28366",,Newton Grove,NC,28366,9105924111,1,April,Jordan,9105924111,Sampson County Schools,2019-06-11T04:00:00.000Z,2019-06-25T04:00:00.000Z,"M,T,W,TH,F",8:00AM - 1:45PM,8:00AM - 9:00AM,1:00PM - 1:45PM,,,,"B,L",2,N,US,4826,,2019,Sampson
-78.47735663,35.17522047,49108,Midway Elementary,Open,"15375 Spivey's Corner Hwy Dunn, NC 28334",,Dunn,NC,28334,9105924111,1,April,Jordan,9105924111,Sampson County Schools,2019-06-11T04:00:00.000Z,2019-06-25T04:00:00.000Z,"M,T,W,TH,F",8:00AM - 11:45AM,8:00AM - 9:00AM,11:00AM - 11:45AM,,,,"B,L",2,N,US,5679,,2019,Sampson
-78.53397688,35.1672972,49109,Midway Middle,Open,"1115 Robert's Grove Rd. Dunn, NC 28334",,Dunn,NC,28334,9105924111,1,April,Jordan,9105924111,Sampson County Schools,2019-06-11T04:00:00.000Z,2019-06-25T04:00:00.000Z,"M,T,W,TH,F",8:00AM - 12:15PM,8:00AM - 9:00AM,11:00AM - 12:15PM,,,,"B,L",2,N,US,74168,,2019,Sampson
-78.53971002,35.23477822,49110,Plain View Elementary,Open,"4140 Plain View Hwy Dunn, NC 28334",,Dunn,NC,28334,9105924111,1,April,Jordan,9105924111,Sampson County Schools,2019-06-11T04:00:00.000Z,2019-06-25T04:00:00.000Z,"M,T,W,TH,F",8:00AM - 12:30PM,8:00AM - 9:00AM,11:00AM - 12:30PM,,,,"B,L",2,N,US,112584,,2019,Sampson
-78.51292303,34.9510122,49112,Roseboro-Salemburg Middle,Open,"305 W. Pleasant Street Roseboro, NC 28382",,Roseboro,NC,28382,9105924111,1,April,Jordan,9105924111,Sampson County Schools,2019-06-11T04:00:00.000Z,2019-06-25T04:00:00.000Z,"M,T,W,TH,F",8:00AM - 12:15PM,8:00AM - 9:00AM,11:15AM - 12:15PM,,,,"B,L",2,N,US,6460,,2019,Sampson
-78.35823186,34.99161103,49114,Sampson Early College High School,Open,"1801 Sunset Avenue Clinton, NC 28328",,Clinton,NC,28328,9105924111,1,April,Jordan,9105924111,Sampson County Schools,2019-06-11T04:00:00.000Z,2019-06-25T04:00:00.000Z,"M,T,W,TH,F",7:30AM - 12:00PM,7:30AM - 8:00AM,11:15AM - 12:00PM,,,,"B,L",2,N,US,112895,,2019,Sampson
-78.27815135,34.85510042,49115,Union Intermediate School,Open,"1190 Edmond Mathis Road Clinton, NC 28328",,Clinton,NC,28328,9105924111,1,April,Jordan,9105924111,Sampson County Schools,2019-06-11T04:00:00.000Z,2019-06-25T04:00:00.000Z,"M,T,W,TH,F",8:00AM - 12:00PM,8:00AM - 9:00AM,11:00AM - 12:00PM,,,,"B,L",2,N,US,113474,,2019,Sampson
-78.52313531,34.94145666,49116,Roseboro Elementary School,Open,"180 Butler Island Road Rosebor, NC 28382",,Rosebor,NC,28382,9105924111,1,April,Jordan,9105924111,Sampson County Schools,2019-06-11T04:00:00.000Z,2019-06-25T04:00:00.000Z,"M,T,W,TH,F",8:00AM - 12:15PM,8:00AM - 9:00AM,11:00AM - 12:15PM,,,,"B,L",2,N,US,6459,,2019,Sampson
-78.32013423,35.83661139,49119,WCHS Eastern Regional Center (Park),Open,"1002 Dogwood Drive Zebulon, NC 27597",,Zebulon,NC,27597,9195883523,,Becky,Bryan,9195883523,Wake County Schools,2019-06-19T04:00:00.000Z,2019-08-15T04:00:00.000Z,"W,TH",11:00AM - 12:30PM,,11:00AM - 12:30PM,,,,L,2,N,US,88990,,2019,Wake
-78.61610228,35.78592046,49120,Washington Terrace Apartments,Open,"1951 Booker Drive Raleigh, NC 27610",,Raleigh,NC,27610,9195883523,,Becky,Bryan,9195883523,Wake County Schools,2019-06-20T04:00:00.000Z,2019-08-15T04:00:00.000Z,TH,11:30AM - 12:00PM,,11:30AM - 12:00PM,,,,L,2,N,US,132144,,2019,Wake
-78.64750353,35.85832565,49121,The Oaks,Open,"500 Lipscomb Court Raleigh, NC 27609",,Raleigh,NC,27609,9195883523,,Becky,Bryan,9195883523,Wake County Schools,2019-06-19T04:00:00.000Z,2019-08-14T04:00:00.000Z,W,11:30AM - 12:00PM,,11:30AM - 12:00PM,,,,L,2,N,US,132065,,2019,Wake
-78.5965912,35.83738803,49122,Casa de Luna Apartments,Open,"3819 Bonneville Court Raleigh, NC 27604",,Raleigh,NC,27604,9195883523,,Becky,Bryan,9195883523,Wake County Schools,2019-06-18T04:00:00.000Z,2019-08-06T04:00:00.000Z,T,11:30AM - 12:00PM,,11:30AM - 12:00PM,,,,L,2,N,US,131065,,2019,Wake
-78.61157145,35.79537212,49123,Millbank Apartments,Open,"1500 Raleigh Boulevard Raleigh, NC 27610",,Raleigh,NC,27610,9195883523,,Becky,Bryan,9195883523,Wake County Schools,2019-06-17T04:00:00.000Z,2019-08-07T04:00:00.000Z,M,11:30AM - 12:00PM,,11:30AM - 12:00PM,,,,L,2,N,US,131708,,2019,Wake
-78.5669535,35.80605648,49124,Renewing the Mind,Open,"4204 Willow Oak Road Raleigh, NC 27620",,Raleigh,NC,27620,9195883523,,Becky,Bryan,9195883523,Wake County Schools,2019-06-17T04:00:00.000Z,2019-08-09T04:00:00.000Z,"M,T,W,TH,F",11:00AM - 4:00PM,,11:00AM - 1:00PM,,3:00PM - 4:00PM,,"L,A",2,N,US,131899,,2019,Wake
-81.10412899,36.13787583,49125,CCW Reading Camp,Open,"200 CC Wright School Road North Wilkesboro, NC 28659",,North Wilkesboro,NC,28659,3366514005,,Marty,Johnson,3366514005,Wilkes County Schools,2019-05-31T04:00:00.000Z,2019-07-26T04:00:00.000Z,"M,T,W,TH,F",8:00AM - 12:00PM,8:00AM - 8:30AM,11:30AM - 12:00PM,,,,"B,L",2,N,US,34672,,2019,Wilkes
-80.92534005,36.22656564,49126,East High Success Academy,Open,"13315 Highway 268 Ronda, NC 28670",,Ronda,NC,28670,3366514005,,Marty,Johnson,3366514005,Wilkes County Schools,2019-05-31T04:00:00.000Z,2019-06-05T04:00:00.000Z,"M,T,W,F",8:00AM - 12:00PM,8:00AM - 8:30AM,,,11:30AM - 12:00PM,,"B,A",2,N,US,81558,,2019,Wilkes
-80.91234583,35.13546868,49128,Soldier's Summer Camp,Open,"9201-A Southern Pine Blvd Charlotte, NC 28273",,Charlotte,NC,28273,7045833343,,Charlene,Cunningham,7045833343,Spirit of Liberty Deliverance Church,2019-06-10T04:00:00.000Z,2019-08-16T04:00:00.000Z,"M,T,W,TH,F",8:15AM - 1:30PM,8:15AM - 9:15AM,11:30AM - 1:30PM,,,,"B,L",2,N,US,9935,,2019,Mecklenburg
-81.421882,35.33892648,49129,Washington Christian Academy,Open,"2007 Capernium Rd. Cherryville, NC 28021",,Cherryville,NC,28021,7048606306,,Kizzy,Corry,7048606306,Washington Outreach Ministry,2019-06-17T04:00:00.000Z,2019-08-16T04:00:00.000Z,"M,T,W,TH,F",9:00AM - 1:00PM,9:00AM - 10:00AM,12:00PM - 1:00PM,,,,"B,L",2,N,US,132139,,2019,Cleveland
-81.5301631,35.27211086,49131,Holly Oak Park,Open,"809 Holly Oak Rd. Shelby, NC 28150",,Shelby,NC,28150,7048606306,,Kizzy,Corry,7048606306,Washington Outreach Ministry,2019-06-17T04:00:00.000Z,2019-08-09T04:00:00.000Z,"M,T,W,TH",11:30AM - 2:00PM,,11:30AM - 12:30PM,,1:30PM - 2:00PM,,"L,A",2,N,US,118380,,2019,Cleveland
-77.89546109,34.13310873,49133,Mustard Seed Ministry Youth Center,Open,"5656 Carolina Beach Road Wilmington, NC 28412",,Wilmington,NC,28412,9104715497,,Derrell,Clark,9104715497,The Mustard Seed Ministry,2019-06-17T04:00:00.000Z,2019-08-23T04:00:00.000Z,"M,T,W,TH,F",8:00AM - 1:45PM,8:00AM - 9:00AM,11:45AM - 1:45PM,,,,"B,L",2,N,US,129017,,2019,New Hanover
-78.995511,35.141949,49134,Tolson YAC,Open,"TOLSON YA CENTERBLDG. 4-1431, REILLY & NORMANDY FORT BRAGG, NC 28310",,FORT BRAGG,NC,28310,9103966674,,Portia,Taylor,9103966674,"Fort Bragg Child, Youth & School Services",2019-06-17T04:00:00.000Z,2019-08-23T04:00:00.000Z,"M,T,W,TH,F",11:30AM - 4:30PM,,11:30AM - 1:00PM,,3:30PM - 4:30PM,,"L,A",2,N,US,7046,,2019,Cumberland
-79.04821537,35.25057045,49135,Morales,Open,"526 ROCKEFELLER BLVD. CAMERON, NC 28326",,CAMERON,NC,28326,9103966674,,Portia,Taylor,9103966674,"Fort Bragg Child, Youth & School Services",2019-06-17T04:00:00.000Z,2019-08-23T04:00:00.000Z,"M,T,W,TH,F",11:00AM - 4:00PM,,11:00AM - 1:00PM,,3:00PM - 4:00PM,,"L,A",2,N,US,76320,,2019,Harnett
-79.04840254,35.25024127,49136,CHAY YOUTH CENTER,Open,"538 ROCKEFELLER BLVD CAMERON, NC 28326",,CAMERON,NC,28326,9103966674,,Portia,Taylor,9103966674,"Fort Bragg Child, Youth & School Services",2019-06-17T04:00:00.000Z,2019-08-23T04:00:00.000Z,"M,T,W,TH,F",3:30PM - 4:30PM,,,,3:30PM - 4:30PM,,A,2,N,US,75487,,2019,Harnett
-77.98302832,35.40757442,49137,Greenleaf Vision of Faith Community Center,Open,"2105 N William St Goldsboro, NC 27530",,Goldsboro,NC,27530,9195819178,101,John,Barnes,9195819178,Rebuilding Broken Places Community Development Corporation,2019-06-17T04:00:00.000Z,2019-08-16T04:00:00.000Z,"M,T,W,TH,F",12:00PM - 1:00PM,,12:00PM - 1:00PM,,,,L,2,N,US,81981,,2019,Wayne
-77.98299894,35.40831981,49138,Greenleaf Christian Church,Open,"2110 N William St Goldsboro, NC 27530",,Goldsboro,NC,27530,9195819178,101,John,Barnes,9195819178,Rebuilding Broken Places Community Development Corporation,2019-06-17T04:00:00.000Z,2019-08-16T04:00:00.000Z,"M,T,W,TH,F",12:00PM - 1:00PM,,12:00PM - 1:00PM,,,,L,2,N,US,131386,,2019,Wayne
-78.00492721,35.38902638,49139,West Haven Senior Center,Open,"351 N. Alabama Ave Goldsboro, NC 27530",,Goldsboro,NC,27530,9195819178,101,John,Barnes,9195819178,Rebuilding Broken Places Community Development Corporation,2019-06-17T04:00:00.000Z,2019-08-16T04:00:00.000Z,"M,T,W,TH,F",12:00PM - 1:00PM,,12:00PM - 1:00PM,,,,L,2,N,US,132163,,2019,Wayne
-77.98223335,35.38188268,49140,Herman Park Center,Open,"901 E Ash St Goldsboro, NC 27530",,Goldsboro,NC,27530,9195819178,101,John,Barnes,9195819178,Rebuilding Broken Places Community Development Corporation,2019-06-17T04:00:00.000Z,2019-08-16T04:00:00.000Z,"M,T,W,TH,F",12:00PM - 1:00PM,,12:00PM - 1:00PM,,,,L,2,N,US,131428,,2019,Wayne
-78.00086756,35.36985352,49141,W. A. Foster Recreation Center,Open,"1012 S. John St Goldsboro, NC 27530",,Goldsboro,NC,27530,9195819178,101,John,Barnes,9195819178,Rebuilding Broken Places Community Development Corporation,2019-06-17T04:00:00.000Z,2019-08-16T04:00:00.000Z,"M,T,W,TH,F",12:00PM - 1:00PM,,12:00PM - 1:00PM,,,,L,2,N,US,132128,,2019,Wayne
-80.24487356,36.13469241,49142,Hanes Hosiery Community Center,Open,"501 Reynolds Blvd. Winston-Salem, NC 27105",,Winston-Salem,NC,27105,3364284383,,Rosemary,Stimpson,3364284383,Ezekiel A.M.E. Zion Church,2019-06-17T04:00:00.000Z,2019-08-16T04:00:00.000Z,"M,T,W,TH,F",11:30AM - 4:30PM,,11:30AM - 12:30PM,,3:30PM - 4:30PM,,"L,A",2,N,US,36157,,2019,Forsyth
-80.21959667,36.12213669,49143,Life Changing Transformation,Open,"2001 East 25th Street Winston-Salem, NC 27105",,Winston-Salem,NC,27105,3364284383,,Rosemary,Stimpson,3364284383,Ezekiel A.M.E. Zion Church,2019-06-17T04:00:00.000Z,2019-08-16T04:00:00.000Z,"M,T,W,TH,F",12:00PM - 1:00PM,,12:00PM - 1:00PM,,,,L,2,N,US,36969,,2019,Forsyth
-80.22048096,36.1129165,49147,14th Street,Open,"2020 N. E. 14TH Street Winston-Salem, NC 27105",,Winston-Salem,NC,27105,3364284383,,Rosemary,Stimpson,3364284383,Ezekiel A.M.E. Zion Church,2019-06-17T04:00:00.000Z,2019-08-16T04:00:00.000Z,"M,T,W,TH,F",12:00PM - 5:00PM,,12:00PM - 1:00PM,,4:00PM - 5:00PM,,"L,A",2,N,US,7783,,2019,Forsyth
-80.20802339,36.13263702,49148,Carl Russell Sr. Recreation,Open,"3521 Carver School Road Winston-Salem, NC 27105",,Winston-Salem,NC,27105,3364284383,,Rosemary,Stimpson,3364284383,Ezekiel A.M.E. Zion Church,2019-06-17T04:00:00.000Z,2019-08-16T04:00:00.000Z,"M,T,W,TH,F",12:00PM - 1:00PM,,12:00PM - 1:00PM,,,,L,2,N,US,8169,,2019,Forsyth
-80.73855052,35.23817848,49152,"YWCA, Sunridge",Open,"4005 Sunridge Lane Charlotte, NC 28215",,Charlotte,NC,28215,8883894970,104,Jeannett,Sutton,8883894970,Freedom Within Walls,2019-06-17T04:00:00.000Z,2019-08-16T04:00:00.000Z,"M,T,W,TH,F",9:00AM - 1:30PM,9:00AM - 10:00AM,12:00PM - 1:30PM,,,,"B,L",2,N,US,89234,,2019,Mecklenburg
-80.79416213,35.33299545,49154,Fuzion Force,Open,"3716W W.T. Harris Blvd. Charlotte, NC 28269",,Charlotte,NC,28269,8883894970,104,Jeannett,Sutton,8883894970,Freedom Within Walls,2019-06-10T04:00:00.000Z,2019-08-23T04:00:00.000Z,"M,T,W,TH,F",8:00AM - 12:30PM,8:00AM - 9:00AM,11:30AM - 12:30PM,,,,"B,L",2,N,US,131349,,2019,Mecklenburg
-80.87756649,35.23373216,49156,Urban Promise West,Open,"2225 Freedom Drive Charlotte, NC 28208",,Charlotte,NC,28208,8883894970,104,Jeannett,Sutton,8883894970,Freedom Within Walls,2019-06-10T04:00:00.000Z,2019-07-26T04:00:00.000Z,"M,T,W,TH,F",8:00AM - 1:00PM,8:00AM - 9:00AM,12:00PM - 1:00PM,,,,"B,L",2,N,US,120031,,2019,Mecklenburg
-80.85566023,35.25641177,49157,BEATTIES FORD ROAD VOCATIONAL SUMMER CAMP,Open,"1406 Beatties Ford Rd., Charlotte, NC 28216",,Charlotte,NC,28216,8883894970,104,Jeannett,Sutton,8883894970,Freedom Within Walls,2019-06-28T04:00:00.000Z,2019-08-23T04:00:00.000Z,"M,T,W,TH,F",8:00AM - 12:00PM,8:00AM - 8:30AM,11:00AM - 12:00PM,,,,"B,L",2,N,US,117273,,2019,Mecklenburg
-80.97718802,35.11646208,49159,BRIGHT KIDS SOUTH 2,Open,"13925 Erwin Rd., Charlotte, NC 28273",,Charlotte,NC,28273,8883894970,104,Jeannett,Sutton,8883894970,Freedom Within Walls,2019-06-10T04:00:00.000Z,2019-08-16T04:00:00.000Z,"M,T,W,TH,F",8:00AM - 12:00PM,8:00AM - 9:00AM,11:00AM - 12:00PM,,,,"B,L",2,N,US,122653,,2019,Mecklenburg
-80.85726283,35.28238317,49160,Young Explorers Centers,Open,"3545 Beatties Ford Road Charlotte, NC 28216",,Charlotte,NC,28216,8883894970,104,Jeannett,Sutton,8883894970,Freedom Within Walls,2019-06-10T04:00:00.000Z,2019-08-23T04:00:00.000Z,"M,T,W,TH,F",8:00AM - 12:00PM,8:00AM - 9:00AM,11:00AM - 12:00PM,,,,"B,L",2,N,US,132227,,2019,Mecklenburg
-80.89141537,35.18682493,49161,The Exchange Youth Summer Camp,Open,"635 Pressley Road, Suite F Charlotte, NC 28217",,Charlotte,NC,28217,7044513552,,Tyshaun,Wynter,7044513552,Freedom Within Walls,2019-06-10T04:00:00.000Z,2019-08-23T04:00:00.000Z,"M,T,W,TH,F",7:30AM - 1:00PM,7:30AM - 8:30AM,11:00AM - 1:00PM,,,,"B,L",2,N,US,132062,,2019,Mecklenburg
-80.08118322,35.88270966,49165,Thomasville Parks and Recreation,Open,"1 E Main Street Thomasville, NC 27360",,Thomasville,NC,27360,3364744313,,Molly,Hussey,3364744313,Thomasville City Schools,2019-06-10T04:00:00.000Z,2019-08-17T04:00:00.000Z,"M,T,W,TH,F,SA",8:00AM - 8:30AM,8:00AM - 8:30AM,,,,,B,2,N,US,132074,,2019,Davidson
-80.0807767,35.92562288,49166,Thomasville Boys & Girls Club,Open,"Etta Street Thomasville, NC 27360",,Thomasville,NC,27360,3364744376,,Brandon,Lomax,3364744376,Thomasville City Schools,2019-06-10T04:00:00.000Z,2019-08-17T04:00:00.000Z,"M,T,W,TH,F,SA",7:30AM - 8:00AM,7:30AM - 8:00AM,,,,,B,2,N,US,132073,,2019,Davidson
-80.07460556,35.87446543,49167,NCLH # 86,Open,"Estes St Thomasville, NC 27360",,Thomasville,NC,27360,3364744318,,Alan,Shortt,3364744318,Thomasville City Schools,2019-06-10T04:00:00.000Z,2019-08-17T04:00:00.000Z,"M,T,W,TH,F,SA",12:15PM - 12:35PM,,12:15PM - 12:35PM,,,,L,2,N,US,123253,,2019,Davidson
-80.29018409,36.07409721,49168,Bolton Elementary,Open,"1250 Bolton Street W.S., NC 27103",,W.S.,NC,27103,3367034248,,Margery,McCormick,3367034248,Forsyth County Schools,2019-05-01T04:00:00.000Z,2019-05-01T04:00:00.000Z,W,8:00AM - 1:00PM,8:00AM - 9:00AM,11:00AM - 1:00PM,,,,"B,L",2,N,US,109903,,2019,Forsyth
-80.20871439,36.13429425,49169,Carver High,Open,"3545 Carver School Rd. WS, NC 27105",,WS,NC,27105,3367272301,,DEBRA,Stewart,3367272301,Forsyth County Schools,2019-05-01T04:00:00.000Z,2019-05-01T04:00:00.000Z,W,8:00AM - 1:00PM,8:00AM - 9:00AM,11:00AM - 1:00PM,,,,"B,L",2,N,US,120669,,2019,Forsyth
-80.25661758,36.10886068,49170,Cook Elementary,Open,"920 11th St. W.S., NC 27105",,W.S.,NC,27105,3367034202,,Gerad,Jones,3367034202,Forsyth County Schools,2019-05-01T04:00:00.000Z,2019-05-01T04:00:00.000Z,W,8:00AM - 1:00PM,8:00AM - 9:00AM,11:00AM - 1:00PM,,,,"B,L",2,N,US,75562,,2019,Forsyth
-80.22386955,36.05626952,49171,Easton Elementary,Open,"734 E. Clemmonsville Cir. W.S., NC 27107",,W.S.,NC,27107,3367484068,,Octavia,House,3367484068,Forsyth County Schools,2019-05-01T04:00:00.000Z,2019-05-01T04:00:00.000Z,W,8:00AM - 1:00PM,8:00AM - 9:00AM,11:00AM - 1:00PM,,,,"B,L",2,N,US,75674,,2019,Forsyth
-80.2170405,36.07152307,49172,Forest Park Elementary,Open,"Milford St. W.S., NC 27107",,W.S.,NC,27107,3367034282,,Rhonda,Chambers,3367034282,Forsyth County Schools,2019-05-01T04:00:00.000Z,2019-05-01T04:00:00.000Z,W,8:00AM - 1:00PM,8:00AM - 9:00AM,11:00AM - 1:00PM,,,,"B,L",2,N,US,75798,,2019,Forsyth
-80.31182239,36.18748954,49173,Gibson Elementary,Open,"2020 Walker Rd. W.S., NC 27106",,W.S.,NC,27106,3367034212,,Tomica,Moore,3367034212,Forsyth County Schools,2019-05-01T04:00:00.000Z,2019-05-01T04:00:00.000Z,W,8:00AM - 1:00PM,8:00AM - 9:00AM,11:00AM - 1:00PM,,,,"B,L",2,N,US,51979,,2019,Forsyth
-80.17636645,36.0795141,49174,Hall-Woodward Elementary,Open,"125 Nicholson Rd. W.S., NC 27107",,W.S.,NC,27107,3367034329,,Kathy,Grubb,3367034329,Forsyth County Schools,2019-05-01T04:00:00.000Z,2019-05-01T04:00:00.000Z,W,8:00AM - 1:00PM,8:00AM - 9:00AM,11:00AM - 1:00PM,,,,"B,L",2,N,US,75897,,2019,Forsyth
-80.08035452,36.12523275,49175,Kernersville Elementary,Open,"512 W. Mountain St. Kernersville, NC 27284",,Kernersville,NC,27284,3367034101,,Crystal,Penn,3367034101,Forsyth County Schools,2019-05-01T04:00:00.000Z,2019-05-01T04:00:00.000Z,W,8:00AM - 1:00PM,8:00AM - 9:00AM,11:00AM - 1:00PM,,,,"B,L",2,N,US,52842,,2019,Forsyth
-80.25451407,36.11647053,49176,Kimberley Park Elementary,Open,"1701 N. Cherry St. W.S., NC 27105",,W.S.,NC,27105,3367034197,,Urica,Fulton,3367034197,Forsyth County Schools,2019-05-01T04:00:00.000Z,2019-05-01T04:00:00.000Z,"W,TH",8:00AM - 1:00PM,8:00AM - 9:00AM,11:00AM - 1:00PM,,,,"B,L",2,N,US,52887,,2019,Forsyth
-80.23632849,36.156267,49177,Mineral Springs Elementary,Open,"4527 Ogburn Ave. W.S., NC 27105",,W.S.,NC,27105,3367034183,,Joyce,Kay,3367034183,Forsyth County Schools,2019-05-01T04:00:00.000Z,2019-05-01T04:00:00.000Z,W,8:00AM - 1:00PM,8:00AM - 9:00AM,11:00AM - 1:00PM,,,,"B,L",2,N,US,53611,,2019,Forsyth
-80.33202865,36.16557532,49178,Old Town Elementary,Open,"3930 Reynolda Rd. W.S., NC 27106",,W.S.,NC,27106,3367034285,,Tonya,Hubbard,3367034285,Forsyth County Schools,2019-05-01T04:00:00.000Z,2019-05-01T04:00:00.000Z,W,8:00AM - 1:00PM,8:00AM - 9:00AM,11:00AM - 1:00PM,,,,"B,L",2,N,US,54175,,2019,Forsyth
-80.2346923,36.1080025,49179,Kennedy Learning,Open,"890E 11th Street W.S., NC 27101",,W.S.,NC,27101,3367034159,,Twanna,Gardner,3367034159,Forsyth County Schools,2019-05-01T04:00:00.000Z,2019-05-01T04:00:00.000Z,W,8:00AM - 1:00PM,8:00AM - 9:00AM,11:00AM - 1:00PM,,,,"B,L",2,N,US,52830,,2019,Forsyth
-80.19142788,36.11167691,49180,Petree Elementary,Open,"3815 Old Greensboro Rd. W.S., NC 27101",,W.S.,NC,27101,3367034142,,Kim,McNeil,3367034142,Forsyth County Schools,2019-05-01T04:00:00.000Z,2019-05-01T04:00:00.000Z,"W,TH",8:00AM - 1:00PM,8:00AM - 9:00AM,11:00AM - 1:00PM,,,,"B,L",2,N,US,54417,,2019,Forsyth
-80.29701019,36.13057029,49181,Speas Elementary,Open,"2000 W. Polo Rd. W.S., NC 27106",,W.S.,NC,27106,3367034136,,Melanie,Reedy,3367034136,Forsyth County Schools,2019-05-01T04:00:00.000Z,2019-05-01T04:00:00.000Z,W,8:00AM - 1:00PM,8:00AM - 9:00AM,11:00AM - 1:00PM,,,,"B,L",2,N,US,55686,,2019,Forsyth
-80.264485,36.03967361,49182,Main Street Academy,Open,"1401 W. Clemmonsville Rd Winston Salem, NC 27127",,Winston Salem,NC,27127,3367034187,,Davida,Elliott,3367034187,Forsyth County Schools,2019-05-01T04:00:00.000Z,2019-05-01T04:00:00.000Z,W,8:00AM - 1:00PM,8:00AM - 9:00AM,11:00AM - 1:00PM,,,,"B,L",2,N,US,111873,,2019,Forsyth
-80.14219876,36.08235122,49183,Smith Farm Elementary,Open,"4250 Johny Knoll Lane Winston Salem, NC 27107",,Winston Salem,NC,27107,3367034189,,Theresa,Hutchins,3367034189,Forsyth County Schools,2019-05-01T04:00:00.000Z,2019-05-01T04:00:00.000Z,"M,T,W,TH",8:00AM - 1:00PM,8:00AM - 9:00AM,11:00AM - 1:00PM,,,,"B,L",2,N,US,76772,,2019,Forsyth
-77.67189073,35.48003108,49184,Greene Central High,Open,"140 School Drive Snow Hill, NC 28580",,Snow Hill,NC,28580,2527473425,,Christina,Nash,2527473425,Greene County Schools,2019-06-10T04:00:00.000Z,2019-06-17T04:00:00.000Z,"M,T,W,TH",8:00AM - 12:45PM,8:00AM - 8:45AM,12:00PM - 12:45PM,,,,"B,L",2,N,US,78310,,2019,Greene
-77.66836387,35.4906529,49185,Greene County Middle,Open,"485 Middle School Road Snow Hill, NC 28580, NC 28580",,"Snow Hill, NC 28580",NC,28580,2527473425,,Christina,Nash,2527473425,Greene County Schools,2019-06-10T04:00:00.000Z,2019-08-14T04:00:00.000Z,"M,T,W,TH,F",8:00AM - 12:30PM,8:00AM - 8:45AM,11:30AM - 12:30PM,,,,"B,L",2,N,US,78311,,2019,Greene
-77.66530223,35.45051918,49186,Snow Hill Primary,Open,"502 SE 2nd Street Snow Hill, NC 28580",,Snow Hill,NC,28580,2527473425,,Christina,Nash,2527473425,Greene County Schools,2019-07-08T04:00:00.000Z,2019-07-25T04:00:00.000Z,"M,T,W,TH",8:00AM - 12:30PM,8:00AM - 8:45AM,11:30AM - 12:30PM,,,,"B,L",2,N,US,55585,,2019,Greene
-77.68697428,35.45341629,49187,West Greene Elementary,Open,"301 Kingold Blvd Snow Hill,NC, NC 28580",,"Snow Hill,NC",NC,28580,2527473425,,Christina,Nash,2527473425,Greene County Schools,2019-07-08T04:00:00.000Z,2019-07-25T04:00:00.000Z,"M,T,W,TH",8:00AM - 12:30PM,8:00AM - 8:45AM,11:30AM - 12:30PM,,,,"B,L",2,N,US,132162,,2019,Greene
