long,lat,objectID,siteName,siteStatus,siteAddress,siteAddress2,siteCity,siteState,siteZip,sitePhone,ext,contactFirstName,contactLastName,contactPhone,sponsoringOrganization,startDate,endDate,daysofOperation,comments,breakfastTime,lunchTime,snackTimeAM,snackTimePM,dinnerSupperTime,mealTypesServed,cycleNumber,recordStatus,country,fnsid,created,season,county
-72.38381171,42.77117346,60502,E.L.M. Community Center,Open,"21 Durkee st Winchester, NH 03470",,Winchester,NH,3470,6033920257,,Beth,Baldwin,6033920257,ACCESS Program,2019-06-25T07:00:00.000Z,2019-08-16T07:00:00.000Z,"M,T,W,TH,F","Field Trips: July 12, 19, 26, August 2, 9, 15) Closed 7/4/2018",,12:00,10:00,,,"L,M",4,N,US,18578,,2019,Cheshire
-71.53533367,43.2004975,60503,Concord Royal Gardens,Open,"15 Concord Gardens Concord, NH 03301",,Concord,NH,3301,6032253295,,Sharon,Ficek,6032253295,Belknap Merrimack CAP,2019-06-17T07:00:00.000Z,2019-08-23T07:00:00.000Z,"M,T,W,TH,F",Closed 7/4/2019,,11:45,,,,L,4,N,US,18313,,2019,Merrimack
-71.7731692,44.31053179,60504,Littleton Rec Dept,Open,"159 Oak Hill Ave Littleton, NH 03561",,Littleton,NH,3561,6039919980,,Chris,Wilkins,4135227010,Belknap Merrimack CAP,2019-06-24T07:00:00.000Z,2019-08-09T07:00:00.000Z,"M,T,W,TH,F","Field Trips: June 28 July 5,12,19,26, August 2,9 Closed 7/4/2019",8:00,11:30,,,,,4,N,US,134806,,2019,Grafton
-71.18668255,44.46953607,60505,Berlin Rec Ctr,Open,"672 First Avenue Berlin, NH 03570",,Berlin,NH,3570,6037522010,,Terry,Letarte,6037522010,Berlin Parks and Rec,2019-06-29T07:00:00.000Z,2019-08-09T07:00:00.000Z,"M,T,W,TH,F",Closed July 4th & 5th,,12:00,,2:30,,"L,A",4,N,US,89988,,2019,Coos
-71.16093616,44.48618898,60506,Brookside Park,Open,"Maynesboro Street Berlin, NH 03570",,Berlin,NH,3570,6037522010,,Terry,Letarte,6037522010,Berlin Parks and Rec,2019-06-24T07:00:00.000Z,2019-08-09T07:00:00.000Z,"M,T,W,TH,F",Closed July 4th & 5th,,12:00,,2:30,,"L,A",4,N,US,17849,,2019,Coos
-71.16742064,44.48730104,60507,Brown School Playground,Open,"Norway Street Berlin, NH 03570",,Berlin,NH,3570,6037522010,,Terry,Letarte,6037522010,Berlin Parks and Rec,2019-06-24T07:00:00.000Z,2019-08-09T07:00:00.000Z,"M,T,W,TH, F",Closed July 4th & 5th,,12:00,,2:30,,"L,A",4,N,US,122661,,2019,Coos
-71.16091127,44.48860928,60508,Community Cntrl Plygrnd,Open,"Hutchins Street Berlin, NH 03570",,Berlin,NH,3570,6037522010,,Terry,Letarte,6037522010,Berlin Parks and Rec,2019-06-24T07:00:00.000Z,2019-08-09T07:00:00.000Z,"M,T,W,TH,F",Closed July 4th & 5th,,12:00,,2:30,,"L,A",4,N,US,122759,,2019,Coos
-71.18171971,44.47156877,60509,Friendship Park Summer Camp,Open,"115 Mason Street Berlin, NH 03570",,Berlin,NH,3570,6037522010,,Terry,Letarte,6037522010,Berlin Parks and Rec,2019-06-24T07:00:00.000Z,2019-08-09T07:00:00.000Z,"M,T,W,TH,F",Closed July 4th & 5th,,12:00,,2:30,,"L,A",4,N,US,134416,,2019,Coos
-71.17802678,44.47199875,60510,St. Barnabus,Open,"2 High Street Berlin, NH 03570",,Berlin,NH,3570,6034665190,,Judy,Arsenault,6034665190,Berlin Parks and Rec,2019-07-08T07:00:00.000Z,2019-08-08T07:00:00.000Z,"M,T,W,TH,F",Closed July 4th & 5th,,11:30,,2:30,,"L,A",4,N,US,21467,,2019,Coos
-71.48197364,42.75614117,60511,Boys & Girls Club of Nashua,Open,"1 Positive Place Nashua, NH 03060",,Nashua,NH,3060,6038830523,,Kurt,Norris,6038830523,Boys & Girls Club Nashua,2019-06-19T07:00:00.000Z,2019-08-23T07:00:00.000Z,"M,T,W,TH,F","Field Trips: June 24,25,26,28 July 1,2,3,8,9,10,12,15,16,17,19,22,23,24,26,29,30,31 August 2,5,6,7,9,12,13,14,16,19,20,21,23 Closed July 4th",7:30,11:30,,,,"B,L",4,N,US,133880,,2019,Hillsborough
-71.45739343,42.993144,60512,Boys & Girls Club Manchester,Open,"555 Union Street Manchester, NH 03104",,Manchester,NH,3104,6036255031,,Ken,Neil,6036255031,Boys & Girls Club Manchester,2019-06-17T07:00:00.000Z,2019-08-30T07:00:00.000Z,"M,T,W,TH,F",Closed July 4th & 5th,7:15,,,,4:15,"B,S",4,N,US,90041,,2019,Hillsborough
-72.33399733,43.3646389,60513,Claremont Middle School,Open,"107 South Street Claremont, NH 03743",,Claremont,NH,3743,6035434250,,Cindy,Stevens,6035433290,Claremont Soup Kitchen,2019-07-01T07:00:00.000Z,2019-08-23T07:00:00.000Z,"M,T,W,TH,F",Closed July 4th,,11:30,,,,L,4,N,US,63617,,2019,Sullivan
-72.34373216,43.37447248,60514,Claremont Soup Kitchen,Open,"51 Central Street Claremont, NH 03743",,Claremont,NH,3743,6035433290,,Cindy,Stevens,6035433290,Claremont Soup Kitchen,2019-06-17T07:00:00.000Z,2019-08-30T07:00:00.000Z,"M,T,W,TH,F",Closed July 4th,,1:00,,,,L,4,N,US,63618,,2019,Sullivan
-72.34012927,43.383303,60515,Disnard Elementary School,Open,"160 Hanover Street Claremont, NH 03743",,Claremont,NH,3743,6035433290,,Cindy,Stevens,6035433290,Claremont Soup Kitchen,2019-07-01T07:00:00.000Z,2019-08-23T07:00:00.000Z,"M,T,W,TH,F",Closed July 4th,,11:30,,,,L,4,N,US,122797,,2019,Sullivan
-72.37040438,43.36490054,60516,Maple Avenue School,Open,"210 Maple Avenue Claremont, NH 03743",,Claremont,NH,3743,6035433290,,Cindy,Stevens,6035433290,Claremont Soup Kitchen,2019-07-01T07:00:00.000Z,2019-08-23T07:00:00.000Z,"M,T,W,TH,F",Closed July 4th,,11:30,,,,L,4,N,US,64406,,2019,Sullivan
-71.94251503,43.03111991,60517,Antrim Elem School,Open,"10 School Street Antrim, NH 03440",,Antrim,NH,3440,6035886371,,Lisa,Hennessy,6035886371,SAU 1 Conval,2019-07-08T07:00:00.000Z,2019-08-16T07:00:00.000Z,"M,T,W,TH,F",,8:30,11:00,,,,"B,L",4,N,US,17398,,2019,Hillsborough
-72.29560242,42.9268925,60518,Brook Bend,Open,"82 Meadow Road Keene, NH 03431",,Keene,NH,3431,6032835443,,June,Jones,6032835443,SAU 1 Conval,2019-07-08T07:00:00.000Z,2019-08-16T07:00:00.000Z,"M,T,W,TH,F",,9:50,12:20,,,,"B,L",4,N,US,17839,,2019,Cheshire
-72.05576087,42.90605248,60519,Dublin Consolidated School,Open,"1177 Main Street Dublin, NH 03444",,Dublin,NH,3444,6035638332,,Nicole,Pease,6035638332,SAU 1 Conval,2019-07-08T07:00:00.000Z,2019-08-16T07:00:00.000Z,"M,T,W,TH,F",,9:45,11:30,,,,"B,L",4,N,US,18552,,2019,Cheshire
-72.28796692,42.94300902,60520,Forrest View,Open,"10 Harmony Lane Keene, NH 03431",,Keene,NH,3431,6033526161,,Liz,Chapman,6033526161,SAU 1 Conval,2019-07-08T07:00:00.000Z,2019-08-16T07:00:00.000Z,"M,T,W,TH,F",,9:00,11:30,,,,"B,L",4,N,US,18906,,2019,Cheshire
-71.90370781,43.11796809,60521,Hillsboro/Deering Middle School,Open,"6 Hillcat Drive Hillsborough, NH 03244",,Hillsborough,NH,3244,6034641160,,Michele,Dupont,6034641160,SAU 1 Conval,2019-07-08T07:00:00.000Z,2019-08-16T07:00:00.000Z,"M,T,W,TH,F",,8:30,11:30,,,,"B,L",4,N,US,19339,,2019,Hillsborough
-72.01713869,42.80552927,60522,Humiston Field,Open,"31 Howard Hill Road Jaffrey, NH 03452",,Jaffrey,NH,3452,6035327873,,Walt,Pryor,6035327873,SAU 1 Conval,2019-07-08T07:00:00.000Z,2019-08-16T07:00:00.000Z,"M,T,W,TH,F","Field Trips: July 8,9,10,11,12,15,16,17,18,19,22,23,24,25,26,29,30,31 August 1,2,5,6,7,8,9",8:45,11:30,,,,"B,L",4,N,US,19422,,2019,Cheshire
-72.02548248,42.81431087,60523,Jaffrey Grade School,Open,"18 School Street Jaffrey, NH 03452",,Jaffrey,NH,3452,6035328355,,Susan,Sarles,6035328355,SAU 1 Conval,2019-07-08T07:00:00.000Z,2019-08-16T07:00:00.000Z,"M,T,W,TH,F",,8:15,11:45,,,,"B,L",4,N,US,19526,,2019,Cheshire
-72.01899086,42.81078935,60524,Jaffrey Rindge Middle,Open,"1 Conant Way Jaffrey, NH 03452",,Jaffrey,NH,3452,6035328355,,Susan,Sarles,6035328355,SAU 1 Conval,2019-07-08T07:00:00.000Z,2019-08-16T07:00:00.000Z,"M,T,W,TH,F",,,11:45,,,,L,4,N,US,19527,,2019,Cheshire
-72.3261282,42.95001788,60525,Keene Family YMCA,Open,"200 Summit Road Keene, NH 03431",,Keene,NH,3431,6032835240,,Kelly,Fluette,6032835240,SAU 1 Conval,2019-07-08T07:00:00.000Z,2019-08-16T07:00:00.000Z,"M,T,W,TH,F",,8:00,11:00,,,,"B,L",4,N,US,19639,,2019,Cheshire
-72.27886389,42.94473727,60526,North and Gilsum,Open,"32 North Street Keene, NH 03431",,Keene,NH,3431,6033526161,,Liz,Chipman,6033526161,SAU 1 Conval,2019-07-08T07:00:00.000Z,2019-08-16T07:00:00.000Z,"M,T,W,TH,F",,9;05,11:35,,,,"B,L",4,N,US,20444,,2019,Cheshire
-71.94729853,42.91462312,60527,Pine View Village,Open,"118 Prescott Road Peterborough, NH 03458",,Peterborough,NH,3458,6039249601,,Erika,Alusic-Bingham,6039249601,SAU 1 Conval,2019-07-08T07:00:00.000Z,2019-08-16T07:00:00.000Z,"M,T,W,TH,F","Field Trips: July 9,11,16,18,23,25,30 August 1,6,8",8:40,12:40,,,,"B,L",4,N,US,20793,,2019,Hillsborough
-71.93653486,42.90731064,60528,Riverview Apt.,Open,"75 Pheasant Road Peterborough, NH 03458",,Peterborough,NH,3458,6039249601,,Erika,Alusic-Bingham,6039249601,SAU 1 Conval,2019-07-08T07:00:00.000Z,2019-08-17T07:00:00.000Z,"M,T,W,TH,F","Field Trips: July 9,11,16,18,23,25,30 August 1,6,8",8:00,12:00,,,,"B,L",4,N,US,21060,,2019,Hillsborough
-72.49934418,42.78465617,60529,Hinsdale Day Camp,Open,"12 School Street Hinsdale, NH 03451",,Hinsdale,NH,3451,6033365984,,Tammy,Stebbins,6033365332,SAU 92 Hinsdale,2019-07-01T07:00:00.000Z,2019-08-09T07:00:00.000Z,"M,T,W,TH,F",Closed July 4th,8:15,11:30,,,,"B,L",4,N,US,134566,,2019,Cheshire
-72.49934418,42.78465617,60530,Hinsdale Middle High School,Open,"12 School Street Hinsdale, NH 03451",,Hinsdale,NH,3451,6033365332,,Maryanne,O'Malley,6033365332,SAU 92 Hinsdale,2019-07-01T07:00:00.000Z,2019-08-09T07:00:00.000Z,"M,T,W,TH,F",Closed July 4th,,,,3:15,,A,4,N,US,134567,,2019,Cheshire
-71.47568552,42.76830873,60531,Amherst St. School,Open,"71 Amherst Street Nashua, NH 03064",,Nashua,NH,3064,6039661709,,Lisa,Bordeleau,6039661709,SAU 42 Nashua,2019-07-01T07:00:00.000Z,2019-08-02T07:00:00.000Z,"M,T,W,TH,F","Field Trips: July 12,19,26 August 2",8:30,11:30,,,,"B,L",4,N,US,17366,,2019,Hillsborough
-71.44706012,42.75534915,60532,Dr. Norman Crisp School,Open,"50 Arlington Street Nashua, NH 03060",,Nashua,NH,3060,6039662109,,Pamela,Correa,6039662109,SAU 42 Nashua,2019-07-08T07:00:00.000Z,2019-08-02T07:00:00.000Z,"M,T,W,TH,F",,8:30,,,,,B,4,N,US,18541,,2019,Hillsborough
-71.47739834,42.7457448,60533,Fairgrounds Elem School,Open,"37 Blanchard Street Nashua, NH 03060",,Nashua,NH,3060,6039662229,,Lisa,Bordeleau,6039662229,SAU 42 Nashua,2019-07-01T07:00:00.000Z,2019-08-08T07:00:00.000Z,"M,T,W,TH,F","Field Trips: July 12,19,26 August 2",8:30,11:30,,,,"B,L",4,N,US,18758,,2019,Hillsborough
-71.48123499,42.75505229,60534,Ledge Street School,Open,"139 Ledge Street Nashua, NH 03062",,Nashua,NH,3062,6039662129,,Lisa,Bordeleau,6039662129,SAU 42 Nashua,2019-07-08T07:00:00.000Z,2019-08-02T07:00:00.000Z,"M,T,W,TH,F",,8:30,11:30,,,,"B,L",4,N,US,19781,,2019,Hillsborough
-71.46812079,42.76849887,60535,Mt. Pleasant School,Open,"10 Manchester Street Nashua, NH 03064",,Nashua,NH,3064,6039662410,,Pamela,Correa,6039662410,SAU 42 Nashua,2019-07-08T07:00:00.000Z,2019-08-02T07:00:00.000Z,"M,T,W,TH,F",,8:30,,,,,B,4,N,US,20307,,2019,Hillsborough
-71.1314995,43.97587487,60536,Conway Elementary School,Open,"160 W Main Street Conway, NH 03818",,Conway,NH,3818,6034478951,,Pamela,Stimpson,6034478951,NH Food Bank,2019-07-08T07:00:00.000Z,2019-07-31T07:00:00.000Z,"M,T,W,TH",,8:00,11:00,,,,"B,L",4,N,US,134128,,2019,Carroll
-71.04184789,43.79533311,60537,Effingtham Elemenatry School,Open,"6 Patridge Cove Road Effingham, NH 03882",,Effingham,NH,3882,6035396032,,Brenda,Luch,6035396032,NH Food Bank,2019-07-09T07:00:00.000Z,2019-08-08T07:00:00.000Z,"T,W,TH",,8:00,11:00,,,,"B,L",4,N,US,134310,,2019,Carroll
-71.51644871,44.59994456,60538,Groveton High School,Open,"65 State Street Groveton, NH 03582",,Groveton,NH,3582,6036361619,,Erik,Becker,6036361619,NH Food Bank,2019-06-23T07:00:00.000Z,2019-08-23T07:00:00.000Z,"M,T,W,TH,F",,,12:00,,,,"B,L",4,N,US,64031,,2019,Coos
-71.14967593,43.75293927,60539,Ossipee Central School,Open,"68 East Main Street Center Ossipee, NH 03814",,Center Ossipee,NH,3814,6035394589,,Charlie,Hossack,6035394589,NH Food Bank,2019-07-09T07:00:00.000Z,2019-08-08T07:00:00.000Z,"T,W,TH",,8:00,11:00,,,,"B,L",4,N,US,123345,,2019,Carroll
-71.52310186,44.9990142,60540,Stewartstown Community School,Open,"60 School St Stewartstown, NH 03597",,Stewartstown,NH,3597,6032467082,,John,Kennedy,6032467082,NH Food Bank,2019-07-08T07:00:00.000Z,2019-07-25T07:00:00.000Z,"M,T,W,TH",,,11:30,,,,L,4,N,US,91895,,2019,Coos
-71.60195657,44.41689564,60541,White Mountains Regional High School,Open,"127 Regional Road Whitefield, NH 03598",,Whitefield,NH,3598,6036319333,,Lisa,Daigle,6038372528,NH Food Bank,2019-06-24T07:00:00.000Z,2019-08-23T07:00:00.000Z,"M,T,W,TH,F",Closed July 4th,,11:45,,,,L,4,N,US,135824,,2019,Coos
-71.61484658,44.3762588,60542,Whitefield Rec Program,Open,"Highland St Whitefield, NH 03598",,Whitefield,NH,3598,6036166012,,Melissa,Farrow,6036163012,NH Food Bank,2019-06-24T07:00:00.000Z,2019-08-23T07:00:00.000Z,"M,T,W,TH,F","Closed July 22,23,24,25,26",,12:00,,,,L,4,N,US,22159,,2019,Coos
-70.92411181,43.13749215,60543,Oyster River Middle School,Open,"1 Coe Drive Strafford, NH 03824",,Strafford,NH,3824,6038682820,,Timothy,Kenaley,6038682820,Oyster River SAU 5,2019-07-08T07:00:00.000Z,2019-08-08T07:00:00.000Z,"M,T,W,TH",,,11:45,,,,L,4,N,US,135185,,2019,Strafford
-71.45743074,42.98360594,60544,Adventure Park,Open,"300-324 Union Street Manchester, NH 03103",,Manchester,NH,3103,6036688010,,Valerie,Carignan,6036688010,Southern NH Services,2019-06-14T07:00:00.000Z,2019-08-30T07:00:00.000Z,"M,T,W,TH,F",Closed July 4th & 5th,,,,,4:15,S,4,N,US,17296,,2019,Hillsborough
-71.45288596,42.95921693,60545,Beech Hill Apts.,Open,"120 Beech Hill Manchester, NH 03103",,Manchester,NH,3103,6036688010,,Valerie,Carignan,6036688010,Southern NH Services,2019-06-14T07:00:00.000Z,2019-08-30T07:00:00.000Z,"M,T,W,TH,F",Closed July 4th & 5th,,,,,5:45,S,4,N,US,17548,,2019,Hillsborough
-71.45532311,42.98047665,60546,Beech St. School,Open,"275 Beech Street Manchester, NH 03103",,Manchester,NH,3103,6036688010,,Valerie,Carignan,6036688010,Southern NH Services,2019-06-14T07:00:00.000Z,2019-08-30T07:00:00.000Z,"M,T,W,TH,F",Closed July 4th & 5th,,,10:30,,5:45,"M,S",4,N,US,17551,,2019,Hillsborough
-71.47099885,42.75835213,60547,Bronstein Apts.,Open,"41 Central Street Nashua, NH 03060",,Nashua,NH,3060,6036688010,,Valerie,Carignan,6036688010,Southern NH Services,2019-06-19T07:00:00.000Z,2019-08-30T07:00:00.000Z,"M,T,W,TH,F",Closed July 4th & 5th,9:00,12:00,,,,"B,L",4,N,US,17838,,2019,Hillsborough
-71.4733448,42.77055996,60548,Centennial Pool,Open,"22 Sargents Avenue Nashua, NH 03060",,Nashua,NH,3060,6036688010,,Valerie,Carignan,6036688010,Southern NH Services,2019-06-19T07:00:00.000Z,2019-08-30T07:00:00.000Z,"M,T,W,TH,F",Closed July 4th & 5th,,11:45,,,,L,4,N,US,18073,,2019,Hillsborough
-71.46030116,42.99275349,60549,Center for New Americans,Open,"72 Concord Street Manchester, NH 03103",,Manchester,NH,3103,6036688010,,Valerie,Carignan,6036688010,Southern NH Services,2019-06-14T07:00:00.000Z,2019-08-30T07:00:00.000Z,"M,TH",Closed July 4th & 5th,,12:00,,,,L,4,N,US,122703,,2019,Hillsborough
-71.46030116,42.99275349,60550,Center for New Americans High School,Open,"72 Concord Street Manchester, NH 03103",,Manchester,NH,3103,6036688010,,Valerie,Carignan,6036688010,Southern NH Services,2019-06-14T07:00:00.000Z,2019-08-30T07:00:00.000Z,TH,Closed July 4th & 5th,,,,,4:30,S,4,N,US,122704,,2019,Hillsborough
-71.45245536,42.95891606,60551,Central Park @ Beech Hill,Open,"22 Beech Hill Dr Manchester, NH 03103",,Manchester,NH,3103,6036683423,,Tamera,Record,6036688010,Southern NH Services,2019-06-14T07:00:00.000Z,2019-08-30T07:00:00.000Z,"M,T,W,TH,F",Closed July 4th & 5th,,12:00,,,,L,4,N,US,18107,,2019,Hillsborough
-71.45270653,42.75126974,60552,Crown Hill Pool,Open,"27 Burk Street Nashua, NH 03060",,Nashua,NH,3060,6036688010,,Valerie,Carignan,6036688010,Southern NH Services,2019-06-19T07:00:00.000Z,2019-08-30T07:00:00.000Z,"M,T,W,TH,F",Closed July 4th & 5th,,12:45,,,,L,4,N,US,90372,,2019,Hillsborough
-71.44706012,42.75534915,60553,Dr. Crisp School,Open,"50 Arlington Street Nashua, NH 03060",,Nashua,NH,3060,6036688010,,Valerie,Carignan,6036688010,Southern NH Services,2019-06-19T07:00:00.000Z,2019-08-30T07:00:00.000Z,"M,T,W,TH,F",Closed July 4th & 5th,9:15,12:15,,,,"B,L",4,N,US,122806,,2019,Hillsborough
-71.46405206,42.97062796,60554,Elmwood Gardens,Open,"83 Trahan Street Manchester, NH 03103",,Manchester,NH,3103,6036688010,,Valerie,Carignan,6036688010,Southern NH Services,2019-06-14T07:00:00.000Z,2019-08-30T07:00:00.000Z,"M,T,W,TH,F",Closed July 4th & 5th,9:00,12:00,,,,"B,L",4,N,US,18693,,2019,Hillsborough
-71.33331996,42.89166697,60555,Franklin Village,Open,"4 Laraway Court Derry, NH 03038",,Derry,NH,3038,6034341007,,Dana,Coffee,6036688010,Southern NH Services,2019-06-19T07:00:00.000Z,2019-08-30T07:00:00.000Z,"M,T,W,TH,F",Closed July 4th & 5th,,12:00,,,,L,4,N,US,18946,,2019,Rockingham
-70.77404942,43.05569063,60556,Green Leaf Rec Center,Open,"195 Green Leaf Avenue Portsmouth, NH 03801",,Portsmouth,NH,3801,6036688010,,Valerie,Carignan,6036688010,Southern NH Services,2019-06-19T07:00:00.000Z,2019-08-30T07:00:00.000Z,"M,T,W,TH,F",Closed July 4th & 5th,,12:00,,,,L,4,N,US,19166,,2019,Rockingham
-71.4465,42.9872925,60557,Harriman Park,Open,"434 Lake Ave Manchester, NH 03103",,Manchester,NH,3103,6036688010,,Valerie,Carignan,6036688010,Southern NH Services,2019-06-14T07:00:00.000Z,2019-08-30T07:00:00.000Z,"M,T,W,TH,F",Closed July 4th & 5th,,11:30,,,,L,4,N,US,122979,,2019,Hillsborough
-71.48371232,42.75419278,60558,Head Start 11th Street,Open,"24 11th Street Nashua, NH 03060",,Nashua,NH,3060,6036688011,0,Valerie,Carignan,6036688010,Southern NH Services,2019-06-19T07:00:00.000Z,2019-08-30T07:00:00.000Z,"M,T,W,TH,F",Closed July 4th & 5th,,12:00,,,,L,4,N,US,134534,,2019,Hillsborough
-71.45293615,42.98368688,60559,Hunts Pool,Open,"297 Maple Street Manchester, NH 03013",,Manchester,NH,3013,6036688010,,Valerie,Carignan,6036688010,Southern NH Services,2019-06-14T07:00:00.000Z,2019-08-30T07:00:00.000Z,"M,T,W,TH,F",Closed July 4th & 5th,,1:15,,,,L,4,N,US,19428,,2019,Hillsborough
-71.45292439,42.98141411,60560,Inti Soccer Clinic,Open,"396 Valley St Manchester, NH 03103",,Manchester,NH,3103,6036688010,,Valerie,Carignan,6036688010,Southern NH Services,2019-07-15T07:00:00.000Z,2019-07-19T07:00:00.000Z,"M,T,W,TH,F",Closed July 4th & 5th,8:30,12:00,,,,"B,L",4,N,US,19489,,2019,Hillsborough
-71.49352475,42.99921896,60561,Kelly Falls Apts.,Open,"463 Kimball Street Manchester, NH 03102",,Manchester,NH,3102,6036688010,,Valerie,Carignan,6036688010,Southern NH Services,2019-06-14T07:00:00.000Z,2019-08-30T07:00:00.000Z,"M,T,W,TH,F",Closed July 4th & 5th,,,,,5:00,S,4,N,US,19644,,2019,Hillsborough
-71.45534365,42.97676512,60562,M - PAL,Open,"109 Beech Street Manchester, NH 03103",,Manchester,NH,3103,6036688010,,Valerie,Carignan,6036688010,Southern NH Services,2019-06-14T07:00:00.000Z,2019-08-30T07:00:00.000Z,"M,T,W,TH,F",Closed July 4th & 5th,,12:00,,,,L,4,N,US,91091,,2019,Hillsborough
-71.45292439,42.98141411,60563,Manchester Central High School,Open,"396 Valley St Manchester, NH 03103",,Manchester,NH,3103,6036688010,,Valerie,Carignan,6036688010,Southern NH Services,2019-08-16T07:00:00.000Z,2019-08-30T07:00:00.000Z,"M,T,W,TH,F",Closed July 4th & 5th,,11:30,,,,L,4,N,US,123160,,2019,Hillsborough
-71.43439649,42.96477187,60564,Manchester Memorial High School,Open,"1 Crusader Way Manchester, NH 03103",,Manchester,NH,3103,6036688010,,Valerie,Carignan,6036688010,Southern NH Services,2019-08-16T07:00:00.000Z,2019-08-30T07:00:00.000Z,"M,T,W,TH,F",Closed July 4th & 5th,,11:00,,,,L,4,N,US,91114,,2019,Hillsborough
-71.47520335,42.98566707,60565,Manchester West High School,Open,"9 Notre Dame Ave Manchester, NH 03102",,Manchester,NH,3102,6036688010,,Valerie,Carignan,6036688010,Southern NH Services,2019-08-16T07:00:00.000Z,2019-08-30T07:00:00.000Z,"M,T,W,TH,F",Closed July 4th & 5th,,,,,5:00,S,4,N,US,91116,,2019,Hillsborough
-71.45294004,42.97945475,60566,Maple St. Apts,Open,"183-199 Maple Street Manchester, NH 03103",,Manchester,NH,3103,6036688010,,Valerie,Carignan,6036688010,Southern NH Services,2019-06-14T07:00:00.000Z,2019-08-30T07:00:00.000Z,"M,T,W,TH,F",Closed July 4th & 5th,,,,,5:00,S,4,N,US,19986,,2019,Hillsborough
-71.46484323,42.76291387,60567,Nashua Park Library,Open,"2 Court Street Nashua, NH 03060",,Nashua,NH,3060,6036688010,,Valerie,Carignan,6036688010,Southern NH Services,2019-06-19T07:00:00.000Z,2019-08-30T07:00:00.000Z,"M,T,W,Th,F",Closed July 4th & 5th,,11:00,,,,L,4,N,US,135011,,2019,Hillsborough
-71.461728,42.76073768,60568,Nashua Soup Kitchen,Open,"2 Qunicy Street Nashua, NH 03060",,Nashua,NH,3060,6036688010,,Valerie,Carignan,6036688010,Southern NH Services,2019-06-19T07:00:00.000Z,2019-08-30T07:00:00.000Z,"M,T,W,TH,F",Closed July 4th & 5th,,11:30,,,,L,4,N,US,123247,,2019,Hillsborough
-71.46985115,42.75701999,60569,P.A.L. Program Nashua,Open,"52 Ash St Nashua, NH 03060",,Nashua,NH,3060,6032338287,,Sean,Nelson,6036688010,Southern NH Services,2019-06-19T07:00:00.000Z,2019-08-30T07:00:00.000Z,"M,T,W,TH,F",Field Trip 6/28 Closed July 4 & 5,,12:00,,,,L,4,N,US,20660,,2019,Hillsborough
-71.31574773,42.89470572,60570,Pinkerton Academy,Open,"5 Pinkerton Dr Derry, NH 03033",,Derry,NH,3033,6033397355,,Tim,Powers,6036688010,Southern NH Services,2019-06-19T07:00:00.000Z,2019-08-28T07:00:00.000Z,"M,T,W,TH,F",Closed July 4th & 5th,,11:00,,,,L,4,N,US,64759,,2019,Rockingham
-71.438103,42.977412,60571,Prout Park,Open,"Young & Jewett Street Manchester, NH 03103",,Manchester,NH,3103,6036688010,,Valerie,Carignan,6036688010,Southern NH Services,2019-06-14T07:00:00.000Z,2019-08-30T07:00:00.000Z,"M,T,W,TH,F",Closed July 4th & 5th,,12:45,,,,L,4,N,US,123405,,2019,Hillsborough
-71.4570705,42.98576947,60572,Roca in the Park,Open,"222 Ceder Street Manchester, NH 03103",,Manchester,NH,3103,6036688010,,Valerie,Carignan,6036688010,Southern NH Services,2019-07-22T07:00:00.000Z,2019-07-26T07:00:00.000Z,"M,T,W,TH,F",Closed July 4th & 5th,8:30,12:00,,,,"B,L",4,N,US,123488,,2019,Hillsborough
-71.48500685,42.99864543,60573,Rock Rimmon Pool,Open,"249 Mason St Manchester, NH 03102",,Manchester,NH,3102,6036688010,,Valerie,Carignan,6036688010,Southern NH Services,2019-06-14T07:00:00.000Z,2019-08-30T07:00:00.000Z,"M,T,W,TH,F",Closed July 4th & 5th,,1:30,,,,L,4,N,US,21082,,2019,Hillsborough
-71.47528453,42.74347986,60574,Rotary Pool,Open,"Cleveland Street Nashua, NH 03064",,Nashua,NH,3064,6036688010,,Valerie,Carignan,6036688010,Southern NH Services,2019-06-19T07:00:00.000Z,2019-08-30T07:00:00.000Z,"M,T,W,TH,F",Closed July 4th & 5th,,1:00,,,,L,4,N,US,135371,,2019,Hillsborough
-71.45535242,42.98442297,60575,Safari Youth Camp,Open,"333 Beech Street Manchester, NH 03103",,Manchester,NH,3103,6036688010,,Valerie,Carignan,6036688010,Southern NH Services,2019-07-22T07:00:00.000Z,2019-08-30T07:00:00.000Z,"M,T,W,TH,F",Closed July 4th & 5th,9:00,12:00,,,,"B,L",4,N,US,123508,,2019,Hillsborough
-71.45825691,42.74421956,60576,Salvation Army,Open,"1 Montgomery Drive Nashua, NH 03060",,Nashua,NH,3060,6038895151,,Amie,Groff,6036688010,Southern NH Services,2019-06-19T07:00:00.000Z,2019-08-28T07:00:00.000Z,"M,T,W,TH,F",Closed July 4th & 5th,8:00,12:00,,,,"B,L",4,N,US,21183,,2019,Hillsborough
-71.47194946,42.74870409,60577,Sandy Pond,Open,"9 Sacred Heart Drive Nashua, NH 03060",,Nashua,NH,3060,6036688010,,Valerie,Carignan,6036688010,Southern NH Services,2019-06-19T07:00:00.000Z,2019-08-30T07:00:00.000Z,"M,T,W,TH,F",Closed July 4th & 5th,,12:45,,,,L,4,N,US,135425,,2019,Hillsborough
-70.86873923,42.88406227,60578,Seabrook Parks & Rec,Open,"311 Lafayette Rd Seabrook, NH 03874",,Seabrook,NH,3874,6036688010,,Valerie,Carignan,6036688010,Southern NH Services,2019-06-24T07:00:00.000Z,2019-08-15T07:00:00.000Z,"M,T,W,TH,F","Field Trips: July 17, August 7 Closed July 4 & 5",8:00,11:15,,,,"B,L",4,N,US,21248,,2019,Rockingham
-70.76830804,43.06264399,60579,Seabrook WIC Clinic,Open,"146 Lafayette Rd Portsmouth, NH 03874",,Portsmouth,NH,3874,6036688010,,Valerie,Carignan,6036688010,Southern NH Services,2019-06-19T07:00:00.000Z,2019-08-30T07:00:00.000Z,M,Closed July 4th & 5th,9:00,1:00,,,,"B,L",4,N,US,91737,,2019,Rockingham
-71.43502131,42.98663041,60580,Stevens Park Bookmobile,Open,"313 Terrytown Road Manchester, NH 03103",,Manchester,NH,3103,6036688010,,Valerie,Carignan,6036688010,Southern NH Services,2019-06-14T07:00:00.000Z,2019-08-30T07:00:00.000Z,TH,Closed July 4th & 5th,,1:30,,,,L,4,N,US,135563,,2019,Hillsborough
-71.47387676,42.98166778,60581,Sweeney Park,Open,"132 Walker Street Manchester, NH 03102",,Manchester,NH,3102,6036688010,,Valerie,Carignan,6036688010,Southern NH Services,2019-06-14T07:00:00.000Z,2019-08-30T07:00:00.000Z,"M,T,W,TH,F",Closed July 4th & 5th,,,,,4:15,S,4,N,US,21607,,2019,Hillsborough
-71.45121108,42.99276749,60582,The Welcome Center,Open,"286 Concord Street Manchester, NH 03104",,Manchester,NH,3104,6036688010,,Valerie,Carignan,6036688010,Southern NH Services,2019-06-14T07:00:00.000Z,2019-08-30T07:00:00.000Z,"M,T,W,TH,F",Closed July 4th & 5th,,12:00,,,,L,4,N,US,135648,,2019,Hillsborough
-71.45991936,42.76540042,60583,Tolles St Mission,Open,"52 Whitney Street Nashua, NH 03064",,Nashua,NH,3064,6036688010,,Valerie,Carignan,6036688010,Southern NH Services,2019-06-19T07:00:00.000Z,2019-08-30T07:00:00.000Z,"T,TH",Closed July 4th & 5th,,11:00,,,,L,4,N,US,135672,,2019,Hillsborough
-71.46839518,42.98740982,60584,UNH - Manchester ECXCELL Program,Open,"88 Commercial St Manchester, NH 03101",,Manchester,NH,3101,6036414320,,Emily,Ker,6036688010,Southern NH Services,2019-07-08T07:00:00.000Z,2019-07-31T07:00:00.000Z,"M,T,W,TH","Field Trip: July 31, Closed July 4th & 5th",,11:45,,,,L,4,N,US,21854,,2019,Hillsborough
-71.45304176,42.7596661,60585,WIC Clinic Nashua,Open,"134 Allds Street Nashua, NH 03060",,Nashua,NH,3060,6036688010,,Valerie,Carignan,6036688010,Southern NH Services,2019-06-19T07:00:00.000Z,2019-08-30T07:00:00.000Z,"M,T,W,TH,G",Closed July 4th & 5th,8:30,12:30,,,,"B,L",4,N,US,135832,,2019,Hillsborough
-70.8517593,43.24488266,60586,Cherryfield Village,Open,"395 Main Street Somersworth, NH 03878",,Somersworth,NH,3878,6036923978,,Suzanne,Powers,6034352500,Strafford County Head Start,2019-06-24T07:00:00.000Z,2019-08-16T07:00:00.000Z,"M,T,W,TH,F",Closed July 4th,8:15,11:45,,,,"B,L",4,N,US,18148,,2019,Strafford
-70.89549739,43.20373923,60587,Dover Housing Authority - Head Start,Open,"62A Whittier Street Dover, NH 03820",,Dover,NH,3820,6037425804,,Wendy,Tenny,6034352500,Strafford County Head Start,2019-06-24T07:00:00.000Z,2019-08-16T07:00:00.000Z,"M,T,W,TH,F",Closed July 4th,9:15,12:15,,,,"B,L",4,N,US,90444,,2019,Strafford
-70.89474153,43.20247052,60588,Dover Housing Authority - Seymour Osmond,Open,"40 Hampshire Circle Dover, NH 03820",,Dover,NH,3820,6037496692,,Stacy,Kearns,6034352500,Strafford County Head Start,2019-06-24T07:00:00.000Z,2019-08-16T07:00:00.000Z,"M,T,W,TH,F",Closed July 4th,9:00,12:30,,,,"B,L",4,N,US,134256,,2019,Strafford
-70.93712243,43.33313548,60589,East Rochester Annex,Open,"5 Cocheco Ave Rochester, NH 03867",,Rochester,NH,3867,6039734949,,Art,Jacobs,6034352500,Strafford County Head Start,2019-06-24T07:00:00.000Z,2019-08-16T07:00:00.000Z,"M,T,W,TH,F","Field Trips: July 11,18 August 1,15 Closed July 4",9:00,12:00,,,,"B,L",4,N,US,122819,,2019,Strafford
-71.0747725,43.39379509,60590,Farmington High School,Open,"40 Thayer Drive Strafford, NH 03835",,Strafford,NH,3835,6034352500,,Jamie,Swan,6034352500,Strafford County Head Start,2019-07-08T07:00:00.000Z,2019-07-26T07:00:00.000Z,"M,T,W,TH,F",,8:00,11:30,,,,"B,L",4,N,US,90564,,2019,Strafford
-71.06519907,43.39133868,60591,Farmington Rec Department,Open,"532 Main Street Farmington, NH 03835",,Farmington,NH,3835,6033658213,,Rick,Conway,6034352500,Strafford County Head Start,2019-06-24T07:00:00.000Z,2019-08-16T07:00:00.000Z,"M,T,W,TH,F","Field Trips: June 26,28, July 1,3,5,8,10,12,15,17,19,22,24,26,29,31, August 2,5,8,12,14 Closed July 4",8:00,11:30,,,,"B,L",4,N,US,18802,,2019,Strafford
-71.06956013,43.39194299,60592,Henry Wilson Mem. 4-7,Open,"51 School Street Farmington, NH 03835",,Farmington,NH,3835,6034352500,,Jamie,Swan,6034352500,Strafford County Head Start,2019-07-08T07:00:00.000Z,2019-07-26T07:00:00.000Z,"M,T,W,TH,F",,8:00,11:30,,,,"B,L",4,N,US,19295,,2019,Strafford
-70.88811608,43.17043225,60593,Redden Garden,Open,"2 Adelle Drive Dover, NH 03820",,Dover,NH,3820,6037426828,,Patty,Zilembo,6034352500,Strafford County Head Start,2019-06-24T07:00:00.000Z,2019-08-16T07:00:00.000Z,"M,T,W,TH,F",Closed July 4th,8:00,11:00,,,,"B,L",4,N,US,20970,,2019,Strafford
-70.98248505,43.28958329,60594,Rochester Housing Authority,Open,"31 Emerson Street Rochester, NH 03867",,Rochester,NH,3867,6033300440,,Paige,Elderidge,6034352500,Strafford County Head Start,2019-06-24T07:00:00.000Z,2019-08-16T07:00:00.000Z,"M,T,W,TH,F",Closed July 4th,8:30,12:45,,,,"B,L",4,N,US,21075,,2019,Strafford
-70.8807933,43.18349315,60595,Rutland Manor,Open,"1 Abbey Lane Dover, NH 03820",,Dover,NH,3820,6037492419,,Michelle,Cahill,6034352500,Strafford County Head Start,2019-06-24T07:00:00.000Z,2019-08-16T07:00:00.000Z,"M,T,W,TH,F",Closed July 4th,8:35,11:35,,,,"B,L",4,N,US,123504,,2019,Strafford
-70.9629907,43.32568829,60596,Salmon Falls Estates,Open,"Route 202 Rochester, NH 03868",,Rochester,NH,3868,6033126973,,Patty,Zilembo,6034352500,Strafford County Head Start,2019-06-24T07:00:00.000Z,2019-08-16T07:00:00.000Z,"M,T,W,TH,F",Closed July 4th,7:45,12:00,,,,"B,L",4,N,US,21180,,2019,Strafford
-70.96764587,43.30673739,60597,School St. School,Open,"13 School Street Rochester, NH 03867",,Rochester,NH,3867,6033326483,,Jennifer,Hersom,6034352500,Strafford County Head Start,2019-07-08T07:00:00.000Z,2019-08-08T07:00:00.000Z,"M,T,W",,8:30,12:00,,,,"B,L",4,N,US,21242,,2019,Strafford
-70.87040391,43.26080101,60598,Somersworth Rec Noble Pines,Open,"40 Noble Pines Somersworth, NH 03878",,Somersworth,NH,3878,6036929508,,Kristen,Ducharme,6034352500,Strafford County Head Start,2019-06-24T07:00:00.000Z,2019-08-16T07:00:00.000Z,"M,T,W,TH,F","Field Trips Jun 25,27 July 2,9,11,16,18,23,25,30 August 1,6,8,13,15 Closed July 4th",8:30,12:00,,,,"B,L",4,N,US,21367,,2019,Strafford
-70.97751875,43.31479139,60599,Spaulding High School,Open,"130 Wakefield Street Rochester, NH 03867",,Rochester,NH,3867,6034352500,,Patty,Menard,6034352500,Strafford County Head Start,2019-06-24T07:00:00.000Z,2019-08-16T07:00:00.000Z,"M,T,W,TH,F",Closed July 4th,8:30,12:00,,,,"B,L",4,N,US,21429,,2019,Strafford
-70.8746067,43.23987825,60600,SYC Idleherst Elementary,Open,"46 Stackpole Road Somersworth, NH 03878",,Somersworth,NH,3878,6036922435,,Maureen,Jackman,6034352500,Strafford County Head Start,2019-07-01T07:00:00.000Z,2019-08-07T07:00:00.000Z,"M,T,W,TH,F","Field Trips: July 5,12,19,26 August 2 Closed July 4th",8:00,11:30,,,,"B,L",4,N,US,135600,,2019,Strafford
-70.88066352,43.25129446,60601,SYC Middle School,Open,"184 Maple Street Somersworth, NH 03878",,Somersworth,NH,3878,6032752074,,Maureen,Jackman,6034352500,Strafford County Head Start,2019-07-01T07:00:00.000Z,2019-08-07T07:00:00.000Z,"M,T,W,TH,F","Field Trips: July 5,12,18,26 August 2 Closed July 4th",8:30,12:00,,,,"B,L",4,N,US,21612,,2019,Strafford
-71.06243401,43.38758431,60602,"Valley View K-3, Farmington",Open,"356 Main Street Farmington, NH 03835",,Farmington,NH,3835,6034352500,,Jamie,Swan,6034352500,Strafford County Head Start,2019-07-08T07:00:00.000Z,2019-07-26T07:00:00.000Z,"M,T,W,TH,F",,8:00,11:30,,,,"B,L",4,N,US,92066,,2019,Strafford
-70.88427099,43.19013332,60603,Woodman Park School,Open,"11 Towle Ave Dover, NH 03820",,Dover,NH,3820,6035166708,,Lucinda,Shattuck,6034352500,Strafford County Head Start,2019-07-08T07:00:00.000Z,2019-08-08T07:00:00.000Z,"M,T,W,TH",,8:00,11:30,,,,"B,L",4,N,US,123755,,2019,Strafford
-70.97749005,43.31554755,64988,Rochester Rec Neighborhood Camp,Open,"150 Wakefield Street Rochester, NH 03867",,Rochester,NH,3867,6033324120,,Art,Jacobs,6033324120,6/24/2019,2019-06-24T04:00:00.000Z,2019-08-16T04:00:00.000Z,"M,T,W,TH,F","Field Trips: July 10,17,31 August 14 Closed July 4th",8:30 - 9:00,12:30-1:00,,,,"B,L",5,N,US,137587,,2019,Strafford
