long,lat,objectID,siteName,siteStatus,siteAddress,siteAddress2,siteCity,siteState,siteZip,sitePhone,ext,contactFirstName,contactLastName,contactPhone,sponsoringOrganization,startDate,endDate,daysofOperation,comments,breakfastTime,lunchTime,snackTimeAM,snackTimePM,dinnerSupperTime,mealTypesServed,cycleNumber,recordStatus,country,fnsid,created,season,county
-79.61723778,39.97423579,43661,FRANKLIN MEMORIAL UNITED METHODIST CHURCH,Open,"54 Bridge St. Dunbar, PA 15431",,Dunbar,PA,15431,7242774641,,Haley,Dally,7242774641,CONNELLSVILLE AREA SCHOOL DISTRICT,2019-06-24T04:00:00.000Z,2019-06-28T04:00:00.000Z,"M,T,W,TH,F",11:30AM - 12:00PM,,11:30AM - 12:00PM,,,,L,1,N,US,24722,,2019,Fayette
-79.65573892,40.04746139,43662,Phillip G Cochran Memorial UMC,Open,"210 Griscom St. Dawson, PA 15428",,Dawson,PA,15428,7245292925,,Karen,Martin,7245292925,CONNELLSVILLE AREA SCHOOL DISTRICT,2019-06-24T04:00:00.000Z,2019-08-02T04:00:00.000Z,"M,T,W,TH,F",12:00PM - 1:00PM,,12:00PM - 1:00PM,,,,L,1,N,US,119281,,2019,Fayette
-79.58689936,40.01698974,43663,Connellsville Community Center,Open,"201 East Fairview Ave. Connellsville, PA 15425",,Connellsville,PA,15425,7246261120,,Rita,Smith,7246261120,CONNELLSVILLE AREA SCHOOL DISTRICT,2019-06-24T04:00:00.000Z,2019-08-02T04:00:00.000Z,"M,T,W,TH,F",11:30AM - 1:00PM,,11:30AM - 1:00PM,,,,L,1,N,US,129328,,2019,Fayette
-79.9763953,39.88597617,43664,Wana B Park,Open,"355 Ceylon Road Carmichaels, PA 15320",,Carmichaels,PA,15320,7249665910,,Pam,Blaker,7249665910,CARMICHAELS AREA SCHOOL DISTRICT,2019-06-17T04:00:00.000Z,2019-07-26T04:00:00.000Z,"M,T,W,TH,F",12:00PM - 3:30PM,,12:00PM - 1:00PM,,3:00PM - 3:30PM,,"L,A",1,N,US,130331,,2019,Greene
-79.97439623,39.8973221,43665,Flenniken Library,Open,"102 East George Street Carmichaels, PA 15320",,Carmichaels,PA,15320,7249665263,,Nicole,Mitchell,7249665263,CARMICHAELS AREA SCHOOL DISTRICT,2019-06-10T04:00:00.000Z,2019-07-26T04:00:00.000Z,"M,T,W,TH,F",11:45AM - 3:15PM,,11:45AM - 12:45PM,,2:45PM - 3:15PM,,"L,A",1,N,US,43232,,2019,Greene
-79.97950481,39.89806002,43666,CARMICHAELS AREA MS,Open,"215 North Vine Street Carmichaels, PA 15320",,Carmichaels,PA,15320,7249665045,3112,Ryan,Krull,7249665045,CARMICHAELS AREA SCHOOL DISTRICT,2019-06-17T04:00:00.000Z,2019-07-26T04:00:00.000Z,"M,T,W,TH,F",10:30AM - 12:30PM,,10:30AM - 12:30PM,,,,L,1,N,US,41897,,2019,Greene
-80.12378829,39.90601185,43667,Eqt Rec Center,Open,"400 EverGreene Drive Waynesburg, PA 15370",,Waynesburg,PA,15370,7249849453,,Amy,Tustin,7249849453,CARMICHAELS AREA SCHOOL DISTRICT,2019-06-03T04:00:00.000Z,2019-07-26T04:00:00.000Z,"M,T,W,TH,F",11:30AM - 3:15PM,,11:30AM - 12:30PM,,2:30PM - 3:15PM,,"L,A",1,N,US,100440,,2019,Greene
-78.38298682,41.95477517,43668,OTTO-ELDRED ELEM,Open,"5 Bennett St Eldred, PA 16731",,Eldred,PA,16731,8148171391,,Chris,Krott,8148171391,OTTO-ELDRED SCHOOL DISTRICT,2019-06-10T04:00:00.000Z,2019-08-01T04:00:00.000Z,"M,T,W,TH",8:30AM - 12:15PM,8:30AM - 9:15AM,11:30AM - 12:15PM,,,,"B,L",1,N,US,6030,,2019,McKean
-79.98995396,41.95139597,43669,FORT LEBOEUF SHS,Open,"931 High Street WATERFORD, PA 16441",,WATERFORD,PA,16441,8147964795,,Justin,Tech,8147964795,FORT LEBOEUF SCHOOL DISTRICT,2019-06-10T04:00:00.000Z,2019-08-09T04:00:00.000Z,"M,T,W,TH,F",11:30AM - 12:30PM,,11:30AM - 12:30PM,,,,L,1,N,US,100493,,2019,Erie
-79.96535054,41.87682949,43670,MILL VILLAGE EL SCH,Open,"2757 E. Center Street Mill Village, PA 16427",,Mill Village,PA,16427,8147964795,,Justin,Tech,8147964795,FORT LEBOEUF SCHOOL DISTRICT,2019-06-10T04:00:00.000Z,2019-07-26T04:00:00.000Z,"M,T,W,TH,F",11:30AM - 12:30PM,,11:30AM - 12:30PM,,,,L,1,N,US,5694,,2019,Erie
-80.03662408,42.02829328,43671,Summit Township Picnicana Park Program,Open,"9150 Old French Road Waterford, PA 16441",,Waterford,PA,16441,8147964795,,Justin,Tech,8147964795,FORT LEBOEUF SCHOOL DISTRICT,2019-06-10T04:00:00.000Z,2019-07-26T04:00:00.000Z,"M,T,W,TH,F",12:30PM - 1:30PM,,12:30PM - 1:30PM,,,,L,1,N,US,130194,,2019,Erie
-78.49613905,41.92564571,43673,Rixford Evagelical Church,Open,"1112 Looker Mt Trail Rixford, PA 16745",,Rixford,PA,16745,8148171391,,Chris,Krott,8148171391,OTTO-ELDRED SCHOOL DISTRICT,2019-06-10T04:00:00.000Z,2019-08-01T04:00:00.000Z,"M,T,W,TH",11:00AM - 11:30AM,,11:00AM - 11:30AM,,,,L,1,N,US,6412,,2019,McKean
-78.53226637,41.95883338,43674,Duke Center School Lot,Open,"23 Main St Duke Center, PA 16729",,Duke Center,PA,16729,8148171391,,Chris,Krott,8148171391,OTTO-ELDRED SCHOOL DISTRICT,2019-06-10T04:00:00.000Z,2019-08-01T04:00:00.000Z,"M,T,W,TH",11:45AM - 12:15PM,,11:45AM - 12:15PM,,,,L,1,N,US,4164,,2019,McKean
-76.87499344,40.80528592,43675,SELINSGROVE INTRMD SCH,Open,"301 North Eighteenth Street Selinsgrove, PA 17870",,Selinsgrove,PA,17870,5703741144,2277,Linette,Varner,5703741144,SELINSGROVE AREA SCHOOL DISTRICT,2019-06-10T04:00:00.000Z,2019-08-01T04:00:00.000Z,"M,T,W,TH",9:00AM - 1:00PM,,12:00PM - 1:00PM,9:00AM - 9:45AM,,,"L,M",1,N,US,76739,,2019,Snyder
-77.58926521,39.75645185,43676,FAIRVIEW AVENUE EL SCH,Open,"220 Fairview Avenue Waynesboro, PA 17268",,Waynesboro,PA,17268,7177621191,1651,Ashley,Rock,7177621191,WAYNESBORO AREA SCHOOL DISTRICT,2019-06-03T04:00:00.000Z,2019-07-26T04:00:00.000Z,"M,T,W,TH,F",11:30AM - 12:15PM,,11:30AM - 12:15PM,,,,L,1,N,US,4337,,2019,Franklin
-77.56361473,39.74775013,43677,SUMMITVIEW EL SCH,Open,"840 East second Street Waynesboro, PA 17268",,Waynesboro,PA,17268,7177621191,1851,Rebecca,Poper,7177621191,WAYNESBORO AREA SCHOOL DISTRICT,2019-06-03T04:00:00.000Z,2019-07-26T04:00:00.000Z,"M,T,W,TH,F",11:30AM - 12:15PM,,11:30AM - 12:15PM,,,,L,1,N,US,74727,,2019,Franklin
-77.5760901,39.76297934,43678,Wallace Courts,Open,"125 Brown Street Waynesboro, PA 17268",,Waynesboro,PA,17268,7177621191,1171,Brenda,Gatten,7177621191,WAYNESBORO AREA SCHOOL DISTRICT,2019-06-03T04:00:00.000Z,2019-07-26T04:00:00.000Z,"M,T,W,TH,F",12:00PM - 12:30PM,,12:00PM - 12:30PM,,,,L,1,N,US,74861,,2019,Franklin
-77.56898813,39.75666272,43679,Valley View Village,Open,"Hawbaker Avenue Waynesboro, PA 17268",,Waynesboro,PA,17268,7177621191,1171,Lori,Smith,7177621191,WAYNESBORO AREA SCHOOL DISTRICT,2019-06-03T04:00:00.000Z,2019-07-26T04:00:00.000Z,"M,T,W,TH,F",12:00PM - 12:30PM,,12:00PM - 12:30PM,,,,L,1,N,US,74837,,2019,Franklin
-77.62584074,39.76895478,43680,Family Life Worship Center,Open,"4750 Buchanan Trail East Waynesboro, PA 17272",,Waynesboro,PA,17272,7177621191,1171,Ruth,Helman,7177621191,WAYNESBORO AREA SCHOOL DISTRICT,2019-06-03T04:00:00.000Z,2019-07-26T04:00:00.000Z,"M,T,W,TH,F",11:30AM - 12:15PM,,11:30AM - 12:15PM,,,,L,1,N,US,129437,,2019,Franklin
-78.52005479,40.96674551,43681,CURWENSVILLE AREA SCHOOL DISTRICT,Open,"650 Beech Street Curwensville, PA 16833",,Curwensville,PA,16833,8142361101,512,Paul,Carr,8142361101,CURWENSVILLE AREA SCHOOL DISTRICT,2019-06-10T04:00:00.000Z,2019-08-21T04:00:00.000Z,"M,T,W,TH,F",11:00AM - 1:00PM,,11:00AM - 1:00PM,,,,L,1,N,US,4013,,2019,Clearfield
-78.08895717,41.62644031,43682,AUSTIN AREA EL SCH,Open,"138 Costello Ave. Austin, PA 16720",,Austin,PA,16720,8146478603,150,Pam,Terrette,8146478603,AUSTIN AREA SCHOOL DISTRICT,2019-06-03T04:00:00.000Z,2019-06-28T04:00:00.000Z,"M,T,W,TH,F",11:30AM - 12:30PM,,11:30AM - 12:30PM,,,,L,1,N,US,49853,,2019,Potter
-76.76568211,39.96047898,43683,WEST YORK AREA JHS,Open,"1700 Bannister St York, PA 17404",,York,PA,17404,7178876467,,Scott,Rutkowski,7178876467,WEST YORK AREA SCHOOL DISTRICT,2019-06-17T04:00:00.000Z,2019-08-09T04:00:00.000Z,"M,T,W,TH",11:30AM - 12:30PM,,11:30AM - 12:30PM,,,,L,1,N,US,116816,,2019,York
-75.07699806,40.19368972,43739,Szymanek Park,Open,"200 E. Street Rd Warminster, PA 18974",,Warminster,PA,18974,2154416000,16045,Lisa,Saquella,2154416000,CENTENNIAL SCHOOL DISTRICT,2019-06-17T04:00:00.000Z,2019-08-23T04:00:00.000Z,"M,T,W,TH,F",12:00PM - 12:30PM,,12:00PM - 12:30PM,,,,L,1,N,US,74743,,2019,Bucks
-75.08582783,40.18777014,43740,Crooked Billet Park,Open,"25 Van Horn Drive Warminster, PA 18974",,Warminster,PA,18974,2154416000,16045,Lisa,Saquella,2154416000,CENTENNIAL SCHOOL DISTRICT,2019-06-17T04:00:00.000Z,2019-08-23T04:00:00.000Z,"M,T,W,TH,F",12:40PM - 1:10PM,,12:40PM - 1:10PM,,,,L,1,N,US,73503,,2019,Bucks
-75.09761833,40.20216995,43741,Maple Street Park,Open,"525 Maple Street Park Warminster, PA 18974",,Warminster,PA,18974,2154416000,16045,Lisa,Saquella,2154416000,CENTENNIAL SCHOOL DISTRICT,2019-06-17T04:00:00.000Z,2019-08-23T04:00:00.000Z,"M,T,W,TH,F",11:20AM - 11:50AM,,11:20AM - 11:50AM,,,,L,1,N,US,104373,,2019,Bucks
-76.30375533,40.02776416,43748,COMMUNTIY ACTION LANCASTER COUNTY,Open,"601 S Queen St Lancaster, PA 17603",,Lancaster,PA,17603,7179510542,,Jennifer,Overmoyer,7179510542,COMMUNITY ACTION LANCASTER COUNTY,2019-06-24T04:00:00.000Z,2019-08-02T04:00:00.000Z,"M,T,W,TH,F",11:00AM - 1:00PM,,11:00AM - 1:00PM,,,,L,1,N,US,57904,,2019,Lancaster
-75.10752485,39.99955274,43750,Kensington and Shiller,Open,"1800 E. Schiller Street Philadelphia, PA 19134",,Philadelphia,PA,19134,2154878429,,Shalonda,Purdy,2154878429,"ASSOCIATION OF CHILD DAYCARE PROVIDERS, INC",2019-06-05T04:00:00.000Z,2019-08-30T04:00:00.000Z,"S,M,T,W,TH,F",12:00PM - 4:00PM,,12:00PM - 1:30PM,,3:00PM - 4:00PM,,"L,A",1,N,US,100737,,2019,Philadelphia
-80.0320517,42.13393148,43751,"JOHN F. KENNEDY CENTER, INC.",Open,"2021 East 20th Street Erie, PA 16510",,Erie,PA,16510,8148980400,3029,Afrieeica,Woodard,8148980400,JOHN F KENNEDY CENTER INC,2019-06-17T04:00:00.000Z,2019-08-16T04:00:00.000Z,"M,T,W,TH,F",9:00AM - 1:00PM,9:00AM - 10:00AM,12:00PM - 1:00PM,,,,"B,L",1,N,US,5044,,2019,Erie
-76.87376331,41.1684672,43752,Project Coffeehouse of Clinton County,Open,"119 First St Montgomery, PA 17752",,Montgomery,PA,17752,5705476007,,Tina,Tickle,5705476007,Project Coffeehouse of Clinton County,2019-06-03T04:00:00.000Z,2019-07-25T04:00:00.000Z,"M,T,W,TH",9:00AM - 1:00PM,9:00AM - 10:00AM,12:00PM - 1:00PM,,,,"B,L",1,N,US,87940,,2019,Lycoming
-77.03515449,41.24137665,43753,ST PAUL CALVARY UNITED METHODIST CHURCH,Open,"1427 Memorial Ave Williamsport, PA 17701",,Williamsport,PA,17701,5705064567,,Jessica,Bennett,5705064567,ST PAUL CALVARY UNITED METHODIST CHURCH,2019-06-17T04:00:00.000Z,2019-08-15T04:00:00.000Z,"M,T,W,TH",9:30AM - 1:00PM,9:30AM - 10:00AM,12:30PM - 1:00PM,,,,"B,L",1,N,US,47460,,2019,Lycoming
-79.92480444,40.43449936,43754,HILLEL ACADEMY OF PITTSBURGH,Open,"5685 Beacon Street Pittsburgh, PA 15217",,Pittsburgh,PA,15217,4125218131,,Sarah,Hartman,4125218131,HILLEL ACADEMY OF PITTSBURGH,2019-06-24T04:00:00.000Z,2019-08-02T04:00:00.000Z,"M,T,W,TH,F",8:30AM - 1:00PM,8:30AM - 9:30AM,11:30AM - 1:00PM,,,,"B,L",1,N,US,4808,,2019,Allegheny
-74.84227475,40.15546054,43756,BUCKS COUNTY COUNTRY DAY SCHOOL,Open,"132 Appletree Dr Levittown, PA 19055",,Levittown,PA,19055,2155477227,,Randi,Hoffman,2155477227,BUCKS COUNTY COUNTRY DAY SCHOOL,2019-06-17T04:00:00.000Z,2019-08-09T04:00:00.000Z,"M,T,W,TH,F",9:30AM - 1:30PM,9:30AM - 10:30AM,12:30PM - 1:30PM,,,,"B,L",1,N,US,50350,,2019,Bucks
-79.68172246,41.62838271,43757,TITUSVILLE YMCA Round Two,Open,"528 W. Main St. Titusville, PA 16354",,Titusville,PA,16354,8147750357,,Megan,Kennedy,8147750357,TITUSVILLE YMCA,2019-06-10T04:00:00.000Z,2019-08-23T04:00:00.000Z,"M,T,W,TH,F",8:00AM - 1:15PM,8:00AM - 9:00AM,11:15AM - 1:15PM,,,,"B,L",1,N,US,7041,,2019,Crawford
-80.49694348,41.22257147,43758,New Light Missionary Baptist Church,Open,"753 CEDAR AVENUE SHARON, PA 16146",,SHARON,PA,16146,7249814525,,Gayle,Gunn,7249814525,NEW LIGHT MISSIONARY BAPTIST CHURCH,2019-06-10T04:00:00.000Z,2019-08-25T04:00:00.000Z,"S,M,T,W,TH,F,SA",12:00PM - 3:30PM,,12:00PM - 2:00PM,,3:00PM - 3:30PM,,"L,A",1,N,US,25002,,2019,Mercer
-76.45486884,40.99855729,43759,Memorial Elem. School,Open,"500 MARKET ST. Bloomsburg, PA 17815",,Bloomsburg,PA,17815,5702450090,351,Judy,DeFrain,5702450090,Family Health Council OF CENTRAL PENNSYLVANIA,2019-06-10T04:00:00.000Z,2019-08-09T04:00:00.000Z,"M,T,W,TH,F",8:30AM - 12:30PM,8:30AM - 9:00AM,11:30AM - 12:30PM,,,,"B,L",1,N,US,5640,,2019,Columbia
-76.45178182,40.99839307,43760,Bloomsburg YMCA,Open,"30 EAST 7TH ST. BLOOMSBURG, PA 17815",,BLOOMSBURG,PA,17815,5702450090,351,Ashley,Miccio,5702450090,Family Health Council OF CENTRAL PENNSYLVANIA,2019-06-10T04:00:00.000Z,2019-08-09T04:00:00.000Z,"M,T,W,TH,F",8:30AM - 4:00PM,8:30AM - 9:00AM,,,3:30PM - 4:00PM,,"B,A",1,N,US,3368,,2019,Columbia
-80.25221946,40.17829517,43764,7th Ward Playground,Open,"Shirls Ave Washington, PA 15301",,Washington,PA,15301,7245540575,,Suzanne,Kelly,7245540575,THE LEMOYNE COMMUNITY CENTER,2019-06-10T04:00:00.000Z,2019-08-16T04:00:00.000Z,"M,T,W,TH,F",11:30AM - 1:30PM,,11:30AM - 1:30PM,,,,L,1,N,US,63228,,2019,Washington
-80.06522633,40.10283821,43770,Cokeburg fire hall,Open,"171 Lincoln Street Cokeburg, PA 15324",,Cokeburg,PA,15324,7246784440,,Ann,Carpenter,7246784440,THE LEMOYNE COMMUNITY CENTER,2019-06-10T04:00:00.000Z,2019-08-16T04:00:00.000Z,"M,W,F",12:00PM - 1:00PM,,12:00PM - 1:00PM,,,,L,1,N,US,67754,,2019,Washington
-79.86716743,40.16646043,43771,Highland Terrace Community Room,Open,"220 Highland Terrace Donora, PA 15033",,Donora,PA,15033,4126067639,,Chantal,Bey,4126067639,THE LEMOYNE COMMUNITY CENTER,2019-06-10T04:00:00.000Z,2019-08-16T04:00:00.000Z,"M,T,W,TH,F",11:30AM - 1:30PM,,11:30AM - 1:30PM,,,,L,1,N,US,52385,,2019,Washington
-80.2455261,40.17101818,43773,Daisytown Community Center,Open,"3 Main Street Washington, PA 15301",,Washington,PA,15301,7245180596,,Sonya,Ellis,7245180596,THE LEMOYNE COMMUNITY CENTER,2019-06-10T04:00:00.000Z,2019-08-16T04:00:00.000Z,"M,T,W,TH,F",12:00PM - 4:00PM,,12:00PM - 1:00PM,,3:00PM - 4:00PM,,"L,A",1,N,US,98935,,2019,Washington
-80.25372283,40.19423915,43776,First Love Christian Academy,Open,"150 Sunset Blvd. Washington, PA 15301",,Washington,PA,15301,7242283547,,Kathleen,Miller,7242283547,THE LEMOYNE COMMUNITY CENTER,2019-06-10T04:00:00.000Z,2019-08-16T04:00:00.000Z,"M,T,W,TH,F",11:00AM - 12:00PM,,11:00AM - 12:00PM,,,,L,1,N,US,99424,,2019,Washington
-75.30243776,40.8263917,43779,Colonial Academy,Open,"1353 Jacobsburg Rd Wind Gap, PA 18091",,Wind Gap,PA,18091,6108635550,1714,Nick,Strebig,6108635550,COLONIAL IU 20,2019-07-09T04:00:00.000Z,2019-08-01T04:00:00.000Z,"T,W,TH",11:00AM - 12:00PM,,11:00AM - 12:00PM,,,,L,1,N,US,3865,,2019,Northampton
-76.79435679,40.88990898,43780,Priestley Forsythe Memorial Library,Open,"100 King Street Northumberland, PA 17857",,Northumberland,PA,17857,5704738201,,Kim,King,5704738201,GREATER SUSQUEHANNA VALLEY YMCA - MILTON BRANCH,2019-06-10T04:00:00.000Z,2019-09-06T04:00:00.000Z,"M,T,W,TH,F",11:00AM - 4:00PM,,11:00AM - 1:00PM,,3:00PM - 4:00PM,,"L,A",1,N,US,87935,,2019,Northumberland
-76.83612714,41.01669658,43792,Milton Area Extended School Year (ESY) Baugher Elementary,Open,"60 Rovenolt Drive Milton, PA 17847",,Milton,PA,17847,5702380803,,Sharon,Adami,5702380803,GREATER SUSQUEHANNA VALLEY YMCA - MILTON BRANCH,2019-06-10T04:00:00.000Z,2019-08-16T04:00:00.000Z,"M,T,W,TH,F",11:00AM - 1:00PM,,11:00AM - 1:00PM,,,,L,1,N,US,87279,,2019,Northumberland
-76.85389494,41.01999561,43795,Milton YMCA,Open,"12 Bound Ave. Milton, PA 17847",,Milton,PA,17847,5707427321,,Kellie,Bates,5707427321,GREATER SUSQUEHANNA VALLEY YMCA - MILTON BRANCH,2019-06-10T04:00:00.000Z,2019-08-16T04:00:00.000Z,"M,T,W,TH,F",8:30AM - 1:00PM,8:30AM - 9:30AM,12:00PM - 1:00PM,,,,"B,L",1,N,US,87281,,2019,Northumberland
-79.75136588,39.89409862,51911,LAUREL HIGHLANDS JHS,Open,"18-20 HOOKTON AVE UNIONTOWN, PA 15401",,UNIONTOWN,PA,15401,7244372821,1021,Eric,Gaydos,7244372821,LAUREL HIGHLANDS SCHOOL DISTRICT,2019-06-17T04:00:00.000Z,2019-07-12T04:00:00.000Z,"M,T,W,TH",7:30AM - 1:00PM,7:30AM - 8:15AM,11:45AM - 1:00PM,,,,"B,L",2,N,US,44753,,2019,Fayette
-79.50090647,41.03449287,51913,UNION HS,Open,"354 Baker St Rimersburg, PA 16248",,Rimersburg,PA,16248,8144733121,4,Kim,Radaker,8144733121,UNION SCHOOL DISTRICT,2019-06-10T04:00:00.000Z,2019-06-14T04:00:00.000Z,"M,T,W,TH,F",8:00AM - 12:15PM,8:00AM - 8:30AM,11:15AM - 12:15PM,,,,"B,L",2,N,US,7117,,2019,Clarion
-76.84359012,40.17976984,51916,CROSSROADS MS,Open,"535 Fishing Creek Lewisberry, PA 17339",,Lewisberry,PA,17339,7179321295,,Deb,Shaffer,7179321295,WEST SHORE SCHOOL DISTRICT,2019-06-17T04:00:00.000Z,2019-08-15T04:00:00.000Z,"M,T,W,TH",8:30AM - 12:30PM,8:30AM - 9:30AM,11:30AM - 12:30PM,,,,"B,L",2,N,US,100339,,2019,York
-79.50268254,41.03941345,51917,RIMERSBURG EL SCH,Open,"88 SCHOOL STREET RIMERSBURG, PA 16248",,RIMERSBURG,PA,16248,8144733989,,KIM,RADAKER,8144733989,UNION SCHOOL DISTRICT,2019-06-17T04:00:00.000Z,2019-07-19T04:00:00.000Z,"M,T,W,TH,F",8:30AM - 12:30PM,8:30AM - 9:00AM,11:30AM - 12:30PM,,,,"B,L",2,N,US,101190,,2019,Clarion
-79.60285575,40.1375776,51918,Southmoreland Primary Center,Open,"Box C Route 981 Alverton, PA 15612",,Alverton,PA,15612,7248872015,,Kelly,Smitley,7248872015,SOUTHMORELAND SCHOOL DISTRICT,2019-08-14T04:00:00.000Z,2019-08-16T04:00:00.000Z,"W,TH,F",11:00AM - 12:30PM,,11:00AM - 12:30PM,,,,L,2,N,US,6731,,2019,Westmoreland
-79.58865982,40.09103169,51919,Everson Playground,Open,"100 Jones Street (Everson Centennial Park) Everson, PA 15631",Everson Centennial Park,Everson,PA,15631,7248872015,,Debbie,Hennessey,7248872015,SOUTHMORELAND SCHOOL DISTRICT,2019-06-17T04:00:00.000Z,2019-07-31T04:00:00.000Z,"M,T,W,TH,F",11:15AM - 12:15PM,,11:15AM - 12:15PM,,,,L,2,N,US,4322,,2019,Fayette
-79.60120538,40.19027259,51921,Huntingdon Village Apts.,Open,"117 Huntingdon Village Drive Hunker, PA 15639",,Hunker,PA,15639,7248872015,,Sue,Snyder,7248872015,SOUTHMORELAND SCHOOL DISTRICT,2019-06-17T04:00:00.000Z,2019-07-31T04:00:00.000Z,"M,T,W,TH,F",12:00PM - 1:00PM,,12:00PM - 1:00PM,,,,L,2,N,US,4895,,2019,Westmoreland
-79.58723118,40.10602962,51922,Loucks Park,Open,"N. Chestnut Street Scottdale, PA 15683",,Scottdale,PA,15683,7248872015,,Kelly,Smitley,7248872015,SOUTHMORELAND SCHOOL DISTRICT,2019-06-17T04:00:00.000Z,2019-07-31T04:00:00.000Z,"M,T,W,TH,F",11:00AM - 12:00PM,,11:00AM - 12:00PM,,,,L,2,N,US,5418,,2019,Westmoreland
-79.58839451,40.10620185,51923,Southmoreland Elementary School,Open,"100 Scottie Way Scottdale, PA 15683",,Scottdale,PA,15683,7248872015,,Barb,Hensler,7248872015,SOUTHMORELAND SCHOOL DISTRICT,2019-07-08T04:00:00.000Z,2019-07-25T04:00:00.000Z,"M,T,W,TH",10:30AM - 10:45AM,,,10:30AM - 10:45AM,,,M,2,N,US,83773,,2019,Westmoreland
-76.9511382,40.21662172,51924,Allen Middle School,Open,"4225 Gettysburg Road Camp Hill, PA 17011",,Camp Hill,PA,17011,7179389577,,Deb,Shaffer,7179389577,WEST SHORE SCHOOL DISTRICT,2019-06-17T04:00:00.000Z,2019-08-15T04:00:00.000Z,"M,T,W,TH",8:45AM - 12:45PM,8:45AM - 9:45AM,11:45AM - 12:45PM,,,,"B,L",2,N,US,130887,,2019,Cumberland
-76.87441566,40.22753111,51925,Hillside Elementary School,Open,"516 Seventh Street New Cumberland, PA 17070",,New Cumberland,PA,17070,7179389577,,Deb,Shaffer,7179389577,WEST SHORE SCHOOL DISTRICT,2019-06-17T04:00:00.000Z,2019-08-15T04:00:00.000Z,"M,T,W,TH",8:15AM - 12:15PM,8:15AM - 9:15AM,11:15AM - 12:15PM,,,,"B,L",2,N,US,131440,,2019,Cumberland
-75.25590798,41.55972101,51927,HONESDALE HS,Open,"474 Grove Street Honesdale, PA 18431",,Honesdale,PA,18431,5702533050,,Tiffany,Tyler,5702533050,WAYNE HIGHLANDS SCHOOL DISTRICT,2019-06-24T04:00:00.000Z,2019-07-17T04:00:00.000Z,"M,T,W,TH,F",7:45AM - 11:45AM,7:45AM - 8:15AM,11:15AM - 11:45AM,,,,"B,L",2,N,US,52475,,2019,Wayne
-75.27017301,41.56044392,51928,LAKESIDE ELEMENTARY SCHOOL,Open,"129 Lakeside Drive Honesdale, PA 18431",,Honesdale,PA,18431,5702536083,5,Judy,Farrell,5702536083,WAYNE HIGHLANDS SCHOOL DISTRICT,2019-06-17T04:00:00.000Z,2019-08-06T04:00:00.000Z,"M,T,W,TH,F",7:45AM - 1:00PM,7:45AM - 8:45AM,11:45AM - 1:00PM,,,,"B,L",2,N,US,44686,,2019,Wayne
-75.26879554,41.56271319,51929,Stourbridge Early Intervention,Open,"123 ABC Drive Honesdale, PA 18431",,Honesdale,PA,18431,5702533010,4106,Gabrielle,Modugno,5702533010,WAYNE HIGHLANDS SCHOOL DISTRICT,2019-07-09T04:00:00.000Z,2019-08-01T04:00:00.000Z,"T,TH",9:00AM - 1:00PM,9:00AM - 9:30AM,12:30PM - 1:00PM,,,,"B,L",2,N,US,62909,,2019,Wayne
-75.25716415,41.57512042,51930,Cooperage,Open,"1030 Main Street Honesdale, PA 18431",,Honesdale,PA,18431,5702532020,,Ryanne,Jennings,5702532020,WAYNE HIGHLANDS SCHOOL DISTRICT,2019-06-17T04:00:00.000Z,2019-08-06T04:00:00.000Z,"M,T,W,TH,F",11:00AM - 1:00PM,,11:00AM - 1:00PM,,,,L,2,N,US,75563,,2019,Wayne
-78.42967925,41.02300773,51931,Salvation Army-Clearfield,Open,"119 Byers St. Clearfield, PA 16830",,Clearfield,PA,16830,8147655511,2700,Linda,Swatsworth,8147655511,CLEARFIELD AREA SCHOOL DISTRICT,2019-08-12T04:00:00.000Z,2019-08-16T04:00:00.000Z,"M,T,W,TH,F",12:00PM - 12:30PM,,12:00PM - 12:30PM,,,,L,2,N,US,105174,,2019,Clearfield
-79.88762551,41.33858219,51932,SENECA HILLS BIBLE CONFERENCE,Open,"276 Damascus Rd Polk, PA 16342",,Polk,PA,16342,8144323026,,Lindon,Fowler,8144323026,SENECA HILLS BIBLE CONFERENCE,2019-06-08T04:00:00.000Z,2019-08-26T04:00:00.000Z,"M,T,W,TH,F,SA",8:15AM - 1:15PM,8:15AM - 9:15AM,12:15PM - 1:15PM,,,,"B,L",2,N,US,79597,,2019,Venango
-79.88762551,41.33858219,51933,Seneca Hills Bible Conference 2,Open,"276 Damascus Rd Polk, PA 16342",,Polk,PA,16342,8144323026,,Amy,Wentzel,8144323026,SENECA HILLS BIBLE CONFERENCE,2019-06-09T04:00:00.000Z,2019-08-18T04:00:00.000Z,"S,M,T,W",6:30PM - 10:00PM,,,,9:00PM - 10:00PM,6:30PM - 7:30PM,"S,A",2,N,US,79598,,2019,Venango
-79.15018606,40.61122071,51934,Mack Park Pool Concessions stand,Open,"750 S. 6th St. Indiana, PA 15701",,Indiana,PA,15701,7248401181,0,Jen,Lynn,7248401181,YMCA OF INDIANA COUNTY,2019-06-06T04:00:00.000Z,2019-08-21T04:00:00.000Z,"M,T,W,TH,F",10:45AM - 12:00PM,,10:45AM - 12:00PM,,,,L,2,N,US,24910,,2019,Indiana
-79.1947729,40.62344648,51935,YMCA of Indiana County Day camp,Open,"60 N. Ben Franklin Rd. Indiana, PA 15701",,Indiana,PA,15701,7244639622,0,Bryant,Pinder,7244639622,YMCA OF INDIANA COUNTY,2019-06-10T04:00:00.000Z,2019-08-16T04:00:00.000Z,"M,T,W,TH,F",11:00AM - 11:30AM,,11:00AM - 11:30AM,,,,L,2,N,US,84466,,2019,Indiana
-79.13982837,40.63743367,51936,ALPHA,Open,"793 Old Route 119 Highway N Indiana, PA 15701",,Indiana,PA,15701,7244655576,10174,Courtney,Houser,7244655576,YMCA OF INDIANA COUNTY,2019-06-06T04:00:00.000Z,2019-08-21T04:00:00.000Z,"M,T,W,TH,F",11:30AM - 1:00PM,,11:30AM - 1:00PM,,,,L,2,N,US,80596,,2019,Indiana
-75.12835907,40.13817036,51937,Township of Abington,Open,"2595 Rubicam Avenue Willow Grove, PA 19090",,Willow Grove,PA,19090,2675361019,,Van,Strother,2675361019,Township of Abington,2019-06-19T04:00:00.000Z,2019-08-16T04:00:00.000Z,"M,T,W,TH,F",11:30AM - 12:30PM,,11:30AM - 12:30PM,,,,L,2,N,US,116633,,2019,Montgomery
-76.21087438,40.81883099,51939,Shenandoah Valley Elementary School,Open,"805 W. Centre St. Shenandoah, PA 17976",,Shenandoah,PA,17976,5704621950,,theresa,knipe,5704621950,SHENANDOAH VALLEY SCHOOL DISTRICT,2019-06-10T04:00:00.000Z,2019-08-16T04:00:00.000Z,"M,T,W,TH,F",11:00AM - 12:30PM,,11:00AM - 12:30PM,,,,L,2,N,US,6637,,2019,Schuylkill
-79.19173572,40.61700258,51940,Poets Village,Open,"500 Millay Circle Indiana, PA 15701",,Indiana,PA,15701,7244630862,0,Kelly,McCully,7244630862,YMCA OF INDIANA COUNTY,2019-06-12T04:00:00.000Z,2019-08-21T04:00:00.000Z,"W,TH",12:00PM - 1:00PM,,12:00PM - 1:00PM,,,,L,2,N,US,131863,,2019,Indiana
-76.53052315,40.0269614,51941,Wrightsville Presbyterian Church,Open,"205 North 2nd Street Wrightsville, PA 17368",,Wrightsville,PA,17368,7172521302,,Simeon,Harrar,7172521302,HANDS ACROSS THE STREET,2019-06-10T04:00:00.000Z,2019-08-16T04:00:00.000Z,"M,T,W,TH,F",11:00AM - 1:00PM,,11:00AM - 1:00PM,,,,L,2,N,US,132217,,2019,York
-76.4974222,40.0345777,51942,St. John's Lutheran Church,Open,"23 South Sixth Street Columbia, PA 17512",,Columbia,PA,17512,7174069427,,Terri,Golden,7174069427,HANDS ACROSS THE STREET,2019-06-04T04:00:00.000Z,2019-08-16T04:00:00.000Z,"M,T,W,TH,F",11:00AM - 1:00PM,,11:00AM - 1:00PM,,,,L,2,N,US,132013,,2019,Lancaster
-76.49239725,40.02491783,51945,Wagon Werks,Open,"920 Plane Street Columbia, PA 17512",,Columbia,PA,17512,7174132596,,Melody,Daughterty,7174132596,HANDS ACROSS THE STREET,2019-06-04T04:00:00.000Z,2019-08-16T04:00:00.000Z,"M,T,W,TH,F",11:00AM - 1:00PM,,11:00AM - 1:00PM,,,,L,2,N,US,7229,,2019,Lancaster
-79.15521707,40.6230513,51946,Indiana Free Library,Open,"845 Philadelphia St Indiana, PA 15701",,Indiana,PA,15701,7244658841,7,Kate,Geiger,7244658841,YMCA OF INDIANA COUNTY,2019-06-10T04:00:00.000Z,2019-08-02T04:00:00.000Z,"M,T,W,TH,F",11:30AM - 12:30PM,,11:30AM - 12:30PM,,,,L,2,N,US,131481,,2019,Indiana
-75.92491691,40.3786112,53053,Hyde Park Playground,Open,"120 Geroge Street Reading, PA 19605",,Reading,PA,19605,6109218000,3524,Carey,Kline,6109218000,MUHLENBERG SCHOOL DISTRICT,2019-06-17T04:00:00.000Z,2019-08-08T04:00:00.000Z,"M,T,W,TH",8:00AM - 1:00PM,8:00AM - 9:00AM,11:00AM - 1:00PM,,,,"B,L",2,U,US,118441,,2019,Berks
-75.91424006,40.39061952,53054,Laureldale Playground,Open,"3500 Block of Rosedale Ave. Laureldale, PA 19605",,Laureldale,PA,19605,6109218000,3524,Carey,Kline,6109218000,MUHLENBERG SCHOOL DISTRICT,2019-06-17T04:00:00.000Z,2019-08-08T04:00:00.000Z,"M,T,W,TH",8:00AM - 1:00PM,8:00AM - 9:00AM,11:00AM - 1:00PM,,,,"B,L",2,U,US,118678,,2019,Berks
-75.92252652,40.38830659,53055,MUHLENBERG SCHOOL DISTRICT,Open,"801 Bellevue Ave. Laureldale, PA 19605",,Laureldale,PA,19605,6109218000,1224,Carey,Kline,6109218000,MUHLENBERG SCHOOL DISTRICT,2019-06-17T04:00:00.000Z,2019-08-08T04:00:00.000Z,"M,T,W,TH",8:00AM - 1:00PM,8:00AM - 9:00AM,11:00AM - 1:00PM,,,,"B,L",2,U,US,82889,,2019,Berks
-75.9586144,40.39743335,53056,Stoudts Ferry Playground,Open,"804 Tuckerton Road Reading, PA 19605",,Reading,PA,19605,6109218000,1224,Carey,Kline,6109218000,MUHLENBERG SCHOOL DISTRICT,2019-06-17T04:00:00.000Z,2019-08-08T04:00:00.000Z,"M,T,W,TH",8:00AM - 1:00PM,8:00AM - 9:00AM,11:00AM - 1:00PM,,,,"B,L",2,U,US,119793,,2019,Berks
-78.83630015,40.4777212,54279,BLACKLICK VALLEY JSHS,Open,"555 Birch Street Nanty Glo, PA 15943",,Nanty Glo,PA,15943,8147499211,233,Daniel,Palko,8147499211,BLACKLICK VALLEY SCHOOL DISTRICT,2019-08-12T04:00:00.000Z,2019-08-16T04:00:00.000Z,"M,T,W,TH,F",11:00AM - 12:00PM,,11:00AM - 12:00PM,,,,L,3,N,US,80806,,2019,Cambria
-80.49112225,41.21209447,54280,Crossroads Home for Girls,Open,"1246 Roemer Blvd Farrell, PA 16121",,Farrell,PA,16121,7249774345,,Patrice,Wise,7249774345,FARRELL AREA SCHOOL DISTRICT,2019-06-10T04:00:00.000Z,2019-08-09T04:00:00.000Z,"M,T,W,TH,F",8:30AM - 12:30PM,8:30AM - 9:00AM,11:30AM - 12:30PM,,,,"B,L",3,N,US,77802,,2019,Mercer
-80.48597522,41.21220164,54281,Farrell Area High Scool,Open,"1600 Roemer Blvd Farrell, PA 16121",,Farrell,PA,16121,7245091266,,Joseph,Tuchek,7245091266,FARRELL AREA SCHOOL DISTRICT,2019-06-10T04:00:00.000Z,2019-08-09T04:00:00.000Z,"M,T,W,TH,F",8:30AM - 12:30PM,8:30AM - 9:30AM,11:30AM - 12:30PM,,,,"B,L",3,N,US,78082,,2019,Mercer
-75.97704172,40.94980729,54284,Beech Street Playground,Open,"27 West Beech Street Hazleton, PA 18201",,Hazleton,PA,18201,5704593111,3131,Mary Theresa,Kott,5704593111,HAZLETON AREA SCHOOL DISTRICT,2019-06-24T04:00:00.000Z,2019-08-15T04:00:00.000Z,"M,T,W,TH",11:15AM - 12:30PM,,11:15AM - 12:30PM,,,,L,3,N,US,41325,,2019,Luzerne
-75.982068,40.975101,54285,Hazleton Garden Apartments,Open,"24th & Alter Streets Hazleton, PA 18202",,Hazleton,PA,18202,5704593111,3178,Melissa,Panzarella,5704593111,HAZLETON AREA SCHOOL DISTRICT,2019-06-24T04:00:00.000Z,2019-08-15T04:00:00.000Z,"M,T,W,TH,F",11:00AM - 12:15PM,,11:00AM - 12:15PM,,,,L,3,N,US,43867,,2019,Luzerne
-75.146085,39.972807,54287,CRUZ RECREATION CENTER,Open,"6th & Master St. Philadelphia, PA 19121",,Philadelphia,PA,19121,2156852759,,Alfredo,Betahcourt,2156852759,PHILA DEPT RECREATION,2019-07-01T04:00:00.000Z,2019-08-09T04:00:00.000Z,"M,T,W,TH,F",9:00AM - 2:00PM,9:00AM - 10:00AM,12:00PM - 2:00PM,,,,"B,L",3,N,US,51109,,2019,Philadelphia
-75.16625796,39.96840798,54288,FRANCISVILLE RECREATION CENTER,Open,"1737 Francis St. Philadelphia, PA 19130",,Philadelphia,PA,19130,2156852762,,Joseph,Pospiech,2156852762,PHILA DEPT RECREATION,2019-06-17T04:00:00.000Z,2019-08-09T04:00:00.000Z,"M,T,W,TH,F",9:00AM - 2:00PM,9:00AM - 10:00AM,12:00PM - 2:00PM,,,,"B,L",3,N,US,58270,,2019,Philadelphia
-75.16797116,39.99361795,54289,C.B. MOORE RECREATION CENTER,Open,"2551 N. 22nd St. Philadelphia, PA 19132",,Philadelphia,PA,19132,2156859755,,Samuel,Owens,2156859755,PHILA DEPT RECREATION,2019-06-17T04:00:00.000Z,2019-08-09T04:00:00.000Z,"M,T,W,TH,F",9:00AM - 2:00PM,9:00AM - 10:00AM,12:00PM - 2:00PM,,,,"B,L",3,N,US,41760,,2019,Philadelphia
-75.1513887,39.97574223,54291,DENDY RECREATION CENTER,Open,"1555 N. 10th St. (10th & Oxford St.) Philadelphia, PA 19122",10th & Oxford St.,Philadelphia,PA,19122,2156852763,,David,Ganley,2156852763,PHILA DEPT RECREATION,2019-06-17T04:00:00.000Z,2019-08-09T04:00:00.000Z,"M,T,W,TH,F",9:00AM - 2:15PM,9:00AM - 10:00AM,12:15PM - 2:15PM,,,,"B,L",3,N,US,51202,,2019,Philadelphia
-75.17819775,39.91574582,54293,BARRY PLAYGROUND,Open,"2840 S. 18th St. Philadelphia, PA 19145",,Philadelphia,PA,19145,2156851886,,Anthony,Spadaccini,2156851886,PHILA DEPT RECREATION,2019-06-17T04:00:00.000Z,2019-08-09T04:00:00.000Z,"M,T,W,TH,F",9:00AM - 2:00PM,9:00AM - 10:00AM,12:00PM - 2:00PM,,,,"B,L",3,N,US,41251,,2019,Philadelphia
-75.11869131,39.97898792,54295,CIONE PLAYGROUND,Open,"2600 Aramingo Ave. Philadelphia, PA 19125",,Philadelphia,PA,19125,2156859880,,Dan,Walsh,2156859880,PHILA DEPT RECREATION,2019-06-17T04:00:00.000Z,2019-08-16T04:00:00.000Z,"M,T,W,TH,F",8:30AM - 3:00PM,8:30AM - 9:30AM,,,2:00PM - 3:00PM,,"B,A",3,N,US,50795,,2019,Philadelphia
-75.10127926,39.98673953,54297,FRANK GLAVIN PLAYGROUND,Open,"2600 E. Westmoreland St. Philadelphia, PA 19134",,Philadelphia,PA,19134,2156859898,,Jeff,Wimsey,2156859898,PHILA DEPT RECREATION,2019-07-01T04:00:00.000Z,2019-08-15T04:00:00.000Z,"M,T,W,TH,F",9:00AM - 3:45PM,9:00AM - 10:00AM,,,2:45PM - 3:45PM,,"B,A",3,N,US,51834,,2019,Philadelphia
-75.10535772,40.0144328,54298,FERKO PLAYGROUND,Open,"1101 E. Cayuga St. Philadelphia, PA 19124",,Philadelphia,PA,19124,2156851224,,Kelsey,Kelsey,2156851224,PHILA DEPT RECREATION,2019-06-17T04:00:00.000Z,2019-08-23T04:00:00.000Z,"M,T,W,TH,F",9:00AM - 2:30PM,9:00AM - 10:00AM,12:30PM - 2:30PM,,,,"B,L",3,N,US,51663,,2019,Philadelphia
-74.97093638,40.09643002,54299,Fitzpatrick Playground,Open,"12501 Torrey Rd. Philadelphia, PA 19154",,Philadelphia,PA,19154,2156859395,,Lisa,lenke,2156859395,PHILA DEPT RECREATION,2019-06-17T04:00:00.000Z,2019-08-09T04:00:00.000Z,"M,T,W,TH,F",9:00AM - 2:00PM,9:00AM - 10:00AM,12:00PM - 2:00PM,,,,"B,L",3,N,US,51736,,2019,Philadelphia
-75.08266658,40.07459966,54302,FOX CHASE RECREATION CENTER,Open,"7901 Ridgeway St. Philadephia, PA 19111",,Philadephia,PA,19111,2156850575,,Jennifer,Cole,2156850575,PHILA DEPT RECREATION,2019-06-17T04:00:00.000Z,2019-08-08T04:00:00.000Z,"M,T,W,TH,F",9:00AM - 2:00PM,9:00AM - 10:00AM,12:00PM - 2:00PM,,,,"B,L",3,N,US,51820,,2019,Philadelphia
-75.16398496,39.9336427,54304,COLUMBUS SQUARE PLAYGROUND,Open,"1200 Wharton ST. Philadelphia, PA 19147",,Philadelphia,PA,19147,2156851890,,Jessica,Mazzone,2156851890,PHILA DEPT RECREATION,2019-07-01T04:00:00.000Z,2019-08-09T04:00:00.000Z,"M,T,W,TH,F",9:00AM - 2:30PM,9:00AM - 10:00AM,,,1:30PM - 2:30PM,,"B,A",3,N,US,50942,,2019,Philadelphia
-80.094654,42.114339,54305,YMCA Columbus Park,Open,"West 16th Street & Poplar Street Erie, PA 16502",,Erie,PA,16502,8142409928,,Jennifer,Sikora,8142409928,NORTHWEST TRI COUNTY IU 5,2019-06-12T04:00:00.000Z,2019-08-09T04:00:00.000Z,"M,T,W,TH,F",11:30AM - 3:00PM,,11:30AM - 12:00PM,,2:30PM - 3:00PM,,"L,A",3,N,US,7527,,2019,Erie
-80.5026015,41.213565,54333,Greater Mount Zion Community Center,Open,"Spearman and Federal Farrell, PA 16121",,Farrell,PA,16121,3304026595,,Fannie,Scott,3304026595,FARRELL AREA SCHOOL DISTRICT,2019-07-29T04:00:00.000Z,2019-08-02T04:00:00.000Z,"M,T,W,TH,F",11:30AM - 12:30PM,,11:30AM - 12:30PM,,,,L,3,N,US,78292,,2019,Mercer
-80.49112225,41.21209447,54334,Crossroads Home for Boys,Open,"1246 Roemer Blvd Farrell, PA 16121",,Farrell,PA,16121,7246851555,,Lamont,Samuels,7246851555,FARRELL AREA SCHOOL DISTRICT,2019-06-10T04:00:00.000Z,2019-08-09T04:00:00.000Z,"M,T,W,TH,F",8:00AM - 12:30PM,8:00AM - 8:30AM,11:30AM - 12:30PM,,,,"B,L",3,N,US,77801,,2019,Mercer
-78.82392719,40.23035252,54336,WINDBER AREA HS,Open,"2301 GRAHAM AVENUE WINDBER, PA 15963",,WINDBER,PA,15963,8144674567,806,Karen,Kiss,8144674567,WINDBER AREA SCHOOL DISTRICT,2019-06-17T04:00:00.000Z,2019-08-01T04:00:00.000Z,"M,T,W,TH",11:00AM - 12:30PM,,11:00AM - 12:30PM,,,,L,3,N,US,120188,,2019,Somerset
-80.47889514,41.20930495,54337,Success By Six,Open,"1901 MEMORIAL DR FARRELL, PA 16121",,FARRELL,PA,16121,7245091266,,Joseph,Tuchek,7245091266,FARRELL AREA SCHOOL DISTRICT,2019-06-10T04:00:00.000Z,2019-07-18T04:00:00.000Z,"M,T,W,TH",8:30AM - 12:30PM,8:30AM - 9:00AM,11:30AM - 12:30PM,,,,"B,L",3,N,US,133277,,2019,Mercer
-80.16157818,40.51159656,54338,CORNELL SD,Open,"1099 Maple Street Coraopolis, PA 15108",,Coraopolis,PA,15108,4122645010,101,Michelle,Weaver,4122645010,CORNELL SCHOOL DISTRICT,2019-06-11T04:00:00.000Z,2019-08-23T04:00:00.000Z,"M,T,W,TH,F",8:00AM - 12:00PM,8:00AM - 9:00AM,11:00AM - 12:00PM,,,,"B,L",3,N,US,42399,,2019,Allegheny
-75.99374368,40.97181369,54339,HAZLETON AREA CAREER CENTER,Open,"1451 W. 23rd Street Hazle Township, PA 18202",,Hazle Township,PA,18202,5702330198,,Ross,Graham,5702330198,HAZLETON AREA SCHOOL DISTRICT,2019-07-02T04:00:00.000Z,2019-08-08T04:00:00.000Z,"T,W,TH",11:00AM - 12:00PM,,11:00AM - 12:00PM,,,,L,3,N,US,98982,,2019,Luzerne
-76.07235361,40.98724082,54340,VALLEY EL/MS,Open,"79 Rock Glen Road Sugarloaf, PA 18249",,Sugarloaf,PA,18249,5704593111,26534,Karen,Barron,5704593111,HAZLETON AREA SCHOOL DISTRICT,2019-06-24T04:00:00.000Z,2019-08-15T04:00:00.000Z,"M,T,W,TH",8:00AM - 12:00PM,8:00AM - 8:30AM,11:30AM - 12:00PM,,,,"B,L",3,N,US,48138,,2019,Luzerne
-76.00161492,41.01549514,54344,Butler Township Recreation Center,Open,"415 West Butler Drive Drums, PA 18222",,Drums,PA,18222,5704593111,3131,Mary,Streit,5704593111,HAZLETON AREA SCHOOL DISTRICT,2019-06-24T04:00:00.000Z,2019-08-01T04:00:00.000Z,"M,T,W,TH",11:15AM - 12:15PM,,11:15AM - 12:15PM,,,,L,3,N,US,41750,,2019,Luzerne
-75.98299585,40.96616551,54345,James Street Playground,Open,"765 N James Street Hazleton, PA 18201",,Hazleton,PA,18201,5705785106,,Judy,Krouse,5705785106,HAZLETON AREA SCHOOL DISTRICT,2019-06-24T04:00:00.000Z,2019-08-15T04:00:00.000Z,"M,T,W,TH",11:15AM - 12:30PM,,11:15AM - 12:30PM,,,,L,3,N,US,44298,,2019,Luzerne
-76.05919173,40.992701,54346,Whispering Willows Park,Open,"326 Main Street (Main St & Sugarloaf Ave) Conyngham, PA 18219",Main St & Sugarloaf Ave,Conyngham,PA,18219,5704593111,3131,Rena,Bicking,5704593111,HAZLETON AREA SCHOOL DISTRICT,2019-06-24T04:00:00.000Z,2019-08-01T04:00:00.000Z,"M,T,W,TH",11:00AM - 12:15PM,,11:00AM - 12:15PM,,,,L,3,N,US,48506,,2019,Luzerne
-76.18685216,40.96985599,54347,Rock Glen Park,Open,"1318 Park Street Rock Glen, PA 18246",,Rock Glen,PA,18246,5703483206,,Bonnie,Adams,5703483206,HAZLETON AREA SCHOOL DISTRICT,2019-06-24T04:00:00.000Z,2019-08-15T04:00:00.000Z,"M,T,W,TH",11:30AM - 12:30PM,,11:30AM - 12:30PM,,,,L,3,N,US,46835,,2019,Luzerne
-75.89729397,41.02587,54348,Freeland Village Apartments,Open,"61 Evancho Circle Freeland, PA 18224",,Freeland,PA,18224,5705820624,,Sheila,Scott,5705820624,HAZLETON AREA SCHOOL DISTRICT,2019-06-24T04:00:00.000Z,2019-08-15T04:00:00.000Z,"M,T,W,TH",11:30AM - 12:30PM,,11:30AM - 12:30PM,,,,L,3,N,US,43356,,2019,Luzerne
-75.97404083,40.960165,54349,Columbus Park,Open,"145 W. Diamond Avenue Hazleton, PA 18201",,Hazleton,PA,18201,5704010268,,Audrey,Umbriac,5704010268,HAZLETON AREA SCHOOL DISTRICT,2019-06-24T04:00:00.000Z,2019-08-15T04:00:00.000Z,"M,T,W,TH",11:00AM - 12:30PM,,11:00AM - 12:30PM,,,,L,3,N,US,42315,,2019,Luzerne
-75.97802264,40.95281481,54350,Hazleton YMCA & YWCA,Open,"75 S Church Street Hazleton, PA 18201",,Hazleton,PA,18201,5703572379,,Joanne,Gabriel,5703572379,HAZLETON AREA SCHOOL DISTRICT,2019-06-24T04:00:00.000Z,2019-08-15T04:00:00.000Z,"M,T,W,TH,F",11:00AM - 4:15PM,,11:00AM - 12:00PM,,3:15PM - 4:15PM,,"L,A",3,N,US,98983,,2019,Luzerne
-79.59111191,40.13797494,54352,SOUTHMORELAND SHS,Open,"2351 Route 981 Box A Alverton, PA 15612",,Alverton,PA,15612,7248872015,,Deanna,Sirgey,7248872015,SOUTHMORELAND SCHOOL DISTRICT,2019-07-22T04:00:00.000Z,2019-08-02T04:00:00.000Z,"M,T,W,TH,F",8:05AM - 12:15PM,8:05AM - 8:35AM,11:30AM - 12:15PM,,,,"B,L",3,N,US,6732,,2019,Westmoreland
-76.83111971,39.97123919,54354,LEIB EL SCH,Open,"2925 OAKLAND ROAD DOVER, PA 17315",,DOVER,PA,17315,7172923671,80204,Helen,Heidler,7172923671,DOVER AREA SCHOOL DISTRICT,2019-06-03T04:00:00.000Z,2019-08-01T04:00:00.000Z,"M,T,W,TH",9:00AM - 12:30PM,9:00AM - 9:30AM,12:00PM - 12:30PM,,,,"B,L",3,N,US,132952,,2019,York
-75.89568944,41.01837515,54357,Freeland Park,Open,"600 Front Street Freeland, PA 18224",,Freeland,PA,18224,5704593111,3178,Lisa,Smith,5704593111,HAZLETON AREA SCHOOL DISTRICT,2019-06-24T04:00:00.000Z,2019-08-15T04:00:00.000Z,"M,T,W,TH,F",11:30AM - 12:30PM,,11:30AM - 12:30PM,,,,L,3,N,US,43355,,2019,Luzerne
-79.83002292,42.21906148,54361,North East Elementary Center,Open,"50 East Division Street North East, PA 16428",,North East,PA,16428,8144407401,,Brian,Emick,8144407401,NORTHWEST TRI COUNTY IU 5,2019-06-10T04:00:00.000Z,2019-08-02T04:00:00.000Z,"M,T,W,TH,F",8:30AM - 12:30PM,8:30AM - 9:00AM,11:45AM - 12:30PM,,,,"B,L",3,N,US,5891,,2019,Erie
-79.64311504,41.91942699,54362,Corry Community Center,Open,"15 South First Avenue Corry, PA 16407",,Corry,PA,16407,8146650871,,Keri,Fink,8146650871,NORTHWEST TRI COUNTY IU 5,2019-06-10T04:00:00.000Z,2019-08-02T04:00:00.000Z,"M,T,W,TH,F",9:00AM - 1:00PM,9:00AM - 9:30AM,12:30PM - 1:00PM,,,,"B,L",3,N,US,3950,,2019,Erie
-80.1011025,42.12846,54364,YMCA Bayview Park,Open,"West 2nd & Cherry Street Erie, PA 16502",,Erie,PA,16502,8142409928,,Jennifer,Sikora,8142409928,NORTHWEST TRI COUNTY IU 5,2019-06-12T04:00:00.000Z,2019-08-09T04:00:00.000Z,"M,T,W,TH,F",11:30AM - 3:00PM,,11:30AM - 12:00PM,,2:30PM - 3:00PM,,"L,A",3,N,US,7523,,2019,Erie
-80.0541225,42.124257,54365,YMCA McKinley Park,Open,"East 21st Street & East Avenue Erie, PA 16503",,Erie,PA,16503,8142409928,,Jennifer,Sikora,8142409928,NORTHWEST TRI COUNTY IU 5,2019-06-12T04:00:00.000Z,2019-08-09T04:00:00.000Z,"M,T,W,TH,F",11:30AM - 3:00PM,,11:30AM - 12:00PM,,2:30PM - 3:00PM,,"L,A",3,N,US,7536,,2019,Erie
-80.08339649,42.13381953,54366,YMCA Nate Levy Park,Open,"200 East 3rd St Erie, PA 16507",,Erie,PA,16507,8142409928,,Jennifer,Sikora,8142409928,NORTHWEST TRI COUNTY IU 5,2019-06-12T04:00:00.000Z,2019-08-09T04:00:00.000Z,"M,T,W,TH,F",11:30AM - 3:00PM,,11:30AM - 12:00PM,,2:30PM - 3:00PM,,"L,A",3,N,US,48761,,2019,Erie
-75.25051827,40.68142634,54368,EASTON AREA HS,Open,"2601 William Penn Highway Easton, PA 18045",,Easton,PA,18045,6102502481,13000,Jim,Prokrivsak,6102502481,EASTON AREA SCHOOL DISTRICT,2019-06-17T04:00:00.000Z,2019-08-15T04:00:00.000Z,"M,T,W,TH",11:00AM - 12:00PM,,11:00AM - 12:00PM,,,,L,3,N,US,122821,,2019,Northampton
-75.21781847,40.67637641,54369,CHESTON EL SCH,Open,"723 Coal St Easton, PA 18042",,Easton,PA,18042,6102502542,,Kyle,Yanders,6102502542,EASTON AREA SCHOOL DISTRICT,2019-06-17T04:00:00.000Z,2019-08-15T04:00:00.000Z,"M,T,W,TH",11:30AM - 12:30PM,,11:30AM - 12:30PM,,,,L,3,N,US,50727,,2019,Northampton
-75.20447815,40.70856939,54370,PAXINOSA EL SCH,Open,"Paxinosa EL Sch (1221 Northampton St) Easton, PA 18042",1221 Northampton St,Easton,PA,18042,6102538271,,Garrett,Oswald,6102538271,EASTON AREA SCHOOL DISTRICT,2019-06-17T04:00:00.000Z,2019-08-15T04:00:00.000Z,"M,T,W,TH",11:30AM - 12:30PM,,11:30AM - 12:30PM,,,,L,3,N,US,119251,,2019,Northampton
-75.20477998,40.67967917,54371,Boys & Girls Club of Easton,Open,"210 Jones Houston Way (Old 508 Charles St) Easton, PA 18042",Old 508 Charles St,Easton,PA,18042,6102526983,,G Dean,Young,6102526983,EASTON AREA SCHOOL DISTRICT,2019-06-17T04:00:00.000Z,2019-08-23T04:00:00.000Z,"M,T,W,TH,F",9:00AM - 1:00PM,9:00AM - 10:00AM,12:00PM - 1:00PM,,,,"B,L",3,N,US,50169,,2019,Northampton
-75.22784374,40.67379461,54372,Heil Pool,Open,"900 Packer St Easton, PA 18042",,Easton,PA,18042,6102586158,,Sarah,Wassel,6102586158,EASTON AREA SCHOOL DISTRICT,2019-06-17T04:00:00.000Z,2019-08-16T04:00:00.000Z,"M,T,W,TH,F",11:30AM - 12:30PM,,11:30AM - 12:30PM,,,,L,3,N,US,118325,,2019,Northampton
-75.2261715,40.688892,54373,Centennial Park Weed & Seed of Easton,Open,"12th & Ferry Sts Easton, PA 18042",,Easton,PA,18042,6102586158,409,Sarah,Wassel,6102586158,EASTON AREA SCHOOL DISTRICT,2019-06-17T04:00:00.000Z,2019-08-16T04:00:00.000Z,"M,T,W,TH,F",11:30AM - 12:30PM,,11:30AM - 12:30PM,,,,L,3,N,US,132550,,2019,Northampton
-75.97915946,40.97881341,54374,Community Park,Open,"101 West 27th St Hazle Township, PA 18202",,Hazle Township,PA,18202,5704593111,3131,Terri,Gliem,5704593111,HAZLETON AREA SCHOOL DISTRICT,2019-06-24T04:00:00.000Z,2019-08-15T04:00:00.000Z,"M,T,W,TH",11:45AM - 12:30PM,,11:45AM - 12:30PM,,,,L,3,N,US,132609,,2019,Luzerne
-79.21975078,40.44926108,54375,BLAIRSVILLE SHS,Open,"100 School Lane Blairsville, PA 15717",,Blairsville,PA,15717,7244595500,2114,Lisa,Baron,7244595500,BLAIRSVILLE-SALTSBURG SCHOOL DISTRICT,2019-06-10T04:00:00.000Z,2019-07-18T04:00:00.000Z,"M,T,W,TH",8:45AM - 12:30PM,8:45AM - 9:30AM,11:45AM - 12:30PM,,,,"B,L",3,N,US,132482,,2019,Indiana
-79.44894194,40.49069099,54376,SALTSBURG JSHS,Open,"84 Trojan Lane Saltsburg, PA 15681",,Saltsburg,PA,15681,7246393547,5610,Cheryl,Wagner,7246393547,BLAIRSVILLE-SALTSBURG SCHOOL DISTRICT,2019-06-10T04:00:00.000Z,2019-07-18T04:00:00.000Z,"M,T,W,TH",8:45AM - 12:30PM,8:45AM - 9:30AM,11:45AM - 12:30PM,,,,"B,L",3,N,US,133205,,2019,Indiana
-76.96701947,41.25999509,54378,Loyalsock Township High School,Open,"1801 Loyalsock Drive Williamsport, PA 17701",,Williamsport,PA,17701,5703233211,,Beth,Hufnagel,5703233211,LOYALSOCK TOWNSHIP SCHOOL DISTRICT,2019-06-24T04:00:00.000Z,2019-07-26T04:00:00.000Z,"M,T,W,TH,F",11:00AM - 12:30PM,,11:00AM - 12:30PM,,,,L,3,N,US,132977,,2019,Lycoming
-75.226455,40.692411,54380,Vanderveer Park,Open,"12th & Spring Garden Sts Easton, PA 18042",,Easton,PA,18042,6102506158,409,Sarah,Wassel,6102506158,EASTON AREA SCHOOL DISTRICT,2019-06-17T04:00:00.000Z,2019-08-16T04:00:00.000Z,"M,T,W,TH,F",12:00PM - 12:30PM,,12:00PM - 12:30PM,,,,L,3,N,US,133342,,2019,Northampton
-76.0000837,41.01098115,54381,DRUMS EL/MS SCH,Open,"85 S. Old Turnpike Road Drums, PA 18222",,Drums,PA,18222,5702338766,,Dawn,Friet,5702338766,HAZLETON AREA SCHOOL DISTRICT,2019-06-24T04:00:00.000Z,2019-08-14T04:00:00.000Z,"M,T,W",9:00AM - 12:45PM,9:00AM - 9:45AM,12:15PM - 12:45PM,,,,"B,L",3,N,US,42725,,2019,Luzerne
-80.03817,42.110928,54384,YMCA Burton Park,Open,"East 40th Street & Burton Avenue Erie, PA 16504",,Erie,PA,16504,8142409928,,Jennifer,Sikora,8142409928,NORTHWEST TRI COUNTY IU 5,2019-06-12T04:00:00.000Z,2019-08-09T04:00:00.000Z,"M,T,W,TH,F",11:30AM - 3:30PM,,11:30AM - 12:00PM,,2:30PM - 3:30PM,,"L,A",3,N,US,101623,,2019,Erie
-80.054964,42.135678,54385,YMCA Pulaski Park,Open,"East 10th Street and Hess Avenue Erie, PA 16503",,Erie,PA,16503,8142409928,,Jennifer,Sikora,8142409928,NORTHWEST TRI COUNTY IU 5,2019-06-12T04:00:00.000Z,2019-08-09T04:00:00.000Z,"M,T,W,TH,F",11:30AM - 3:00PM,,11:30AM - 12:00PM,,2:30PM - 3:00PM,,"L,A",3,N,US,7538,,2019,Erie
-80.35294516,41.88980319,54386,Northwestern Elementary School,Open,"100 Harthan Way Albion, PA 16401",,Albion,PA,16401,8147569400,2262,Kristen,Rutkowski,8147569400,NORTHWEST TRI COUNTY IU 5,2019-07-08T04:00:00.000Z,2019-07-25T04:00:00.000Z,"M,T,W,TH",8:30AM - 12:30PM,8:30AM - 9:00AM,12:00PM - 12:30PM,,,,"B,L",3,N,US,101031,,2019,Erie
-80.11971025,42.11666586,54388,YMCA Frontier Park,Open,"1501 West 6th Street Erie, PA 16502",,Erie,PA,16502,8142409928,,Jennifer,Sikora,8142409928,NORTHWEST TRI COUNTY IU 5,2019-06-12T04:00:00.000Z,2019-08-09T04:00:00.000Z,"M,T,W,TH,F",11:30AM - 3:00PM,,11:30AM - 12:00PM,,2:30PM - 3:00PM,,"L,A",3,N,US,101625,,2019,Erie
-80.03156327,42.13505157,54392,Quality of Life Learning Center,Open,"2046 East 19th St. Erie, PA 16510",,Erie,PA,16510,8148993904,,Veronica,Wexford,8148993904,NORTHWEST TRI COUNTY IU 5,2019-07-08T04:00:00.000Z,2019-08-09T04:00:00.000Z,"M,T,W,TH,F",11:30AM - 3:30PM,,11:30AM - 12:00PM,,3:15PM - 3:30PM,,"L,A",3,N,US,123443,,2019,Erie
-80.10600289,42.10176091,54393,YMCA Agnes Priscara Apts. Park Program,Open,"1424 Washington Ave (Apt. # 2404) Erie, PA 16502",Apt. # 2404,Erie,PA,16502,8147460605,,Stephanie,Milhisler,8147460605,NORTHWEST TRI COUNTY IU 5,2019-06-10T04:00:00.000Z,2019-08-09T04:00:00.000Z,"M,T,W,TH,F",11:30AM - 5:30PM,,11:30AM - 12:30PM,,5:00PM - 5:30PM,,"L,A",3,N,US,133408,,2019,Erie
-79.62587286,41.91939853,54396,Corry Area Middle School,Open,"534 East Pleasant Street Corry, PA 16407",,Corry,PA,16407,8144624453,3202,Bill,West,8144624453,NORTHWEST TRI COUNTY IU 5,2019-07-09T04:00:00.000Z,2019-08-08T04:00:00.000Z,"T,W,TH",7:30AM - 12:30PM,7:30AM - 8:00AM,12:00PM - 12:30PM,,,,"B,L",3,N,US,3949,,2019,Erie
-80.08067483,42.1200843,54397,Persus House Charter School,Open,"1511 Peach Street Erie, PA 16501",,Erie,PA,16501,8144805914,,Mike,Williamson,8144805914,NORTHWEST TRI COUNTY IU 5,2019-07-08T04:00:00.000Z,2019-07-30T04:00:00.000Z,"M,T,W,TH",8:45AM - 9:05AM,8:45AM - 9:05AM,,,,,B,3,N,US,6135,,2019,Erie
-80.0788848,42.12244483,54399,Perseus House - Site #2,Open,"1309 French Street Erie, PA 16501",,Erie,PA,16501,8146519089,,David,Morris,8146519089,NORTHWEST TRI COUNTY IU 5,2019-07-08T04:00:00.000Z,2019-07-30T04:00:00.000Z,"M,T,W,TH",8:30AM - 9:00AM,8:30AM - 9:00AM,,,,,B,3,N,US,6134,,2019,Erie
-80.14612122,41.64793472,54400,Camp EMS - Allegheny College,Open,"520 North Main Street Meadville, PA 16335",,Meadville,PA,16335,8145040921,,James,Kifer,8145040921,NORTHWEST TRI COUNTY IU 5,2019-06-24T04:00:00.000Z,2019-06-28T04:00:00.000Z,"M,T,W,TH,F",8:15AM - 1:00PM,8:15AM - 9:00AM,12:00PM - 1:00PM,,,,"B,L",3,N,US,3591,,2019,Crawford
-80.13980193,42.08407813,54402,MONTESSORI REGIONAL CHARTER SCHOOL,Open,"2910 Sterrettania Rd Erie, PA 16506",,Erie,PA,16506,8148387771,,Angelia,Brown,8148387771,NORTHWEST TRI COUNTY IU 5,2019-06-10T04:00:00.000Z,2019-08-09T04:00:00.000Z,"M,T,W,TH,F",8:00AM - 12:30PM,8:00AM - 8:30AM,12:00PM - 12:30PM,,,,"B,L",3,N,US,45575,,2019,Erie
-80.06534069,42.14099324,54403,Barber National Institute - Erie,Open,"136 East Avenue Erie, PA 16507",,Erie,PA,16507,8148784026,,Kathleen,Bastow,8148784026,NORTHWEST TRI COUNTY IU 5,2019-06-24T04:00:00.000Z,2019-08-09T04:00:00.000Z,"M,T,W,TH,F",8:45AM - 1:00PM,8:45AM - 9:30AM,11:45AM - 1:00PM,,,,"B,L",3,N,US,77301,,2019,Erie
-80.07192891,42.1298365,54404,Church of God Galations 5.1,Open,"926 Wallace Street Erie, PA 16503",,Erie,PA,16503,8148600705,,Steve,Simmelkjaer,8148600705,NORTHWEST TRI COUNTY IU 5,2019-06-10T04:00:00.000Z,2019-08-09T04:00:00.000Z,"M,T,W,TH,F",11:30AM - 3:30PM,,11:30AM - 12:30PM,,2:30PM - 3:30PM,,"L,A",3,N,US,3793,,2019,Erie
-80.10337278,42.12333249,54407,YMCA Gridley Park,Open,"816 Park Ave Erie, PA 16502",,Erie,PA,16502,8142409928,,Jennifer,Sikora,8142409928,NORTHWEST TRI COUNTY IU 5,2019-06-12T04:00:00.000Z,2019-08-09T04:00:00.000Z,"M,T,W,TH,F",11:30AM - 3:00PM,,11:30AM - 12:00PM,,2:30PM - 3:00PM,,"L,A",3,N,US,48759,,2019,Erie
-80.05215031,42.11464019,54408,Safe Harbor UPMC CSBBH Program,Open,"831 East 31st Erie, PA 16502",,Erie,PA,16502,8146165450,,Cassandra,Rhodes,8146165450,NORTHWEST TRI COUNTY IU 5,2019-07-08T04:00:00.000Z,2019-08-01T04:00:00.000Z,"T,W,TH",9:00AM - 12:30PM,9:00AM - 9:30AM,12:00PM - 12:30PM,,,,"B,L",3,N,US,101238,,2019,Erie
-80.16514266,41.72046526,54409,Saegertown High School,Open,"18079 Mook Rd Saegertown, PA 16433",,Saegertown,PA,16433,8143371626,,Patti,Fiely,8143371626,NORTHWEST TRI COUNTY IU 5,2019-06-25T04:00:00.000Z,2019-08-01T04:00:00.000Z,"T,TH",7:45AM - 11:00AM,7:45AM - 8:30AM,,10:45AM - 11:00AM,,,"B,M",3,N,US,123507,,2019,Crawford
-76.36934718,39.94950713,54412,Camp Craig T. Hogan,Open,"350 Creek Road Millersville, PA 17551",,Millersville,PA,17551,7172953474,3401,David,Wendel,7172953474,BOYS AND GIRLS CLUB OF LANCASTER INC,2019-06-17T04:00:00.000Z,2019-07-26T04:00:00.000Z,"M,T,W,TH,F",9:00AM - 1:00PM,9:00AM - 9:45AM,12:00PM - 1:00PM,,,,"B,L",3,N,US,3589,,2019,Lancaster
-76.31064477,40.04399185,54413,Jack Walker Clubhouse,Open,"229 W. Lemon Street Lancaster, PA 17603",,Lancaster,PA,17603,7172953474,3201,Christina,Ortega,7172953474,BOYS AND GIRLS CLUB OF LANCASTER INC,2019-06-12T04:00:00.000Z,2019-08-22T04:00:00.000Z,"M,T,W,TH",4:30PM - 5:30PM,,,,,4:30PM - 5:30PM,S,3,N,US,4964,,2019,Lancaster
-76.30818323,40.03572664,54414,Hill Clubhouse,Open,"116 S. Water Street Lancaster, PA 17602",,Lancaster,PA,17602,7172953474,,Ray,Smith-Chant,7172953474,BOYS AND GIRLS CLUB OF LANCASTER INC,2019-06-12T04:00:00.000Z,2019-08-22T04:00:00.000Z,"M,T,W,TH",4:30PM - 5:30PM,,,,,4:30PM - 5:30PM,S,3,N,US,4799,,2019,Lancaster
-76.50308459,40.03149956,54415,Columbia Clubhouse,Open,"248 Locust Street Columbia, PA 17512",,Columbia,PA,17512,7172953474,3301,Yahya,McIntyre,7172953474,BOYS AND GIRLS CLUB OF LANCASTER INC,2019-06-04T04:00:00.000Z,2019-08-15T04:00:00.000Z,"M,T,W,TH",4:30PM - 5:30PM,,,,,4:30PM - 5:30PM,S,3,N,US,3872,,2019,Lancaster
-76.29772978,40.03264553,54417,Southeast Clubhouse,Open,"335 Dauphin Street Lancaster, PA 17603",,Lancaster,PA,17603,7172953474,3402,Kendra,Kinard,7172953474,BOYS AND GIRLS CLUB OF LANCASTER INC,2019-06-12T04:00:00.000Z,2019-08-22T04:00:00.000Z,"M,T,W,TH",4:30PM - 5:30PM,,,,,4:30PM - 5:30PM,S,3,N,US,133240,,2019,Lancaster
-80.15162136,41.63178699,54420,Elm Street,Open,"1222 Chula Court Meadville, PA 16335",,Meadville,PA,16335,8143363177,,Barb,Houserman,8143363177,NORTHWEST TRI COUNTY IU 5,2019-06-10T04:00:00.000Z,2019-08-09T04:00:00.000Z,"M,T,W,TH,F",11:00AM - 2:30PM,,11:00AM - 12:00PM,,2:00PM - 2:30PM,,"L,A",3,N,US,4283,,2019,Crawford
-74.97369215,40.0799406,54424,CHALFONT PLAYGROUND,Open,"4330-34 Deerpath Lane Philadelphia, PA 19154",,Philadelphia,PA,19154,2156859398,,Christine,Reilly,2156859398,PHILA DEPT RECREATION,2019-06-17T04:00:00.000Z,2019-08-08T04:00:00.000Z,"M,T,W,TH,F",9:00AM - 1:00PM,9:00AM - 10:00AM,,,12:00PM - 1:00PM,,"B,A",3,N,US,42054,,2019,Philadelphia
-75.13724917,40.03746578,54425,CHERASHORE PLAYGROUND,Open,"951 W. Olney Ave Philadelphia, PA 19141",,Philadelphia,PA,19141,2156852987,,Elliott,Hughes,2156852987,PHILA DEPT RECREATION,2019-06-17T04:00:00.000Z,2019-08-09T04:00:00.000Z,"M,T,W,TH,F",9:30AM - 3:00PM,9:30AM - 10:30AM,1:00PM - 3:00PM,,,,"B,L",3,N,US,98217,,2019,Philadelphia
-75.248784,39.908808,54430,CIBOTTI RECREATION CENTER,Open,"77th & Elmwood Philadelphia, PA 19153",,Philadelphia,PA,19153,2156854194,,Brian,Mango,2156854194,PHILA DEPT RECREATION,2019-07-01T04:00:00.000Z,2019-08-09T04:00:00.000Z,"M,T,W,TH,F",9:30AM - 3:00PM,9:30AM - 10:30AM,1:00PM - 3:00PM,,,,"B,L",3,N,US,50792,,2019,Philadelphia
-75.2325,39.9918625,54432,"YOU, ME AND WEE CHILD CARE LEARNING CTR.",Open,"5337 Wynnefield St. (woodbine Academy Bldg.) Philadelphia, PA 19131",woodbine Academy Bldg.,Philadelphia,PA,19131,2158787932,,Jacqueline,Whitfield,2158787932,PHILA DEPT RECREATION,2019-06-10T04:00:00.000Z,2019-08-23T04:00:00.000Z,"M,T,W,TH,F",11:30AM - 3:30PM,,11:30AM - 1:30PM,,2:30PM - 3:30PM,,"L,A",3,N,US,56937,,2019,Philadelphia
-75.17082073,40.06467087,54436,Finley Recreation Center,Open,"1000 Horter St. Philadelphia, PA 19150",,Philadelphia,PA,19150,2156852890,,Flethcer,Anderson,2156852890,PHILA DEPT RECREATION,2019-06-17T04:00:00.000Z,2019-08-09T04:00:00.000Z,"M,T,W,TH,F",9:00AM - 2:00PM,9:00AM - 10:00AM,12:00PM - 2:00PM,,,,"B,L",3,N,US,122877,,2019,Philadelphia
-75.14399849,39.99149649,54437,DORADO VILLAGE,Open,"2633 N. 7 St. (2642 N. Marshall St.) Philadelphia, PA 19133",2642 N. Marshall St.,Philadelphia,PA,19133,2152253511,,Dietra,McBride,2152253511,PHILA DEPT RECREATION,2019-06-10T04:00:00.000Z,2019-08-30T04:00:00.000Z,"M,T,W,TH,F",9:00AM - 2:00PM,9:00AM - 10:00AM,12:00PM - 2:00PM,,,,"B,L",3,N,US,51296,,2019,Philadelphia
-75.16343489,39.93864962,54438,HAWTHORNE RECREATION CENTER,Open,"1200 Carpenter St. Philadelphia, PA 19147",,Philadelphia,PA,19147,2156851848,,Sharon,Gordon,2156851848,PHILA DEPT RECREATION,2019-06-17T04:00:00.000Z,2019-08-09T04:00:00.000Z,"M,T,W,TH,F",8:30AM - 2:15PM,8:30AM - 9:30AM,12:15PM - 2:15PM,,,,"B,L",3,N,US,52291,,2019,Philadelphia
-75.11301992,39.98430036,54439,COHOCKSINK RECREATION CENTER,Open,"2901 Cedar St. Philadelphia, PA 19134",,Philadelphia,PA,19134,2156859884,,Lauren,Hunt,2156859884,PHILA DEPT RECREATION,2019-06-17T04:00:00.000Z,2019-08-09T04:00:00.000Z,"M,T,W,TH,F",9:00AM - 2:00PM,9:00AM - 10:00AM,12:00PM - 2:00PM,,,,"B,L",3,N,US,50902,,2019,Philadelphia
-75.17024963,39.92938595,54440,DISILVESTRO PLAYGROUND,Open,"1701 S. 15th St. Philadelphia, PA 19145",,Philadelphia,PA,19145,2156851598,,Brett,Bessler,2156851598,PHILA DEPT RECREATION,2019-06-17T04:00:00.000Z,2019-08-09T04:00:00.000Z,"M,T,W,TH,F",9:00AM - 2:00PM,9:00AM - 10:00AM,12:00PM - 2:00PM,,,,"B,L",3,N,US,98239,,2019,Philadelphia
-75.14724447,39.9830717,54444,8TH & DIAMOND PLAYGROUND,Open,"2032 N. 8th St. Philadelphia, PA 19121",,Philadelphia,PA,19121,2156852761,,Dana,Clark,2156852761,PHILA DEPT RECREATION,2019-06-17T04:00:00.000Z,2019-08-09T04:00:00.000Z,"M,T,W,TH,F",12:00PM - 4:00PM,,12:00PM - 2:00PM,,3:00PM - 4:00PM,,"L,A",3,N,US,63231,,2019,Philadelphia
-75.13698566,39.97221846,54445,HANCOCK RECREATION CENTER,Open,"147 W. Master St. Philadelphia, PA 19134",,Philadelphia,PA,19134,2156859886,,jonathan,rocks,2156859886,PHILA DEPT RECREATION,2019-07-01T04:00:00.000Z,2019-08-09T04:00:00.000Z,"M,T,W,TH,F",9:00AM - 2:00PM,9:00AM - 10:00AM,12:00PM - 2:00PM,,,,"B,L",3,N,US,52222,,2019,Philadelphia
-75.17430778,39.93782621,54446,CHEW PLAYGROUND,Open,"1833 ELLSWORTH AVE Philadelphia, PA 19146",,Philadelphia,PA,19146,2156856596,,Gerard,Walsh,2156856596,PHILA DEPT RECREATION,2019-06-17T04:00:00.000Z,2019-08-09T04:00:00.000Z,"M,T,W,TH,F",9:00AM - 2:00PM,9:00AM - 10:00AM,12:00PM - 2:00PM,,,,"B,L",3,N,US,50728,,2019,Philadelphia
-75.15096448,39.96616054,54447,EAST POPLAR PLAYGROUND,Open,"800-82 N. 8th St. Philadelphia, PA 19123",,Philadelphia,PA,19123,2156861786,,Tyrone,Gross,2156861786,PHILA DEPT RECREATION,2019-07-01T04:00:00.000Z,2019-08-09T04:00:00.000Z,"M,T,W,TH,F",9:00AM - 2:00PM,9:00AM - 10:00AM,12:00PM - 2:00PM,,,,"B,L",3,N,US,51407,,2019,Philadelphia
-75.22733641,39.93467478,54450,F.J. MYERS RECREATION CENTER,Open,"5801 Kingsessing Ave. Philadelphia, PA 19143",,Philadelphia,PA,19143,2156852693,,Natalie,Reddick,2156852693,PHILA DEPT RECREATION,2019-06-17T04:00:00.000Z,2019-08-16T04:00:00.000Z,"M,T,W,TH,F",9:00AM - 2:00PM,9:00AM - 10:00AM,12:00PM - 2:00PM,,,,"B,L",3,N,US,51581,,2019,Philadelphia
-75.12731901,39.97162646,54451,FISHTOWN RECREATION CENTER,Open,"1202 E. Montgomery Ave. Philadelphia, PA 19125",,Philadelphia,PA,19125,2156859885,,Eric,Rudy,2156859885,PHILA DEPT RECREATION,2019-06-17T04:00:00.000Z,2019-08-22T04:00:00.000Z,"M,T,W,TH,F",9:15AM - 2:15PM,9:15AM - 10:15AM,12:15PM - 2:15PM,,,,"B,L",3,N,US,51726,,2019,Philadelphia
-75.14149552,40.00949545,54453,Eighth St Community Church,Open,"3760 N. 8th St Philadelphia, PA 19140",,Philadelphia,PA,19140,2159397406,,Giles,Williams,2159397406,PHILA DEPT RECREATION,2019-06-10T04:00:00.000Z,2019-08-30T04:00:00.000Z,"M,T,W,TH,F",8:10AM - 2:30PM,8:10AM - 9:10AM,12:30PM - 2:30PM,,,,"B,L",3,N,US,51482,,2019,Philadelphia
-75.24683332,39.98602387,54457,Grace and Style Dance,Open,"6211 Woodbine Ave. Philadelphia, PA 19151",,Philadelphia,PA,19151,2154772277,,Donielle,Turner,2154772277,PHILA DEPT RECREATION,2019-07-08T04:00:00.000Z,2019-08-16T04:00:00.000Z,"M,T,W,TH,F",9:00AM - 2:00PM,9:00AM - 10:00AM,12:00PM - 2:00PM,,,,"B,L",3,N,US,52065,,2019,Philadelphia
-75.14422539,39.98510295,54458,Children's Mission Inc.,Open,"2200 Germantown Ave Philadelphia, PA 19133",,Philadelphia,PA,19133,9105082340,,Melanie,Debouse,9105082340,PHILA DEPT RECREATION,2019-06-24T04:00:00.000Z,2019-08-08T04:00:00.000Z,"M,T,W,TH,F",12:00PM - 4:00PM,,12:00PM - 2:00PM,,3:00PM - 4:00PM,,"L,A",3,N,US,98929,,2019,Philadelphia
-75.22462884,39.96145261,54459,Anti-Drug Alcohol Crusades Inc.,Open,"50-52 N 52nd St. Philadelphia, PA 19139",,Philadelphia,PA,19139,2157488727,,Michael,Hargust,2157488727,PHILA DEPT RECREATION,2019-07-01T04:00:00.000Z,2019-08-09T04:00:00.000Z,"M,T,W,TH,F",8:00AM - 1:30PM,8:00AM - 9:00AM,11:30AM - 1:30PM,,,,"B,L",3,N,US,41026,,2019,Philadelphia
-75.22586103,39.93951725,54461,Dominion Abundant Power Baptist Church of Christ,Open,"5511 Springfield Ave Philadelphia, PA 19143",,Philadelphia,PA,19143,2157291424,,Dawn,Presberry,2157291424,PHILA DEPT RECREATION,2019-06-10T04:00:00.000Z,2019-08-29T04:00:00.000Z,"M,T,W,TH,F",12:00PM - 4:00PM,,12:00PM - 2:00PM,,3:00PM - 4:00PM,,"L,A",3,N,US,61530,,2019,Philadelphia
-75.15669703,40.00658239,54462,"Hero, Inc.",Open,"3439 N 17th St philadelphia, PA 19140",,philadelphia,PA,19140,2152235881,,doris,Phillips,2152235881,PHILA DEPT RECREATION,2019-07-08T04:00:00.000Z,2019-08-16T04:00:00.000Z,"M,T,W,TH,F",9:00AM - 2:00PM,9:00AM - 10:00AM,12:00PM - 2:00PM,,,,"B,L",3,N,US,115106,,2019,Philadelphia
-75.23195,39.93856218,54465,Freedom Worship Center,Open,"1620 S. 58th St Philadelphia, PA 19143",,Philadelphia,PA,19143,2673423069,,Archie,Kamara,2673423069,PHILA DEPT RECREATION,2019-06-24T04:00:00.000Z,2019-08-02T04:00:00.000Z,"M,T,W,TH,F",11:00AM - 3:00PM,,11:00AM - 1:00PM,,2:00PM - 3:00PM,,"L,A",3,N,US,98260,,2019,Philadelphia
-75.51358315,40.40051185,54466,THE OPEN LINK,Open,"1070 Church Road East Greenville, PA 18041",,East Greenville,PA,18041,6109723542,,Mary,Young,6109723542,THE OPEN LINK,2019-06-17T04:00:00.000Z,2019-08-08T04:00:00.000Z,"M,T,W,TH",11:30AM - 1:00PM,,11:30AM - 1:00PM,,,,L,3,N,US,119898,,2019,Montgomery
-75.556305,40.45112666,54467,Hereford Township Park,Open,"3613 Seisholtzville Road Hereford, PA 18056",,Hereford,PA,18056,2152602142,,Brooke,Harvey,2152602142,THE OPEN LINK,2019-06-17T04:00:00.000Z,2019-08-08T04:00:00.000Z,"M,T,W,TH",11:30AM - 1:00PM,,11:30AM - 1:00PM,,,,L,3,N,US,52342,,2019,Berks
-79.83511013,40.3807598,54468,CADA PROGRAMS,Open,"2901 Maryland Ave N. Versailles, PA 15137",,N. Versailles,PA,15137,4128292711,,Janis C,Brooks,4128292711,Children and Adults Developmental Agency Programs Inc,2019-06-10T04:00:00.000Z,2019-08-16T04:00:00.000Z,"M,T,W,TH,F",8:00AM - 1:00PM,8:00AM - 9:00AM,12:00PM - 1:00PM,,,,"B,L",3,N,US,90116,,2019,Allegheny
-80.3343289,41.00202997,54471,Bible Way Church of God in Christ,Open,"125 N. Crawford Ave. New Castle, PA 16101",,New Castle,PA,16101,7246984106,,Paulette,Wright,7246984106,LAWRENCE COUNTY COMMUNITY ACTION PARTNERSHIP,2019-06-11T04:00:00.000Z,2019-08-15T04:00:00.000Z,"T,TH",12:30PM - 1:30PM,,12:30PM - 1:30PM,,,,L,3,N,US,3328,,2019,Lawrence
-80.32251913,40.9988522,54472,Third Presbyterian Church,Open,"1139 Pin Oak Drive New Castle, PA 16101",,New Castle,PA,16101,7246586683,,Cheryl,Norris,7246586683,LAWRENCE COUNTY COMMUNITY ACTION PARTNERSHIP,2019-06-10T04:00:00.000Z,2019-08-16T04:00:00.000Z,"M,T,W,TH,F",11:30AM - 12:30PM,,11:30AM - 12:30PM,,,,L,3,N,US,7015,,2019,Lawrence
-80.33619218,41.00420078,54473,Neshannock Village,Open,"481 Neshannock Ave. New Castle, PA 16101",,New Castle,PA,16101,7246750954,,Kris,Fronius,7246750954,LAWRENCE COUNTY COMMUNITY ACTION PARTNERSHIP,2019-06-10T04:00:00.000Z,2019-08-16T04:00:00.000Z,"M,T,W,TH,F",12:00PM - 1:00PM,,12:00PM - 1:00PM,,,,L,3,N,US,5833,,2019,Lawrence
-80.34672037,40.98574463,54474,Big Run,Open,"1300 S. Jefferson Street New Castle, PA 16101",,New Castle,PA,16101,7246515080,,Ernestine,Wise,7246515080,LAWRENCE COUNTY COMMUNITY ACTION PARTNERSHIP,2019-06-10T04:00:00.000Z,2019-08-16T04:00:00.000Z,"M,T,W,TH,F",11:00AM - 12:00PM,,11:00AM - 12:00PM,,,,L,3,N,US,3333,,2019,Lawrence
-80.37275479,40.97400076,54477,Church of Genesis,Open,"303 N. Cedar St. New Castle, PA 16101",,New Castle,PA,16101,7246540889,,Ron,Eade,7246540889,LAWRENCE COUNTY COMMUNITY ACTION PARTNERSHIP,2019-06-10T04:00:00.000Z,2019-08-16T04:00:00.000Z,"M,W,F",11:30AM - 12:30PM,,11:30AM - 12:30PM,,,,L,3,N,US,3791,,2019,Lawrence
-80.32817891,41.0068477,54478,Croton United Methodist,Open,"910 N. Croton Ave. New Castle, PA 16101",,New Castle,PA,16101,7246588856,,Sally,Vernon,7246588856,LAWRENCE COUNTY COMMUNITY ACTION PARTNERSHIP,2019-06-11T04:00:00.000Z,2019-08-15T04:00:00.000Z,"T,TH",11:30AM - 12:30PM,,11:30AM - 12:30PM,,,,L,3,N,US,4000,,2019,Lawrence
-80.36645361,41.00886615,54479,Harbor Heights,Open,"720 Altman Rd. New Castle, PA 16101",,New Castle,PA,16101,8143355045,,William,LaVelle Jr.,8143355045,LAWRENCE COUNTY COMMUNITY ACTION PARTNERSHIP,2019-06-10T04:00:00.000Z,2019-08-16T04:00:00.000Z,"M,T,W,TH,F",12:00PM - 1:00PM,,12:00PM - 1:00PM,,,,L,3,N,US,4682,,2019,Lawrence
-80.36557902,40.99748405,54485,Wesley United Methodist Church,Open,"1204 W. Washington St. New Castle, PA 16101",,New Castle,PA,16101,7246586891,,Carol,Surrena,7246586891,LAWRENCE COUNTY COMMUNITY ACTION PARTNERSHIP,2019-06-10T04:00:00.000Z,2019-08-16T04:00:00.000Z,"M,T,W,TH,F",11:30AM - 12:30PM,,11:30AM - 12:30PM,,,,L,3,N,US,105702,,2019,Lawrence
-79.8745267,40.43785959,54490,OPENING DOORS FOR YOUTH AND FAMILIES,Open,"1256 Franklin Ave Pittsburgh, PA 15221",,Pittsburgh,PA,15221,4125400355,,Michael,Johnson,4125400355,WILKINSBURG COMMUNITY MINISTRY,2019-06-17T04:00:00.000Z,2019-08-09T04:00:00.000Z,"M,T,W,TH,F",9:00AM - 12:30PM,9:00AM - 9:30AM,12:00PM - 12:30PM,,,,"B,L",3,N,US,133108,,2019,Allegheny
-80.30193145,40.99243181,54492,LCARC Summer Camp,Open,"1745 Frew Mill Rd. New Castle, PA 16101",,New Castle,PA,16101,7246588515,,Daniel,Goclano,7246588515,LAWRENCE COUNTY COMMUNITY ACTION PARTNERSHIP,2019-06-17T04:00:00.000Z,2019-07-26T04:00:00.000Z,"M,T,W,TH,F",12:00PM - 1:00PM,,12:00PM - 1:00PM,,,,L,3,N,US,132946,,2019,Lawrence
-75.04915477,40.02135322,54493,Dorsey Day Camp,Open,"4800 Hellerman St. Philadelphia, PA 19149",,Philadelphia,PA,19149,2156858734,,Margaret,Kelley,2156858734,PHILA DEPT RECREATION,2019-06-17T04:00:00.000Z,2019-08-09T04:00:00.000Z,"M,T,W,TH,F",9:30AM - 3:00PM,9:30AM - 10:30AM,1:00PM - 3:00PM,,,,"B,L",3,N,US,132655,,2019,Philadelphia
-79.96831189,40.44648843,54494,Warren United Methodist Church,Open,"2606 Centre Ave. Pittsburgh, PA 15219",,Pittsburgh,PA,15219,4127366679,,Diane,Walker,4127366679,UNITED METHODIST CHURCH UNION,2019-06-12T04:00:00.000Z,2019-08-08T04:00:00.000Z,"M,W,TH",12:00PM - 1:00PM,,12:00PM - 1:00PM,,,,L,3,N,US,74867,,2019,Allegheny
-80.05809732,40.45429227,54495,Sheraden United Methodist Church,Open,"2966 Chartiers Ave. Pittsburgh, PA 15204",,Pittsburgh,PA,15204,4128746242,,Colleen,Lane,4128746242,UNITED METHODIST CHURCH UNION,2019-06-12T04:00:00.000Z,2019-08-09T04:00:00.000Z,"M,W,F",12:00PM - 1:00PM,,12:00PM - 1:00PM,,,,L,3,N,US,74621,,2019,Allegheny
-80.0412483,40.44301148,54496,Emanuel United Methodist Church,Open,"856 Crucible St. Pittsburgh, PA 15220",,Pittsburgh,PA,15220,4122155846,,Marcus,Blackwell,4122155846,UNITED METHODIST CHURCH UNION,2019-06-12T04:00:00.000Z,2019-08-09T04:00:00.000Z,"M,T,W,TH,F",12:00PM - 1:00PM,,12:00PM - 1:00PM,,,,L,3,N,US,73605,,2019,Allegheny
-79.89832833,40.31004675,54498,Pine Run United Methodist Church,Open,"901 N 6th St. Clairton, PA 15025",,Clairton,PA,15025,4129014543,,Pat,Crum,4129014543,UNITED METHODIST CHURCH UNION,2019-06-10T04:00:00.000Z,2019-08-09T04:00:00.000Z,"M,T,W,TH,F",12:00PM - 1:00PM,,12:00PM - 1:00PM,,,,L,3,N,US,112566,,2019,Allegheny
-79.83667581,40.34181507,54499,Beulah Park UMC,Open,"1615 Grandview Ave. McKeesport, PA 15132",,McKeesport,PA,15132,4127384894,,Sheila,Martin,4127384894,UNITED METHODIST CHURCH UNION,2019-06-10T04:00:00.000Z,2019-08-08T04:00:00.000Z,"M,T,W,TH",12:00PM - 1:00PM,,12:00PM - 1:00PM,,,,L,3,N,US,41411,,2019,Allegheny
-79.84340164,40.33413555,54500,Christy Park UMC,Open,"436 29th St. McKeesport, PA 15132",,McKeesport,PA,15132,4127265567,,Peggy,Ward,4127265567,UNITED METHODIST CHURCH UNION,2019-06-10T04:00:00.000Z,2019-08-08T04:00:00.000Z,"M,T,W,TH",5:00PM - 6:00PM,,,,,5:00PM - 6:00PM,S,3,N,US,42152,,2019,Allegheny
-79.99458508,40.29157108,54501,Parkford Apartments,Open,"601 Parkford Drive South Park, PA 15129",,South Park,PA,15129,7248258707,,Cindy,Baran,7248258707,UNITED METHODIST CHURCH UNION,2019-06-10T04:00:00.000Z,2019-08-09T04:00:00.000Z,"M,W,F",12:00PM - 1:00PM,,12:00PM - 1:00PM,,,,L,3,N,US,46246,,2019,Allegheny
-79.73398052,40.61750529,54502,Grace United Methodist Church,Open,"1333 Freeport Rd. Natrona Heights, PA 15065",,Natrona Heights,PA,15065,4129169478,,Logan,Thomas-Val,4129169478,UNITED METHODIST CHURCH UNION,2019-06-10T04:00:00.000Z,2019-08-07T04:00:00.000Z,"M,T,W",11:30AM - 12:15PM,,11:30AM - 12:15PM,,,,L,3,N,US,73775,,2019,Allegheny
-80.16439111,40.51488826,54504,Coraopolis Church of God,Open,"1101 Vance Ave. Coraopolis, PA 15108",,Coraopolis,PA,15108,4123107053,,Lucinda,Wade,4123107053,UNITED METHODIST CHURCH UNION,2019-06-12T04:00:00.000Z,2019-08-09T04:00:00.000Z,"M,W,F",12:00PM - 1:00PM,,12:00PM - 1:00PM,,,,L,3,N,US,110393,,2019,Allegheny
-80.06669567,40.46652116,54505,Faithbridge Community Church,Open,"101 Broadway Ave. McKees Rocks, PA 15136",,McKees Rocks,PA,15136,4126075006,,Alice,Cooper,4126075006,UNITED METHODIST CHURCH UNION,2019-06-10T04:00:00.000Z,2019-08-08T04:00:00.000Z,"M,T,TH",12:00PM - 1:00PM,,12:00PM - 1:00PM,,,,L,3,N,US,124303,,2019,Allegheny
-78.55175591,40.48217238,54506,Gallitzin Public Library,Open,"411 Covent St (30) Gallitzin, PA 16641",30,Gallitzin,PA,16641,8148864041,,Helen,Saylor,8148864041,Cambria Co Child Dev Corp,2019-07-02T04:00:00.000Z,2019-07-30T04:00:00.000Z,T,12:00PM - 1:00PM,,12:00PM - 1:00PM,,,,L,3,N,US,90656,,2019,Cambria
-78.71232737,40.66538641,54507,Hastings Public Library,Open,"312 Beaver Street Hastings, PA 16646",,Hastings,PA,16646,8142478231,,Janet,Barnosky,8142478231,Cambria Co Child Dev Corp,2019-06-04T04:00:00.000Z,2019-08-20T04:00:00.000Z,T,12:00PM - 1:00PM,,12:00PM - 1:00PM,,,,L,3,N,US,90774,,2019,Cambria
-78.67299923,40.38602582,54509,Portage Public Library,Open,"704 Main Street Portage, PA 15946",,Portage,PA,15946,8147364340,,Kaitlyn,Sumner,8147364340,Cambria Co Child Dev Corp,2019-06-05T04:00:00.000Z,2019-07-31T04:00:00.000Z,"T,W,TH",12:00PM - 1:00PM,,12:00PM - 1:00PM,,,,L,3,N,US,91538,,2019,Cambria
-78.58040599,40.46309457,54510,Cresson Lions Pool,Open,"710 Linden Avenue Cresson, PA 16630",,Cresson,PA,16630,8148865884,,Paula,Briel,8148865884,Cambria Co Child Dev Corp,2019-06-06T04:00:00.000Z,2019-08-08T04:00:00.000Z,"T,TH",12:00PM - 3:30PM,,12:00PM - 12:30PM,,3:00PM - 3:30PM,,"L,A",3,N,US,93072,,2019,Cambria
-78.71325474,40.48511695,54511,Ebensburg Borough Pool,Open,"151 Swimming Pool Road Ebensburg, PA 15931",,Ebensburg,PA,15931,8144713870,,Joy,Eckenrode,8144713870,Cambria Co Child Dev Corp,2019-06-05T04:00:00.000Z,2019-08-21T04:00:00.000Z,W,11:30AM - 3:00PM,,11:30AM - 12:30PM,,2:45PM - 3:00PM,,"L,A",3,N,US,90493,,2019,Cambria
-78.60229872,40.46070737,54512,ACRP Ebensburg,Open,"7373 Admiral Peary Hwy (Academic Hall) Cresson, PA 16630",Academic Hall,Cresson,PA,16630,8142158464,,Sarah,Conrad,8142158464,Cambria Co Child Dev Corp,2019-06-17T04:00:00.000Z,2019-08-16T04:00:00.000Z,"M,T,W,TH,F",9:00AM - 1:00PM,9:00AM - 9:30AM,12:00PM - 1:00PM,,,,"B,L",3,N,US,117088,,2019,Cambria
-79.92396047,40.43801554,54513,JEWISH COMMUNITY CENTER,Open,"5738 Forbes Avenue Pittsburgh, PA 15217",,Pittsburgh,PA,15217,4126973512,,Alexis,Mancuso,4126973512,JEWISH COMMUNITY CTR NUR/KDG,2019-06-17T04:00:00.000Z,2019-08-16T04:00:00.000Z,"M,T,W,TH,F",11:00AM - 3:00PM,,11:00AM - 1:00PM,,2:00PM - 3:00PM,,"L,A",3,N,US,73950,,2019,Allegheny
-79.78541661,40.42004605,54514,James and Rachel Levenson Family Park,Open,"261 Rosecrest Drive Monroeville, PA, PA 15146",,"Monroeville, PA",PA,15146,4128297707,,Lewis,Sohinki,4128297707,JEWISH COMMUNITY CTR NUR/KDG,2019-06-17T04:00:00.000Z,2019-08-16T04:00:00.000Z,"M,T,W,TH,F",11:00AM - 3:00PM,,11:00AM - 1:00PM,,2:00PM - 3:00PM,,"L,A",3,N,US,73939,,2019,Allegheny
-79.58374498,41.31895066,54515,Oil City YMCA Daycamp,Open,"4072 Camp Coffman Rd Cranberry, PA 16319",,Cranberry,PA,16319,8146700594,,Kara,Womer,8146700594,OIL CITY YMCA,2019-06-05T04:00:00.000Z,2019-08-22T04:00:00.000Z,"M,T,W,TH,F",8:00AM - 1:00PM,8:00AM - 9:00AM,12:00PM - 1:00PM,,,,"B,L",3,N,US,76481,,2019,Clarion
-75.15906572,40.02899288,54516,Fishers Crossing,Open,"4901 Stenton Ave. Philadelphia, PA 19144",,Philadelphia,PA,19144,2154383382,,Dawn,Allen,2154383382,PHILA DEPT RECREATION,2019-06-10T04:00:00.000Z,2019-08-30T04:00:00.000Z,"M,T,W,TH,F",11:30AM - 4:00PM,,11:30AM - 1:30PM,,3:00PM - 4:00PM,,"L,A",3,N,US,132732,,2019,Philadelphia
-77.54632829,40.95301896,54517,KRISLUND CAMP & CONFERENCE CENTER,Open,"189 Krislund Drive Madisonburg, PA 16852",,Madisonburg,PA,16852,8144228878,,Krystal,Zalazny,8144228878,KRISLUND CAMP & CONFERENCE CENTER DBA SUMMER FEEDING PROGRAM,2019-06-17T04:00:00.000Z,2019-08-23T04:00:00.000Z,"M,T,W,TH,F",8:00AM - 1:30PM,8:00AM - 9:00AM,12:30PM - 1:30PM,,,,"B,L",3,N,US,82369,,2019,Centre
-77.54632829,40.95301896,54518,Krislund Traveling Day Camp,Open,"189 Krislund Drive Madisonburg, PA 16852",,Madisonburg,PA,16852,8144228878,,Krystal,Zalazny,8144228878,KRISLUND CAMP & CONFERENCE CENTER DBA SUMMER FEEDING PROGRAM,2019-06-13T04:00:00.000Z,2019-08-09T04:00:00.000Z,"TH,F",8:00AM - 1:30PM,8:00AM - 9:00AM,12:30PM - 1:30PM,,,,"B,L",3,N,US,111615,,2019,Centre
-80.02089893,40.45597674,54520,Bidwell Presbyterian,Open,"1025 Liverpool Street Pittsburgh, PA 15233",,Pittsburgh,PA,15233,4129561142,,Darlene,Figgs,4129561142,UNITED METHODIST CHURCH UNION,2019-06-17T04:00:00.000Z,2019-08-02T04:00:00.000Z,"M,T,W,TH,F",12:00PM - 1:00PM,,12:00PM - 1:00PM,,,,L,3,N,US,132474,,2019,Allegheny
-79.75340151,40.60489419,54521,Bridge Point Church,Open,"400 E. 9th Ave Tarentum, PA 15084",,Tarentum,PA,15084,7247129222,,Val,Schubert,7247129222,UNITED METHODIST CHURCH UNION,2019-06-12T04:00:00.000Z,2019-07-24T04:00:00.000Z,W,12:00PM - 4:00PM,,12:00PM - 1:00PM,,3:00PM - 4:00PM,,"L,A",3,N,US,132508,,2019,Allegheny
-79.75040849,40.60257211,54522,Central Presbyterian Church,Open,"305 Allegheny Street Tarentum, PA 15084",,Tarentum,PA,15084,7248822185,,Dave,Rankin,7248822185,UNITED METHODIST CHURCH UNION,2019-06-10T04:00:00.000Z,2019-08-09T04:00:00.000Z,"M,T,TH,F",9:00AM - 1:00PM,9:00AM - 10:00AM,12:00PM - 1:00PM,,,,"B,L",3,N,US,50661,,2019,Allegheny
-79.68666382,40.67307186,54523,Freeport UMC,Open,"211 4th Street Freeport, PA 16229",,Freeport,PA,16229,7246648641,,Ray,Straughan,7246648641,UNITED METHODIST CHURCH UNION,2019-06-11T04:00:00.000Z,2019-08-08T04:00:00.000Z,"T,TH",12:00PM - 1:00PM,,12:00PM - 1:00PM,,,,L,3,N,US,132753,,2019,Armstrong
-78.64930325,40.63395548,54526,Patton Public Library,Open,"444 Magee Avenue Patton, PA 16668",,Patton,PA,16668,8146748231,,Monica,Burkhart,8146748231,Cambria Co Child Dev Corp,2019-06-20T04:00:00.000Z,2019-07-25T04:00:00.000Z,TH,12:00PM - 1:00PM,,12:00PM - 1:00PM,,,,L,3,N,US,133126,,2019,Cambria
-78.83630015,40.4777212,54527,Respective Solutions Group,Open,"555 Birch Street Nanty Glo, PA 15943",,Nanty Glo,PA,15943,8144722225,4,Chelsea,Brink,8144722225,Cambria Co Child Dev Corp,2019-06-17T04:00:00.000Z,2019-07-30T04:00:00.000Z,"M,T",9:00AM - 1:00PM,9:00AM - 9:30AM,12:00PM - 1:00PM,,,,"B,L",3,N,US,133166,,2019,Cambria
-79.72044812,40.61306307,54528,Natrona Ball Field,Open,"12-20 River Road Natrona Heights, PA 15065",,Natrona Heights,PA,15065,7245947733,,Cecelia,Lilly,7245947733,UNITED METHODIST CHURCH UNION,2019-06-10T04:00:00.000Z,2019-08-09T04:00:00.000Z,"M,T,W,TH,F",11:00AM - 3:00PM,,11:00AM - 12:00PM,,2:00PM - 3:00PM,,"L,A",3,N,US,133048,,2019,Allegheny
-79.89836575,39.84778869,61884,MASONTOWN EL SCH,Open,"201 Spring Lane Masontown, PA 15461",,Masontown,PA,15461,7245647190,8123,Troy,Golden,7245647190,ALBERT GALLATIN AREA SCHOOL DISTRICT,2019-06-18T07:00:00.000Z,2019-07-19T07:00:00.000Z,"M,T,W,TH,F",11:15AM - 12:15PM,,11:15AM - 12:15PM,,,,L,4,N,US,134869,,2019,Fayette
-80.02222747,40.36800491,61885,Castle Shannon Library,Open,"3677 MYRTLE AVENUE PGH, PA 15234",,PGH,PA,15234,4123438311,,Anne,Amoroso,4123438311,KEYSTONE OAKS SCHOOL DISTRICT,2019-06-10T07:00:00.000Z,2019-08-16T07:00:00.000Z,"M,T,W,TH,F",12:45PM - 1:30PM,,12:45PM - 1:30PM,,,,L,4,N,US,41960,,2019,Allegheny
-80.0344076,40.35964066,61886,Alvern Gardens,Open,"1000 VERMONT AVE PITTSBURGH, PA 15234",,PITTSBURGH,PA,15234,4123438311,,Anne,Amoroso,4123438311,KEYSTONE OAKS SCHOOL DISTRICT,2019-06-10T07:00:00.000Z,2019-08-16T07:00:00.000Z,"M,T,W,TH,F",11:45AM - 12:30PM,,11:45AM - 12:30PM,,,,L,4,N,US,40957,,2019,Allegheny
-80.04681059,40.41826487,61887,Green Tree Wilson Park,Open,"10 WEST MANILLA DR PGH, PA 15220",,PGH,PA,15220,4125312207,,Barbara,Maide,4125312207,KEYSTONE OAKS SCHOOL DISTRICT,2019-06-10T07:00:00.000Z,2019-08-16T07:00:00.000Z,"M,T,W,TH,F",11:15AM - 12:15PM,,11:15AM - 12:15PM,,,,L,4,N,US,43679,,2019,Allegheny
-78.88871013,40.35936645,61888,CONEMAUGH VALLEY EL SCH,Open,"1340 William Penn Aveune Johnstown, PA 15906",,Johnstown,PA,15906,8145355523,,Jenna,Russell,8145355523,CONEMAUGH VALLEY SCHOOL DISTRICT,2019-08-15T07:00:00.000Z,2019-08-15T07:00:00.000Z,TH,10:00AM - 11:00AM,,,10:00AM - 11:00AM,,,M,4,N,US,14606,,2019,Cambria
-78.88801224,40.35980953,61889,CONEMAUGH VALLEY SCHOOL DISTRICT,Open,"1342 William Penn Avenue Johnstown, PA 15906",,Johnstown,PA,15906,8145355523,,Jenna,Russell,8145355523,CONEMAUGH VALLEY SCHOOL DISTRICT,2019-08-05T07:00:00.000Z,2019-08-16T07:00:00.000Z,"M,T,W,TH,F",11:00AM - 3:00PM,,11:00AM - 1:00PM,,2:00PM - 3:00PM,,"L,A",4,N,US,14607,,2019,Cambria
-78.4793987,40.98864484,61890,Clearfield Area JSHS,Open,"2831 Washington Ave Clearfield, PA 16830",,Clearfield,PA,16830,8147651344,,Joanne,Colesar,8147651344,CLEARFIELD AREA SCHOOL DISTRICT,2019-06-10T07:00:00.000Z,2019-08-16T07:00:00.000Z,"M,T,W,TH,F",11:00AM - 12:30PM,,11:00AM - 12:30PM,,,,L,4,N,US,24570,,2019,Clearfield
-80.04313853,40.39693497,61892,Dormont Park / Pool & Rec Center,Open,"1801 DORMONT AVE PGH, PA 15216",,PGH,PA,15216,4127590201,,TRISTA,BOYES,4127590201,KEYSTONE OAKS SCHOOL DISTRICT,2019-06-10T07:00:00.000Z,2019-08-16T07:00:00.000Z,"M,T,W,TH,F",11:45AM - 12:30PM,,11:45AM - 12:30PM,,,,L,4,N,US,42688,,2019,Allegheny
-80.00885285,40.36737083,61894,Hamilton Park,Open,"3310 McRoberts Rd pittsburgh, PA 15234",,pittsburgh,PA,15234,4125252748,,Kris,Malia,4125252748,KEYSTONE OAKS SCHOOL DISTRICT,2019-06-17T07:00:00.000Z,2019-07-26T07:00:00.000Z,"M,T,W,TH,F",11:30AM - 12:15PM,,11:30AM - 12:15PM,,,,L,4,N,US,43765,,2019,Allegheny
-80.08354631,40.4050262,61895,Saint John's Evangelical Lutheran Church,Open,"601 Washington Ave. Carnegie, PA 15106",,Carnegie,PA,15106,4122792952,,Sarah,Irwin,4122792952,KEYSTONE OAKS SCHOOL DISTRICT,2019-06-10T07:00:00.000Z,2019-08-16T07:00:00.000Z,"M,T,W,TH,F",4:00PM - 5:00PM,,,,,4:00PM - 5:00PM,S,4,N,US,135392,,2019,Allegheny
-76.30607919,40.05939149,61896,BRECHT SCH,Open,"1250 Lititz Pike Lancaster, PA 17601",,Lancaster,PA,17601,7172911733,4763,Marie,Schnee,7172911733,MANHEIM TOWNSHIP SCHOOL DISTRICT,2019-06-17T07:00:00.000Z,2019-08-09T07:00:00.000Z,"M,T,W,TH,F",11:30AM - 1:00PM,,11:30AM - 1:00PM,,,,L,4,N,US,100148,,2019,Lancaster
-76.30435674,40.09999981,61897,NEFF SCH,Open,"21 Valley Road Lancaster, PA 17606",,Lancaster,PA,17606,7175693583,,Betsy,Dooley,7175693583,MANHEIM TOWNSHIP SCHOOL DISTRICT,2019-06-17T07:00:00.000Z,2019-08-09T07:00:00.000Z,"M,T,W,TH,F",11:30AM - 1:00PM,,11:30AM - 1:00PM,,,,L,4,N,US,79065,,2019,Lancaster
-76.33210031,40.08434055,61898,BUCHER SCH,Open,"450 Candlewyck Rd. Lancaster, PA 17601",,Lancaster,PA,17601,7175603099,,Vincenza,Anello,7175603099,MANHEIM TOWNSHIP SCHOOL DISTRICT,2019-06-17T07:00:00.000Z,2019-08-09T07:00:00.000Z,"M,T,W,TH,F",11:30AM - 1:00PM,,11:30AM - 1:00PM,,,,L,4,N,US,41719,,2019,Lancaster
-77.79807675,39.91850525,61899,ST THOMAS EL SCH,Open,"70 Schoolhouse Road Saint Thomas, PA 17252",,Saint Thomas,PA,17252,7173283127,2708,Virginia,Leasure,7173283127,TUSCARORA SCHOOL DISTRICT,2019-06-10T07:00:00.000Z,2019-08-08T07:00:00.000Z,"M,T,W,TH",8:30AM - 1:00PM,8:30AM - 9:30AM,11:30AM - 1:00PM,,,,"B,L",4,N,US,76823,,2019,Franklin
-77.90598355,39.8277789,61900,MERCERSBURG EL SCH,Open,"30 South Park Avenue Mercersburg, PA 17236",,Mercersburg,PA,17236,7173283127,2508,Michelle,Ramer,7173283127,TUSCARORA SCHOOL DISTRICT,2019-06-10T07:00:00.000Z,2019-08-08T07:00:00.000Z,"M,T,W,TH",8:30AM - 1:00PM,8:30AM - 9:30AM,11:30AM - 1:00PM,,,,"B,L",4,N,US,5653,,2019,Franklin
-76.29047702,40.05901423,61901,SCHAEFFER SCH,Open,"875 Pleasure Road Lancaster, PA 17601",,Lancaster,PA,17601,7173926797,4849,ALYSSA,BRUBAKER,7173926797,MANHEIM TOWNSHIP SCHOOL DISTRICT,2019-06-17T07:00:00.000Z,2019-08-09T07:00:00.000Z,"M,T,W,TH,F",11:30AM - 1:00PM,,11:30AM - 1:00PM,,,,L,4,N,US,135437,,2019,Lancaster
-79.97201921,40.41548212,61902,The Academy,Open,"2500 Jonquil Way Pittsburgh, PA 15210",,Pittsburgh,PA,15210,4128855200,1263,William,Styche,4128855200,COMMUNITY SPECIALISTS CORP,2019-06-01T07:00:00.000Z,2019-08-30T07:00:00.000Z,"S,M,T,W,TH,F,SA",11:30AM - 1:00PM,,11:30AM - 1:00PM,,,,L,4,N,US,116565,,2019,Allegheny
-75.2290372,40.70554942,61903,Easton Area Middle School Campus Grades 5-6,Open,"1010 Echo Trail Easton, PA 18040",,Easton,PA,18040,6102502460,31952,Michael,Kimmel,6102502460,EASTON AREA SCHOOL DISTRICT,2019-06-17T07:00:00.000Z,2019-08-08T07:00:00.000Z,"M,T,W,TH",9:00AM - 12:30PM,9:00AM - 9:30AM,12:00PM - 12:30PM,,,,"B,L",4,N,US,134298,,2019,Northampton
-78.43760724,41.03632535,61905,Clearfield Area El Sch,Open,"700 High Level Road Clearfield, PA 16830",,Clearfield,PA,16830,8147655511,1700,Willie,,8147655511,CLEARFIELD AREA SCHOOL DISTRICT,2019-06-10T07:00:00.000Z,2019-08-16T07:00:00.000Z,"M,T,W,TH,F",11:00AM - 12:30PM,,11:00AM - 12:30PM,,,,L,4,N,US,24569,,2019,Clearfield
-77.87676608,40.39003488,61908,MOUNT UNION AREA SH,Open,"706 North Shaver Street Mount Union, PA 17066",,Mount Union,PA,17066,8145428631,193,Carol,Kauffman,8145428631,MOUNT UNION AREA SCHOOL DISTRICT,2019-06-10T07:00:00.000Z,2019-08-09T07:00:00.000Z,"M,T,W,TH",11:00AM - 1:00PM,,11:00AM - 1:00PM,,,,L,4,N,US,45625,,2019,Huntingdon
-78.4966725,40.01461255,61909,BEDFORD MS,Open,"440 East Watson St Bedford, PA 15522",,Bedford,PA,15522,8146234200,2126,Autumn,Ramsey,8146234200,BEDFORD AREA SCHOOL DISTRICT,2019-06-10T07:00:00.000Z,2019-07-03T07:00:00.000Z,"M,T,W,TH,F",11:00AM - 11:45AM,,11:00AM - 11:45AM,,,,L,4,N,US,41321,,2019,Bedford
-75.18699238,39.98931713,61911,MANDER PLAYGROUND,Open,"2140 N. 33rd. St. Philadelphia, PA 19121",,Philadelphia,PA,19121,2156853894,,Denise,Russell,2156853894,PHILA DEPT RECREATION,2019-06-17T07:00:00.000Z,2019-08-09T07:00:00.000Z,"M,T,W,TH,F",8:30AM - 2:00PM,8:30AM - 9:30AM,12:00PM - 2:00PM,,,,"B,L",4,N,US,53347,,2019,Philadelphia
-75.14558626,40.05096765,61913,Morris Estate Recreation Center,Open,"1610 CHELTEN AVE. Philadelphia, PA 19126",,Philadelphia,PA,19126,2156852891,,Hilary,Doe,2156852891,PHILA DEPT RECREATION,2019-06-17T07:00:00.000Z,2019-08-09T07:00:00.000Z,"M,T,W,TH,F",9:00AM - 2:15PM,9:00AM - 10:00AM,12:15PM - 2:15PM,,,,"B,L",4,N,US,53737,,2019,Philadelphia
-75.10108842,40.04508248,61914,LAWNCREST PLAYGROUND,Open,"6000 Rising Sun Ave. Philadelphia, PA 19111",,Philadelphia,PA,19111,2156850597,,Alice,Dignam,2156850597,PHILA DEPT RECREATION,2019-06-17T07:00:00.000Z,2019-08-09T07:00:00.000Z,"M,T,W,TH,F",9:15AM - 2:15PM,9:15AM - 10:15AM,12:15PM - 2:15PM,,,,"B,L",4,N,US,53049,,2019,Philadelphia
-74.96866793,40.10269258,61915,Junod Recreation Center,Open,"12770 Dunksferry Rd. Philadelphia, PA 19154",,Philadelphia,PA,19154,2156859396,,Jennifer,McGurk,2156859396,PHILA DEPT RECREATION,2019-06-17T07:00:00.000Z,2019-08-09T07:00:00.000Z,"M,T,W,TH,F",9:00AM - 2:00PM,9:00AM - 10:00AM,12:00PM - 2:00PM,,,,"B,L",4,N,US,52789,,2019,Philadelphia
-75.07075963,40.0376895,61918,MAX MYERS PLAYGROUND,Open,"1601 HELLERMAN ST. Philadelphia, PA 19149",,Philadelphia,PA,19149,2156851242,,Charles,Christman,2156851242,PHILA DEPT RECREATION,2019-06-17T07:00:00.000Z,2019-08-09T07:00:00.000Z,"M,T,W,TH,F",9:00AM - 2:00PM,9:00AM - 10:00AM,12:00PM - 2:00PM,,,,"B,L",4,N,US,53451,,2019,Philadelphia
-75.18326281,39.94782098,61922,MARKWARD PLAYGROUND,Open,"400 S. Taney St. Philadelphia, PA 19146",,Philadelphia,PA,19146,2156856649,,Katie,McGurk,2156856649,PHILA DEPT RECREATION,2019-06-17T07:00:00.000Z,2019-08-09T07:00:00.000Z,"M,T,W,TH,F",8:30AM - 3:30PM,8:30AM - 9:30AM,,,2:30PM - 3:30PM,,"B,A",4,N,US,53382,,2019,Philadelphia
-79.04180023,40.47399288,61927,United Elem School,Open,"10775 Route 56 Hwy East Armagh, PA 15920",,Armagh,PA,15920,8144465615,3306,Beverly,Pribresh,8144465615,UNITED SCHOOL DISTRICT,2019-06-10T07:00:00.000Z,2019-07-18T07:00:00.000Z,"M,T,W,TH",8:30AM - 12:30PM,8:30AM - 9:00AM,11:30AM - 12:30PM,,,,"B,L",4,N,US,74825,,2019,Indiana
-79.56049719,40.83193562,61928,West Hills Primary School,Open,"181 Heritage Park Drive Kittanning, PA 16201",,Kittanning,PA,16201,7245487507,7507,Tammy,Moore,7245487507,ARMSTRONG SCHOOL DISTRICT,2019-07-02T07:00:00.000Z,2019-08-06T07:00:00.000Z,T,11:00AM - 11:30AM,,11:00AM - 11:30AM,,,,L,4,N,US,77032,,2019,Armstrong
-79.53480951,40.81497756,61929,Belmont Complex,Open,"415 Butler Road Kittanning, PA 16201",,Kittanning,PA,16201,7245481067,3050,Sue,Stitt,7245481067,ARMSTRONG SCHOOL DISTRICT,2019-06-17T07:00:00.000Z,2019-08-16T07:00:00.000Z,"M,T,W,TH,F",12:00PM - 3:30PM,,12:00PM - 1:00PM,,3:00PM - 3:30PM,,"L,A",4,N,US,67590,,2019,Armstrong
-79.52884733,40.82753533,61930,Richard G Snyder YMCA,Open,"1150 North Water Street Kittanning, PA 16201",,Kittanning,PA,16201,7245459622,,Bria,Jones,7245459622,ARMSTRONG SCHOOL DISTRICT,2019-06-17T07:00:00.000Z,2019-08-16T07:00:00.000Z,"M,T,W,TH,F",11:45AM - 3:30PM,,11:45AM - 12:45PM,,3:00PM - 3:30PM,,"L,A",4,N,US,105055,,2019,Armstrong
-79.52544862,40.77201608,61931,Malec Park/ 7th Avenue Playground,Open,"1200 7th Avenue Ford City, PA 16226",,Ford City,PA,16226,7247633081,,Lisa,Bissell,7247633081,ARMSTRONG SCHOOL DISTRICT,2019-06-17T07:00:00.000Z,2019-08-16T07:00:00.000Z,"M,T,W,TH,F",11:30AM - 12:30PM,,11:30AM - 12:30PM,,,,L,4,N,US,104364,,2019,Armstrong
-79.52340591,40.81774108,61932,ALTERNATIVE ED PROGRAMS,Open,"351 North Jefferson Street Kittanning, PA 16201",,Kittanning,PA,16201,7245434238,,Renee,Taladay,7245434238,ARMSTRONG SCHOOL DISTRICT,2019-06-17T07:00:00.000Z,2019-08-15T07:00:00.000Z,"T,TH",11:30AM - 12:30PM,,11:30AM - 12:30PM,,,,L,4,N,US,133703,,2019,Armstrong
-79.23584352,40.8824665,61933,Dayton Elementary-Summer,Open,"413 East Grant Avenue Dayton, PA 16222",,Dayton,PA,16222,8142579848,,Kim,Kepple,8142579848,ARMSTRONG SCHOOL DISTRICT,2019-06-17T07:00:00.000Z,2019-08-16T07:00:00.000Z,"M,T,W,TH,F",11:00AM - 12:00PM,,11:00AM - 12:00PM,,,,L,4,N,US,134211,,2019,Armstrong
-79.3403207,40.69219152,61934,Elderton Elementary -Summer,Open,"239 South Lytle Street Elderton, PA 15736",,Elderton,PA,15736,7243543674,,Cindy,Pritt,7243543674,ARMSTRONG SCHOOL DISTRICT,2019-06-17T07:00:00.000Z,2019-08-16T07:00:00.000Z,"M,T,W,TH,F",11:00AM - 12:00PM,,11:00AM - 12:00PM,,,,L,4,N,US,134319,,2019,Armstrong
-79.31833225,40.80037547,61935,Shannock Valley Elementary-summer,Open,"210 Cowanshannock Ave Rural Valley, PA 16249",,Rural Valley,PA,16249,7247832389,,Lori,Coleman,7247832389,ARMSTRONG SCHOOL DISTRICT,2019-06-17T07:00:00.000Z,2019-08-16T07:00:00.000Z,"M,T,W,TH,F",11:00AM - 12:00PM,,11:00AM - 12:00PM,,,,L,4,N,US,15124,,2019,Armstrong
-79.62580802,40.83665928,61937,Worthington West Franklin Community Library,Open,"214 East Main Street (Suite 1) Worthington, PA 16262",Suite 1,Worthington,PA,16262,7242973762,,Dalton,Good,7242973762,ARMSTRONG SCHOOL DISTRICT,2019-06-18T07:00:00.000Z,2019-08-17T07:00:00.000Z,"T,W,TH,F,SA",12:00PM - 5:00PM,,,12:00PM - 1:00PM,4:00PM - 5:00PM,,"M,A",4,N,US,135877,,2019,Armstrong
-79.52176019,40.81621525,61939,St. Johns Lutheran Church,Open,"218 North Jefferson Street Kittanning, PA 16201",,Kittanning,PA,16201,7245482051,,Julie,Smith,7245482051,ARMSTRONG SCHOOL DISTRICT,2019-06-18T07:00:00.000Z,2019-08-16T07:00:00.000Z,"M,T,W,TH,F",11:30AM - 12:30PM,,11:30AM - 12:30PM,,,,L,4,N,US,135548,,2019,Armstrong
-79.51836926,40.76441218,61940,LENAPE EL SCH,Open,"2300 Center Avenue Ford City, PA 16226",,Ford City,PA,16226,7247635295,,Joan,Moore,7247635295,ARMSTRONG SCHOOL DISTRICT,2019-07-08T07:00:00.000Z,2019-07-29T07:00:00.000Z,M,10:00AM - 10:30AM,,,10:00AM - 10:30AM,,,M,4,N,US,134764,,2019,Armstrong
-75.10869385,40.15787257,61941,UPPER MORELAND HS,Open,"3000 Terwood Road Willow Grove, PA 19090",,Willow Grove,PA,19090,2158301522,,Randi,Mongiello,2158301522,UPPER MORELAND TOWNSHIP SCHOOL DISTRICT,2019-06-17T07:00:00.000Z,2019-08-15T07:00:00.000Z,"M,T,W,TH",11:00AM - 12:30PM,,11:00AM - 12:30PM,,,,L,4,N,US,135732,,2019,Montgomery
-75.17082949,39.94224506,61944,MARIAN ANDERSON RECREATION CENTER,Open,"744 S. 17th St. Philadelphia, PA 19146",,Philadelphia,PA,19146,2156856594,,John,Bromley,2156856594,PHILA DEPT RECREATION,2019-06-17T07:00:00.000Z,2019-08-08T07:00:00.000Z,"M,T,W,TH,F",9:00AM - 2:00PM,9:00AM - 10:00AM,12:00PM - 2:00PM,,,,"B,L",4,N,US,53370,,2019,Philadelphia
-75.21085866,40.02948801,61945,Kendrick Recreation Center,Open,"5822 Ridge Ave. Philadelphia, PA 19128",,Philadelphia,PA,19128,2156852584,,Shane,Martin,2156852584,PHILA DEPT RECREATION,2019-06-17T07:00:00.000Z,2019-08-09T07:00:00.000Z,"M,T,W,TH,F",9:00AM - 2:00PM,9:00AM - 10:00AM,12:00PM - 2:00PM,,,,"B,L",4,N,US,52825,,2019,Philadelphia
-75.23173185,40.06909643,61946,Houston Playground,Open,"900 Grakyn Lane. Philadelphia, PA 19128",,Philadelphia,PA,19128,2156852597,,Betsy,Henninger,2156852597,PHILA DEPT RECREATION,2019-06-17T07:00:00.000Z,2019-08-09T07:00:00.000Z,"M,T,W,TH,F",9:00AM - 2:00PM,9:00AM - 10:00AM,12:00PM - 2:00PM,,,,"B,L",4,N,US,52512,,2019,Philadelphia
-75.16968887,39.98023132,61949,M.L. KING RECREATION CENTER DAY CAMP,Open,"2101 Cecil B. Moore Ave. Philadelphia, PA 19121",,Philadelphia,PA,19121,2156852733,,Bahiya,Jones,2156852733,PHILA DEPT RECREATION,2019-06-17T07:00:00.000Z,2019-08-09T07:00:00.000Z,"M,T,W,TH,F",8:00AM - 2:00PM,8:00AM - 9:00AM,12:00PM - 2:00PM,,,,"B,L",4,N,US,115488,,2019,Philadelphia
-75.14820058,40.01677206,61950,HUNTING PARK RECREATION CENTER (ARTS CAMP),Open,"1101 W. Hunting Park Ave. Philadelphia, PA 19140",,Philadelphia,PA,19140,2156859153,,Greg,Stepp,2156859153,PHILA DEPT RECREATION,2019-06-17T07:00:00.000Z,2019-08-09T07:00:00.000Z,"M,T,W,TH,F",9:30AM - 2:30PM,9:30AM - 10:30AM,12:30PM - 2:30PM,,,,"B,L",4,N,US,52531,,2019,Philadelphia
-75.03441926,40.10126295,61951,Lackman Playground Day Camp,Open,"1101 Bartlett St. Philadelphia, PA 19115",,Philadelphia,PA,19115,2156850370,,Robert,Hosephros,2156850370,PHILA DEPT RECREATION,2019-06-17T07:00:00.000Z,2019-08-09T07:00:00.000Z,"M,T,W,TH,F",9:30AM - 2:30PM,9:30AM - 10:30AM,,,1:30PM - 2:30PM,,"B,A",4,N,US,52966,,2019,Philadelphia
-75.20702714,39.96349447,61955,Mt. Olivet Tabernace Baptist Church,Open,"647 N. 42nd St. Philadelphia, PA 19104",,Philadelphia,PA,19104,2153865638,,Alverita,Spain,2153865638,PHILA DEPT RECREATION,2019-07-08T07:00:00.000Z,2019-07-19T07:00:00.000Z,"M,T,W,TH,F",9:00AM - 2:00PM,9:00AM - 10:00AM,12:00PM - 2:00PM,,,,"B,L",4,N,US,53803,,2019,Philadelphia
-75.12253735,40.00082063,61957,McVeigh Recreation Center,Open,"400 E. Ontario St. Philadelphia, PA 19134",,Philadelphia,PA,19134,2156854896,,Todd,Colistro,2156854896,PHILA DEPT RECREATION,2019-06-17T07:00:00.000Z,2019-08-09T07:00:00.000Z,"M,T,W,TH,F",9:00AM - 2:00PM,9:00AM - 10:00AM,12:00PM - 2:00PM,,,,"B,L",4,N,US,68187,,2019,Philadelphia
-75.24313252,39.96063572,61958,Kid's World Christian Education Center,Open,"6100 Chestnut St. Philadelphia, PA 19139",,Philadelphia,PA,19139,2154741484,,Kia,Coleman,2154741484,PHILA DEPT RECREATION,2019-06-17T07:00:00.000Z,2019-08-23T07:00:00.000Z,"M,T,W,TH,F",8:00AM - 2:00PM,8:00AM - 9:00AM,12:00PM - 2:00PM,,,,"B,L",4,N,US,52869,,2019,Philadelphia
-75.14931397,40.05848492,61960,Mt. Airy Baptist Church Childcare Center,Open,"1901-09 E. Haines St. philadelphia, PA 19138",,philadelphia,PA,19138,2154247999,,Anita,Nutter,2154247999,PHILA DEPT RECREATION,2019-06-10T07:00:00.000Z,2019-08-23T07:00:00.000Z,"M,T,W,TH,F",11:30AM - 3:30PM,,11:30AM - 1:30PM,,2:30PM - 3:30PM,,"L,A",4,N,US,53785,,2019,Philadelphia
-75.0618519,40.02894789,61962,Lower Mayfair After-Care,Open,"3015 Robbins Ave. Philadelphia, PA 19149",,Philadelphia,PA,19149,2156851227,,Kathy,Devine,2156851227,PHILA DEPT RECREATION,2019-07-01T07:00:00.000Z,2019-08-09T07:00:00.000Z,"M,T,W,TH,F",3:00PM - 4:00PM,,,,3:00PM - 4:00PM,,A,4,N,US,99022,,2019,Philadelphia
-76.86676629,40.2667191,61965,Derry Street United Methodist Church,Open,"1501 Market Street Harrisburg, PA 17104",,Harrisburg,PA,17104,7172382030,,William,Jamison,7172382030,CENTRAL PA FOOD BANK,2019-06-17T07:00:00.000Z,2019-08-01T07:00:00.000Z,"M,T,W,TH",8:30AM - 12:30PM,8:30AM - 9:15AM,11:30AM - 12:30PM,,,,"B,L",4,N,US,134221,,2019,Dauphin
-76.86371095,40.25233377,61967,From the Heart Church Ministries,Open,"951 South 13th St Harrisburg, PA 17104",,Harrisburg,PA,17104,7172381408,,Sheila,Young,7172381408,CENTRAL PA FOOD BANK,2019-06-10T07:00:00.000Z,2019-08-02T07:00:00.000Z,"M,T,W,TH,F",8:15AM - 12:30PM,8:15AM - 9:00AM,11:30AM - 12:30PM,,,,"B,L",4,N,US,43385,,2019,Dauphin
-76.87719044,40.27485925,61976,Harrisburg Boys and Girls - Downey,Open,"1313 Monroe Street Harrisburg, PA 17103",,Harrisburg,PA,17103,7172343268,,Mark,Hawthorne,7172343268,CENTRAL PA FOOD BANK,2019-06-10T07:00:00.000Z,2019-08-09T07:00:00.000Z,"M,T,W,TH,F",12:00PM - 1:15PM,,12:00PM - 1:15PM,,,,L,4,N,US,43819,,2019,Dauphin
-76.81862313,40.56121605,61977,Northern Dauphin County YMCA - FB,Open,"500 North Church Street Elizabethville, PA 17104",,Elizabethville,PA,17104,7173629494,,Danielle,Mace,7173629494,CENTRAL PA FOOD BANK,2019-06-10T07:00:00.000Z,2019-08-16T07:00:00.000Z,"M,T,W,TH,F",8:30AM - 12:30PM,8:30AM - 9:30AM,11:30AM - 12:30PM,,,,"B,L",4,N,US,45965,,2019,Dauphin
-76.85548117,40.25010613,61979,Boys and Girls Club - Hall Manor,Open,"1700 Hanover Street Harrisburg, PA 17104",,Harrisburg,PA,17104,7172343268,,Derek,Thompson,7172343268,CENTRAL PA FOOD BANK,2019-06-10T07:00:00.000Z,2019-08-09T07:00:00.000Z,"M,T,W,TH,F",12:00PM - 1:15PM,,12:00PM - 1:15PM,,,,L,4,N,US,41586,,2019,Dauphin
-76.85023341,40.28087214,61982,Philhaven Dauphin County,Open,"2601 Herr St Harrisburg, PA 17103",,Harrisburg,PA,17103,8556597002,,Cristin,Carrig,8556597002,CENTRAL PA FOOD BANK,2019-06-10T07:00:00.000Z,2019-08-16T07:00:00.000Z,"M,T,W,TH,F",11:45AM - 1:00PM,,11:45AM - 1:00PM,,,,L,4,N,US,46361,,2019,Dauphin
-76.72405071,39.96363567,61983,Martin Library,Open,"159 East Market St York, PA 17401",,York,PA,17401,7178496930,,Trish,Bissett,7178496930,CENTRAL PA FOOD BANK,2019-06-17T07:00:00.000Z,2019-08-09T07:00:00.000Z,"M,T,W,TH,F",10:00AM - 3:30PM,10:00AM - 10:30AM,2:30PM - 3:30PM,,,,"B,L",4,N,US,45182,,2019,York
-76.72553552,39.96147317,61984,The Salvation Army Day Camp,Open,"50 East King York, PA 17404",,York,PA,17404,7178482364,224,Jeff,Beard,7178482364,CENTRAL PA FOOD BANK,2019-07-01T07:00:00.000Z,2019-08-09T07:00:00.000Z,"M,T,W,TH,F",8:30AM - 12:15PM,8:30AM - 9:00AM,11:30AM - 12:15PM,,,,"B,L",4,N,US,47858,,2019,York
-76.85284388,40.26049362,61987,Bethany AME Church,Open,"912 South 21st Street Harrisburg, PA 17104",,Harrisburg,PA,17104,6468950523,,Darnell,Montgomery,6468950523,CENTRAL PA FOOD BANK,2019-06-17T07:00:00.000Z,2019-08-02T07:00:00.000Z,"M,T,W,TH,F",11:00AM - 12:30PM,,11:00AM - 12:30PM,,,,L,4,N,US,41384,,2019,Dauphin
-76.30094661,40.05299159,61989,Bench Mark Program,Open,"341 East Liberty Street Lancaster, PA 17602",,Lancaster,PA,17602,7173399766,,Willem,Kiefer,7173399766,CENTRAL PA FOOD BANK,2019-06-10T07:00:00.000Z,2019-08-23T07:00:00.000Z,"M,T,W,TH,F",5:30PM - 6:30PM,,,,,5:30PM - 6:30PM,S,4,N,US,41361,,2019,Lancaster
-76.26614647,40.02617945,61990,Philhaven Lancaster,Open,"530 Milton Road Lancaster, PA 17602",,Lancaster,PA,17602,7176752976,,Olivia,Rinier,7176752976,CENTRAL PA FOOD BANK,2019-06-10T07:00:00.000Z,2019-08-23T07:00:00.000Z,"M,T,W,TH,F",11:30AM - 1:00PM,,11:30AM - 1:00PM,,,,L,4,N,US,54427,,2019,Lancaster
-77.26207007,41.20196418,61993,Jersey Shore Summer Rec,Open,"239 McCanna Drive Jersey Shore, PA 17740",,Jersey Shore,PA,17740,5705067073,,Monica,Richards,5705067073,CENTRAL PA FOOD BANK,2019-06-17T07:00:00.000Z,2019-08-08T07:00:00.000Z,"M,T,W,TH",8:30AM - 12:30PM,8:30AM - 9:30AM,11:30AM - 12:30PM,,,,"B,L",4,N,US,86669,,2019,Lycoming
-77.39257443,40.3688863,61994,Center Presbyterian Church,Open,"3912 Freeman Hollow Road Loysville, PA 17047",,Loysville,PA,17047,7172755375,,Lisa,Loy,7172755375,CENTRAL PA FOOD BANK,2019-07-22T07:00:00.000Z,2019-07-24T07:00:00.000Z,"M,T,W",11:30AM - 12:30PM,,11:30AM - 12:30PM,,,,L,4,N,US,85324,,2019,Perry
-76.89064898,40.27192734,61996,Central Pennsylvania Writers and Illustrators Summer Camp,Open,"1500 North Third Street Harrisburg, PA 17102",,Harrisburg,PA,17102,7175805429,,Floyd,Stokes,7175805429,CENTRAL PA FOOD BANK,2019-07-08T07:00:00.000Z,2019-07-19T07:00:00.000Z,"M,T,W,TH,F",12:00PM - 1:00PM,,12:00PM - 1:00PM,,,,L,4,N,US,85344,,2019,Dauphin
-76.81862313,40.56121605,62000,Northern Dauphin YMCA Mentoring Program,Open,"500 North Church Street Elizabethville, PA 17023",,Elizabethville,PA,17023,7173629494,,Danielle,Mace,7173629494,CENTRAL PA FOOD BANK,2019-06-10T07:00:00.000Z,2019-08-16T07:00:00.000Z,"M,W",4:15PM - 5:15PM,,,,,4:15PM - 5:15PM,S,4,N,US,112336,,2019,Dauphin
-76.85548117,40.25010613,62002,John Hall Afternoon Summer Program,Open,"1700 Hanover Street Harrisburg, PA 17104",,Harrisburg,PA,17104,7172343268,,Mark,Hawthorne,7172343268,CENTRAL PA FOOD BANK,2019-06-10T07:00:00.000Z,2019-08-09T07:00:00.000Z,"M,T,W,TH,F",3:30PM - 5:00PM,,,,,3:30PM - 5:00PM,S,4,N,US,111484,,2019,Dauphin
-75.63809763,40.24621235,62005,Women On The Move Ministries Incorporated,Open,"631 Chestnut Street Pottstown, PA 19464",,Pottstown,PA,19464,4843009244,,Regina,Astheimer,4843009244,Women On The Move Ministries Incorporated,2019-06-17T07:00:00.000Z,2019-08-22T07:00:00.000Z,"M,T,W,TH,F",7:15AM - 1:00PM,7:15AM - 8:15AM,12:00PM - 1:00PM,,,,"B,L",4,N,US,120202,,2019,Montgomery
-75.65632648,40.24767696,62006,Memorial Park,Open,"75 West King Street Pottstown, PA 19464",,Pottstown,PA,19464,4843009244,,Regina,Astheimer,4843009244,Women On The Move Ministries Incorporated,2019-06-24T07:00:00.000Z,2019-08-16T07:00:00.000Z,"M,T,W,TH,F",1:00PM - 2:00PM,,1:00PM - 2:00PM,,,,L,4,N,US,102255,,2019,Montgomery
-75.64364702,40.24883938,62007,Tabernacle Pentecost,Open,"381 Beech Street Pottstown, PA 19464",,Pottstown,PA,19464,4843009244,,Regina,Astheimer,4843009244,Women On The Move Ministries Incorporated,2019-07-01T07:00:00.000Z,2019-08-16T07:00:00.000Z,"M,T,W,TH,F",11:00AM - 3:00PM,,11:00AM - 11:45AM,,2:45PM - 3:00PM,,"L,A",4,N,US,113254,,2019,Montgomery
-75.67199378,40.25053111,62008,Bright Hope Community,Open,"467 West King Street Pottstown, PA 19464",,Pottstown,PA,19464,4843009244,,Regina,Astheimer,4843009244,Women On The Move Ministries Incorporated,2019-06-24T07:00:00.000Z,2019-08-16T07:00:00.000Z,"M,T,W,TH,F",12:00PM - 1:00PM,,12:00PM - 1:00PM,,,,L,4,N,US,109987,,2019,Montgomery
-76.87719044,40.27485925,62010,Downey Afternoon Summer Program,Open,"1313 Monroe street Harrisburg, PA 17103",,Harrisburg,PA,17103,7175122833,,Art,Reed,7175122833,CENTRAL PA FOOD BANK,2019-06-10T07:00:00.000Z,2019-08-16T07:00:00.000Z,"M,T,W,TH,F",3:00PM - 4:00PM,,,,,3:00PM - 4:00PM,S,4,N,US,110584,,2019,Dauphin
-76.82244609,40.23511665,62011,Summer Youth Enrichment,Open,"100 Livingston Street Steelton, PA 17113",,Steelton,PA,17113,7172336755,,Novita,Moldawsky,7172336755,CENTRAL PA FOOD BANK,2019-06-11T07:00:00.000Z,2019-08-09T07:00:00.000Z,"M,T,W,TH,F",4:30PM - 5:30PM,,,,,4:30PM - 5:30PM,S,4,N,US,113217,,2019,Dauphin
-76.89098213,40.28172745,62012,Harrisburg YMCA Boys and Girls League,Open,"2135 North Sixth Street Harrisburg, PA 17102",,Harrisburg,PA,17102,7178845189,,Maria,Nunez,7178845189,CENTRAL PA FOOD BANK,2019-06-10T07:00:00.000Z,2019-08-09T07:00:00.000Z,"M,T,W,TH,F",4:30PM - 5:30PM,,,,,4:30PM - 5:30PM,S,4,N,US,111178,,2019,Dauphin
-76.69776017,40.56709087,62013,Northern Dauphin Library,Open,"683 Main Street Lykens, PA 17048",,Lykens,PA,17048,7174539315,,Marie,Herb,7174539315,CENTRAL PA FOOD BANK,2019-06-10T07:00:00.000Z,2019-08-15T07:00:00.000Z,"M,T,W,TH",1:00PM - 2:00PM,,1:00PM - 2:00PM,,,,L,4,N,US,112335,,2019,Dauphin
-76.81319076,40.55145216,62014,Elizabethville Library,Open,"80 North Market Street Elizabethville, PA 17023",,Elizabethville,PA,17023,7173629825,,Lora,Kobel,7173629825,CENTRAL PA FOOD BANK,2019-06-11T07:00:00.000Z,2019-08-15T07:00:00.000Z,"T,W,TH",12:00PM - 1:30PM,,12:00PM - 1:30PM,,,,L,4,N,US,110700,,2019,Dauphin
-76.95432816,40.54161224,62015,Johnson Memorial Library,Open,"799 E. Center Street Millersburg, PA 17061",,Millersburg,PA,17061,7176922658,,Michael,Kattner,7176922658,CENTRAL PA FOOD BANK,2019-06-18T07:00:00.000Z,2019-08-15T07:00:00.000Z,"T,TH",12:00PM - 2:00PM,,12:00PM - 2:00PM,,,,L,4,N,US,111498,,2019,Dauphin
-76.55221175,40.78888742,62021,Lawnton W Shroyer Memorial Park,Open,"132 North Rock Street Shamokin, PA 17872",,Shamokin,PA,17872,5702741323,,Larry,Strausser,5702741323,CENTRAL PA FOOD BANK,2019-06-17T07:00:00.000Z,2019-08-23T07:00:00.000Z,"M,T,W,TH,F",11:00AM - 12:00PM,,11:00AM - 12:00PM,,,,L,4,N,US,111680,,2019,Northumberland
-76.23401649,41.07036271,62025,Good Shepard YMCA,Open,"1600 Fowler Avenue Berwick, PA 18603",,Berwick,PA,18603,5707525981,,Michael,Reigel,5707525981,CENTRAL PA FOOD BANK,2019-06-10T07:00:00.000Z,2019-08-23T07:00:00.000Z,"M,T,W,TH,F",12:00PM - 1:00PM,,12:00PM - 1:00PM,,,,L,4,N,US,111049,,2019,Columbia
-76.30181496,40.04114887,62026,Lancaster Lions,Open,"135 North Lime Street Lancaster, PA 17602",,Lancaster,PA,17602,7179613928,,Santa,Colin-Aponte,7179613928,CENTRAL PA FOOD BANK,2019-06-08T07:00:00.000Z,2019-08-10T07:00:00.000Z,"W,SA",6:00PM - 7:00PM,,,,,6:00PM - 7:00PM,S,4,N,US,111661,,2019,Lancaster
-76.49787929,40.04061089,62027,Columbia High School,Open,"901 Ironville Pike Columbia, PA 17512",,Columbia,PA,17512,7177979266,,Lori,Flick,7177979266,CENTRAL PA FOOD BANK,2019-06-10T07:00:00.000Z,2019-08-16T07:00:00.000Z,"M,T,W,TH,F",11:00AM - 1:00PM,,11:00AM - 1:00PM,,,,L,4,N,US,110352,,2019,Lancaster
-76.95723717,40.20365302,62028,Children Family Center,Open,"4909 Louise Drive Mechanicsburg, PA 17055",,Mechanicsburg,PA,17055,7176975126,,Robin,Gilbert,7176975126,CENTRAL PA FOOD BANK,2019-06-10T07:00:00.000Z,2019-08-23T07:00:00.000Z,"M,T,W,TH,F",11:00AM - 1:00PM,,11:00AM - 1:00PM,,,,L,4,N,US,117625,,2019,Cumberland
-76.83095318,40.2375847,62032,Steelton Reading Enrichment Program at Steelton Highspire Elementary School,Open,"250 Reynders Avenue Steelton, PA 17113",,Steelton,PA,17113,7177043800,4276,Samantha,Neidlinger,7177043800,CENTRAL PA FOOD BANK,2019-06-24T07:00:00.000Z,2019-08-08T07:00:00.000Z,"M,T,W,TH",9:00AM - 10:00AM,9:00AM - 10:00AM,,,,,B,4,N,US,123587,,2019,Dauphin
-76.51663408,41.98181242,62033,Encounter Church,Open,"111 South Elmer Avenue (2nd Floor) Sayre, PA 18840",2nd Floor,Sayre,PA,18840,7179190657,,April,Moore,7179190657,CENTRAL PA FOOD BANK,2019-06-24T07:00:00.000Z,2019-08-16T07:00:00.000Z,"M,W,F",11:30AM - 1:00PM,,11:30AM - 1:00PM,,,,L,4,N,US,124292,,2019,Bradford
-76.48508432,41.8096659,62034,Larnard/Hornbrook Park,Open,"1241 Hornbrook Road Towanda, PA 18848",,Towanda,PA,18848,7179190657,,April,Moore,7179190657,CENTRAL PA FOOD BANK,2019-07-08T07:00:00.000Z,2019-08-16T07:00:00.000Z,"M,T,W,TH,F",12:00PM - 12:30PM,,12:00PM - 12:30PM,,,,L,4,N,US,123109,,2019,Bradford
-76.71255346,41.94321192,62035,Ridgebury Township Community Park,Open,"13278 Berwick Turnpike Gillett, PA 16925",,Gillett,PA,16925,7179190657,,April,Moore,7179190657,CENTRAL PA FOOD BANK,2019-07-01T07:00:00.000Z,2019-08-16T07:00:00.000Z,"M,T,W,TH,F",11:30AM - 1:00PM,,11:30AM - 1:00PM,,,,L,4,N,US,123476,,2019,Bradford
-77.00822456,41.2401275,62036,City Alliance Church,Open,"380 West 4th Street Williamsport, PA 17701",,Williamsport,PA,17701,7179536752,,Andrew,Traxler,7179536752,CENTRAL PA FOOD BANK,2019-07-02T07:00:00.000Z,2019-08-15T07:00:00.000Z,"M,T,W,TH",12:00PM - 1:00PM,,12:00PM - 1:00PM,,,,L,4,N,US,122735,,2019,Lycoming
