long,lat,objectID,siteName,siteStatus,siteAddress,siteAddress2,siteCity,siteState,siteZip,sitePhone,ext,contactFirstName,contactLastName,contactPhone,sponsoringOrganization,startDate,endDate,daysofOperation,comments,breakfastTime,lunchTime,snackTimeAM,snackTimePM,dinnerSupperTime,mealTypesServed,cycleNumber,recordStatus,country,fnsid,created,season,county
-66.121803,18.38382,45481,erican Military Academy,Open,"177 carretera (Ave. Lomas Veredes) Guaynabo, PR 00969",,Guaynabo,PR,969,7877206801,,,,,Universidad Interamericana de Puerto Rico Recinto,2019-06-03T04:00:00.000Z,2019-06-28T04:00:00.000Z,"M,T,W,TH,F",8:00-3:30,,11:30-1:00,,,,L,1,N,US,130498,,2019,Bayamon
-66.49989,18.24829,45634,Liga AtlÇtica Policiaca,Open,"Calle Georgetti (Anexo Edificio Rafael Balseiro) Barceloneta, PR 00617",Anexo Edificio Rafael Balseiro,Barceloneta,PR,617,7876234566,,Nelson,Molina,7879223784,Acad. Nuestra Senora de Fatima,2019-06-10T04:00:00.000Z,2019-06-28T04:00:00.000Z,"M,T,W,TH,F",7:00 -3:00,8:00-8:30,12:00-12:30,,,,"B,L",1,N,US,130532,,2019,Orocovis
-66.49989,18.24829,45635,Oficina de Asuntos de la Juventud,Open,"Calle Georgetti (Anexo Edificio Rafael Balseiro) Barceloneta, PR 00617",Anexo Edificio Rafael Balseiro,Barceloneta,PR,617,7876234566,,Yadira,De Arce,9392489726,Acad. Nuestra Senora de Fatima,2019-06-10T04:00:00.000Z,2019-06-21T04:00:00.000Z,"M,T,W,TH,F",7:00 -3:00,8:00-8:30,11:30-12:00,,,,"B,L",1,N,US,130543,,2019,Orocovis
-66.507512,18.009296,45636,Academia Alexandra,Open,"Calle Aurora 4134 Ponce, PR 00717",,Ponce,PR,717,7875855567,,Wanda,Serrano,7875855567,Academia Cristo Rey,2019-06-03T04:00:00.000Z,2019-06-28T04:00:00.000Z,"M,T,W,TH,F",8:00-2:30,7:15-8:15,11:10-12:10,,,,"B,L",1,N,US,130439,,2019,Juana Diaz
-66.515485,18.029284,45637,Centro de Cuido Infatil Huellita,Open,"Bo. uelas Carretera 510 Km 1.2 Juana D°az, PR 00795",,Juana D°az,PR,795,7872605757,,Bernardette,Serra,7873714740,Academia Cristo Rey,2019-06-03T04:00:00.000Z,2019-06-28T04:00:00.000Z,"M,T,W,TH,F",6:30-5:20,7:30-8:30,11:50-12:50,,,,"B,L",1,N,US,130457,,2019,Juana Diaz
-66.603904,18.027185,45638,Cpamento Cristo Rey,Open,"Urb. La Rbla calle San Judas 3011 Ponce, PR 00716",,Ponce,PR,716,7878360766,103,Gicela,Bonilla,7878430766,Academia Cristo Rey,2019-06-03T04:00:00.000Z,2019-06-28T04:00:00.000Z,"M,T,W,TH,F",7:30-3:30,7:30-8:30,11:00-12:00,,,,"B,L",1,N,US,130482,,2019,Ponce
-66.648368,17.995711,45639,Cpamento Renaciendo,Open,"Sector Punta Diante Cslle Sor Rosa Rivera GG14 Ponce, PR 00728",,Ponce,PR,728,9396452735,,Javier,Gonzalez,9396452735,Academia Cristo Rey,2019-06-03T04:00:00.000Z,2019-06-14T04:00:00.000Z,"M,T,W,TH,F",8:00-2:00,8:00-9:00,12:00-1:00,,,,"B,L",1,N,US,130489,,2019,Ponce
-66.601287,18.007186,45642,Kids Club Summer Cp,Open,"Bo. Cuatro Calle Fagot # 14 Ponce, PR 00730",,Ponce,PR,730,7873549321,,Maria Cristina,Barnes,7873549321,Academia Cristo Rey,2019-06-03T04:00:00.000Z,2019-06-28T04:00:00.000Z,"M,T,W,TH,F",8:00-4:00,7:20-8:20,11:20-12:20,,,,"B,L",1,N,US,130531,,2019,Ponce
-66.637265,18.011069,45643,Love Kids,Open,"Calle Villa Final #455 Ponce, PR 00728",,Ponce,PR,728,7872199019,,Patricia,Giorgi,7872163393,Academia Cristo Rey,2019-06-03T04:00:00.000Z,2019-06-28T04:00:00.000Z,"M,T,W,TH,F",7:00-5:00,7:30-8:30,11:10-12:10,,,,"B,L",1,N,US,130535,,2019,Ponce
-66.587769,18.010918,45644,Mis Huellitas Day Care,Open,"Paseo Villa Flores 1617 Ponce, PR 00717",,Ponce,PR,717,7873932251,,Melissa,Rivera,7873932251,Academia Cristo Rey,2019-06-03T04:00:00.000Z,2019-06-28T04:00:00.000Z,"M,T,W,TH,F",7:00-6:00,7:15-8:15,11:00-12:00,,,,"B,L",1,N,US,130538,,2019,Ponce
-66.578175,18.009116,45646,Tiger Cp,Open,"104 Turpeaux Indutrial Park Ponce, PR 00715",,Ponce,PR,715,7872841912,2248,Hilda,Stela,7879340262,Academia Cristo Rey,2019-06-03T04:00:00.000Z,2019-06-28T04:00:00.000Z,"M,T,W,TH,F",8:00-4:00,7:40-8:40,11:20-12:20,,,,"B,L",1,N,US,130595,,2019,Ponce
-66.503846,18.048262,45647,Villas del Parque,Open,"B2 Ext. Del Carmen Calle 7 Juana D°az, PR 00795",,Juana D°az,PR,795,7878376485,,Noelis,Guzman,7879083147,Academia Cristo Rey,2019-06-03T04:00:00.000Z,2019-06-28T04:00:00.000Z,"M,T,W,TH,F",8:00-12:00,7:30-8:30,11:30-12:30,,,,"B,L",1,N,US,130604,,2019,Juana Diaz
-66.045108,18.437988,45648,HIJAS DE MARIA AUXILIADORA,Open,"AVE EDUARDO CONDE 2273 (VILLA PALMERAS, SANTURCE) San Juan, PR 00915","VILLA PALMERAS, SANTURCE",San Juan,PR,915,7877264006,,EDGARDO,ZAYAS,7877268288,"Academia Maria Auxiliadora, Inc. Santurce",2019-06-03T04:00:00.000Z,2019-06-28T04:00:00.000Z,"M,T,W,TH,F",6:30-2:30,7:30-8:30,11:15-12:45,,,,"B,L",1,N,US,130515,,2019,San Juan
-66.619838,18.001998,45649,Academia Santa Maria Reina,Open,"Reparto Universidad Interior Ponce, PR 00732",,Ponce,PR,732,7878421164,261,Eulalia,Vidarte,7878421164,Academia Santa Mar°a Reina,2019-06-03T04:00:00.000Z,2019-06-28T04:00:00.000Z,"M,T,W,TH,F",6:00 -2:00,7:00 -8:00,11:30 -1:00,,,,"B,L",1,N,US,130441,,2019,Ponce
-66.619838,18.001998,45650,Cuido Aida Carde A.S.M.R,Open,"Reparto Universidad Interior Ponce, PR 00732",,Ponce,PR,732,7878421164,265,Lenny,Natal,,Academia Santa Mar°a Reina,2019-06-03T04:00:00.000Z,2019-06-28T04:00:00.000Z,"M,T,W,TH,F",7:00 -8:00,7:30 -8:00,11:00 -11:30,,,,"B,L",1,N,US,130493,,2019,Ponce
-66.538649,18.451819,45651,Esc. Juan Antonio Corretjer,Open,"Carretera 146 Km 27 Barrio Cordillera Ciales, PR 00638",,Ciales,PR,638,,,Diphna,San Miguel,7874450240,Autoridad Escolar de Alimentos-DE,2019-06-03T04:00:00.000Z,2019-08-02T04:00:00.000Z,"M,T,W,TH,F",7:00-3:00,7:00-8:00,11:00-1:00,,,,"B,L",1,N,US,113931,,2019,Barceloneta
-66.8522,18.465579,45652,Esc. Luis F Crespo,Open,"Carretera 486 K3 Barrio Puente Camuy, PR 00627",,Camuy,PR,627,,,Jessica,Hernandez,7872073709,Autoridad Escolar de Alimentos-DE,2019-06-03T04:00:00.000Z,2019-08-02T04:00:00.000Z,"M,T,W,TH,F",7:00-3:00,7:00-8:00,11:00-1:00,,,,"B,L",1,N,US,113940,,2019,Camuy
-66.89159,18.432628,45653,Esc. Luis F. Rodriguez,Open,"Carretera 483 Barrio Piedra Gorda Camuy, PR 00627",,Camuy,PR,627,,,Jessica,Hernandez,7872073709,Autoridad Escolar de Alimentos-DE,2019-06-03T04:00:00.000Z,2019-08-02T04:00:00.000Z,"M,T,W,TH,F",7:00-3:00,7:00-8:30,11:00-12:30,,,,"B,L",1,N,US,125961,,2019,Camuy
-66.395245,18.215964,45654,"CCD Arrullo Maternal, Inc",Open,"PR 155 km 26 Salida a Coo (P. O. Box 1347) Orocovis, PR 00720",P. O. Box 1347,Orocovis,PR,720,7873915251,,Glendaly,Torres,7879234419,"CCD Arrullo Maternal, Inc.",2019-05-28T04:00:00.000Z,2019-06-28T04:00:00.000Z,"M,T,W,TH,F",6:00 - 5:00,8:00 - 9:00,11:00 - 1:00,,,,"B,L",1,N,US,130455,,2019,Orocovis
-66.395245,18.215965,45655,"CCD Arrullo Maternal, Inc",Open,"PR 155 km 26 Salida a Coo (P.O. Box 1347) Orocovis, PR 00720",P.O. Box 1347,Orocovis,PR,720,7873915251,,Glendaly,Torres,7879234419,"CCD Arrullo Maternal, Inc.",2019-05-28T04:00:00.000Z,2019-06-28T04:00:00.000Z,"M,T,W,TH,F",6:00 - 5:00,8:00 - 9:00,11:00 - 1:00,,,,"B,L",1,N,US,130455,,2019,Orocovis
-67.149436,18.313077,45660,Don Frappe Summer Cp.,Open,"PR 2 2625 A§asco, PR 00610",,A§asco,PR,610,,,Javier,,,Centro Cuidado Diurno Valeriana Inc.,2019-06-03T04:00:00.000Z,2019-07-03T04:00:00.000Z,"M,T,W,TH,F",7:00-5:00,7:30-8:30,11:30-12:30,,,,"B,L",1,N,US,130496,,2019,Anasco
-67.13962,18.28273,45661,Little Kid Adventure Day Care,Open,"Calle Manuel Hernandez Rosa # 29 (Pueblo) A§asco, PR 00610",Pueblo,A§asco,PR,610,,,Cristina,Molinari,,Centro Cuidado Diurno Valeriana Inc.,2019-05-20T04:00:00.000Z,2019-07-12T04:00:00.000Z,"M,T,W,TH,F",7:00-5:00,7:30-8:30,11:30-12:30,,,,"B,L",1,N,US,126054,,2019,Anasco
-67.2499,18.3403,45662,Trialoton Rincoeno,Open,"Balneaio de Rincon Carr. 115 (Bo; Cbija) Rinc¢n, PR 00627",Bo; Cbija,Rinc¢n,PR,627,,,Eddie,Gonzalez,,Centro Cuidado Diurno Valeriana Inc.,2019-06-08T04:00:00.000Z,2019-06-09T04:00:00.000Z,SA,6:30-5:00,6:45-7:45,,,,,B,1,N,US,130597,,2019,Rincon
-67.168191,18.299397,45663,Valeriana Summer Cp.,Open,"Carr. 402 km. 4.8 Bo: Pinales Abajo (RR- buzon 2455) A§asco, PR 00610",RR- buzon 2455,A§asco,PR,610,7878264016,,arilis,Rirez,7883433489,Centro Cuidado Diurno Valeriana Inc.,2019-05-20T04:00:00.000Z,2019-07-12T04:00:00.000Z,"M,T,W,TH,F",7:00-5:00,7:00-8:00,11:30-12:30,,,,"B,L",1,N,US,130599,,2019,Anasco
-67.158593,18.277896,45664,Wet Wild Summer Cp.,Open,"Jardines Hacienda Libertad Carr. 2.6 (Bo: Pozo Hondo) A§asco, PR 00610",Bo: Pozo Hondo,A§asco,PR,610,,,Maribel,Hernandez,,Centro Cuidado Diurno Valeriana Inc.,2019-06-03T04:00:00.000Z,2019-07-12T04:00:00.000Z,"M,T,W,TH,F",6:30-5:00,7:15-8:15,11:15-12:15,,,,"B,L",1,N,US,130608,,2019,Anasco
-66.401285,18.425562,45665,Cpamento Recreativo y Deportivo Municipio de Vega Baja,Open,"Carr. 687 Km. 1.1Bo. Algarrobo Sector Tortuguero Vega Baja, PR 00693",,Vega Baja,PR,693,7876042049,,Adolfo,Torrech,7876042049,Christian Military Academy Inc,2019-06-03T04:00:00.000Z,2019-06-28T04:00:00.000Z,"M,T,W,TH,F",8:00-5:00,8:00-900,11:00-12:00,,3:00-3:30,,"B,L,A",1,N,US,130488,,2019,Vega Baja
-67.141109,18.233715,45666,All Star Summer Cp,Open,"Escuela SESO, Calle Pitillo Sector Cuba #1765 MayagÅez, PR 00682",,MayagÅez,PR,682,7878342150,,Javier,Rivera,7874588091,Cinderella Nursery Day Care Center Inc.,2019-06-03T04:00:00.000Z,2019-06-28T04:00:00.000Z,"M,T,W,TH,F",6:30-3:00,7:30-8:30,11:45-12:45,,,,"B,L",1,N,US,130443,,2019,Mayaguez
-67.147959,18.225951,45667,Cinderella Nursery Day Care Center Inc,Open,"Los Ingenieros 464 Algarrobo MayagÅez, PR 00682",,MayagÅez,PR,682,7878343770,,Luz,Gonzalez,7874143040,Cinderella Nursery Day Care Center Inc.,2019-05-20T04:00:00.000Z,2019-07-19T04:00:00.000Z,"M,T,W,TH,F",6:00-3:00,7:30-8:30,11:30-1:30,,,,"B,L",1,N,US,130463,,2019,Mayaguez
-67.143515,18.211188,45668,Cpamento Tarzan,Open,"Recinto Universitario de Mayaguez MayagÅez, PR 00682",,MayagÅez,PR,682,7878324040,,Jose,Gonzalez,7872169237,Cinderella Nursery Day Care Center Inc.,2019-07-01T04:00:00.000Z,2019-07-19T04:00:00.000Z,"M,T,W,TH,F",6:30-3:00,7:30-9:00,11:30-1:00,,,,"B,L",1,N,US,130490,,2019,Mayaguez
-67.090279,18.15803,45669,Iglesia Fuente de Luz,Open,"Calle Nestor Torres 200 Poblado Rosario MayagÅez, PR 00682",,MayagÅez,PR,682,7878314041,,Jesica,Acosta,7875793107,Cinderella Nursery Day Care Center Inc.,2019-06-03T04:00:00.000Z,2019-07-19T04:00:00.000Z,"M,T,W,TH,F",6:00-1:30,7:00-8:00,11:00-12:00,,,,"B,L",1,N,US,130522,,2019,Mayaguez
-67.140419,18.232028,45670,Iglesia La Vi§a,Open,"Cino Pitillo Sector Cuba # 1750 MayagÅez, PR 00682",,MayagÅez,PR,682,7878328462,,Carmen,Rivera,7876622221,Cinderella Nursery Day Care Center Inc.,2019-06-17T04:00:00.000Z,2019-06-28T04:00:00.000Z,"M,T,W,TH,F",6:30-2:00,7:30-8:30,12:00-1:00,,,,"B,L",1,N,US,130523,,2019,Mayaguez
-67.153688,18.212834,45671,Res Concordia,Open,"Callle Concordia 110 El Seco MayagÅez, PR 00682",,MayagÅez,PR,682,7872605100,,Wanda,Nazario,9398653118,Cinderella Nursery Day Care Center Inc.,2019-06-17T04:00:00.000Z,2019-07-19T04:00:00.000Z,"M,T,W,TH,F",11:30-1:30,,12:00-1:00,,,,L,1,N,US,130556,,2019,Mayaguez
-67.151218,18.192813,45672,Res Kennedy,Open,"Ave Willi Duscombe MayagÅez, PR 00682",,MayagÅez,PR,682,9392264540,,Luz,Crespo,7879067548,Cinderella Nursery Day Care Center Inc.,2019-06-03T04:00:00.000Z,2019-07-19T04:00:00.000Z,"M,T,W,TH,F",11:00-2:00,,12:00-1:00,,,,L,1,N,US,130557,,2019,Mayaguez
-67.159038,18.187287,45673,Res Rirez de Arellano,Open,"Calle Antonio Paoli Rirez de Arellano MayagÅez, PR 00682",,MayagÅez,PR,682,7876281142,,Maria,Rirez,7874644185,Cinderella Nursery Day Care Center Inc.,2019-05-28T04:00:00.000Z,2019-07-19T04:00:00.000Z,"M,T,W,TH,F",11:30-1:30,,12:00-1:00,,,,L,1,N,US,130558,,2019,Mayaguez
-67.143443,18.200902,45674,Semillita de or,Open,"Ernesto Ros Antonini #53 MayagÅez, PR 00682",,MayagÅez,PR,682,7878068337,,Melanie,Matos,7874642859,Cinderella Nursery Day Care Center Inc.,2019-05-20T04:00:00.000Z,2019-07-19T04:00:00.000Z,"M,T,W,TH,F",6:00-2:00,7:00-8:00,11:00-12:00,,,,"B,L",1,N,US,130584,,2019,Mayaguez
-66.032604,18.343194,45676,Iglesia Bautista de Carraizo,Open,"C/1 Esq #2 Carraizo Trujillo Alto, PR 00776",,Trujillo Alto,PR,776,7874366001,,Eliel,Delgado,7874366001,Colegio La Milagrosa,2019-07-01T04:00:00.000Z,2019-07-12T04:00:00.000Z,"M,T,W,TH,F",7:00-3:00,7:00-9:00,11:00-1:30,,,,"B,L",1,N,US,130519,,2019,Trujillo Alto
-66.626181,18.014597,45677,Abriendo cino (arbol),Open,"Calle Fagos #64 Ponce, PR 00730 Ponce, PR 00716",,Ponce,PR,716,7879018303,,Cindy,Colon,7879018303,Colegio La Milagrosa,2019-06-17T04:00:00.000Z,2019-06-28T04:00:00.000Z,"M,T,W,TH,F",7:00-3:00,7:00-9:00,11:00-1:30,,,,"B,L",1,N,US,130438,,2019,Ponce
-66.591857,18.042108,45678,Adventure Summer Cp,Open,"Urb. Glenview Ponce Calle Fuerza Ponce, PR 00716",,Ponce,PR,716,7873666062,,Daisy,Santiago,7873666062,Colegio La Milagrosa,2019-06-03T04:00:00.000Z,2019-06-28T04:00:00.000Z,"M,T,W,TH,F",7:00-3:00,7:00-9:00,11:00-1:30,,,,"B,L",1,N,US,130442,,2019,Ponce
-66.0235,18.3538,45680,Bothers Promotion,Open,"Urb Alturas de Fairview Complejo Deportivo Trujillo Alto, PR 00960",,Trujillo Alto,PR,960,7875031489,,Dalia,Lopez,7875951335,Colegio La Milagrosa,2019-06-03T04:00:00.000Z,2019-07-12T04:00:00.000Z,"M,T,W,TH,F",7:00-3:00,7:00-9:00,11:00-1:30,,,,"B,L",1,N,US,130451,,2019,Trujillo Alto
-66.623796,17.985364,45681,C.S.I Hospic Playa,Open,"Tabaiba Centro Sor Isolina Playa Mini Universidad Ponce, PR 00716",,Ponce,PR,716,7875054998,,Marilyz,Feliciano,7875054998,Colegio La Milagrosa,2019-06-03T04:00:00.000Z,2019-06-26T04:00:00.000Z,"M,T,W,TH,F",7:00-3:00,7:00-9:00,11:00-1:30,,,,"B,L",1,N,US,130453,,2019,Ponce
-66.626775,18.017812,45682,Centro San Francisco,Open,"BO. Tarindo Calle Tamas #105 Ponce, PR 00716",,Ponce,PR,716,7878422776,,Sonia,Pagan,7878422776,Colegio La Milagrosa,2019-06-03T04:00:00.000Z,2019-07-12T04:00:00.000Z,"M,T,W,TH,F,SA",7:00-3:00,7:00-9:00,11:00-1:30,,,,"B,L",1,N,US,130459,,2019,Ponce
-66.668345,17.98681,45683,Centro Sor Isolina (El Tuque),Open,"El tuque Brisas del Caribe Calle Club de Tiros Centro Comunal Ponce, PR 00716",,Ponce,PR,716,7872020939,,Rosalia,Torres,7872020939,Colegio La Milagrosa,2019-06-03T04:00:00.000Z,2019-06-26T04:00:00.000Z,"M,T,W,TH,F",7:00-3:00,7:00-9:00,11:00-1:30,,,,"B,L",1,N,US,130460,,2019,Ponce
-66.06366,18.367715,45684,Cheer Summer (Montesori),Open,"178 Ave Winston Churchill Trujillo Alto, PR 00920",,Trujillo Alto,PR,920,7873941682,,Cristina,Burns,7873341682,Colegio La Milagrosa,2019-06-03T04:00:00.000Z,2019-06-28T04:00:00.000Z,"M,T,W,TH,F",7:00-3:00,7:00-9:00,11:00-1:30,,,,"B,L",1,N,US,130461,,2019,San Juan
-66.580766,18.040316,45685,Chikas Fashion Cp/ Digital,Open,"Club de Leones de Ponce Carr. 14 Ponce, PR 00716",,Ponce,PR,716,7873666062,,Daisy,Santiago,7873666062,Colegio La Milagrosa,2019-06-03T04:00:00.000Z,2019-06-28T04:00:00.000Z,"M,T,W,TH,F",7:00-3:00,7:00-9:00,11:00-1:30,,,,"B,L",1,N,US,130462,,2019,Ponce
-66.611015,18.012129,45686,COLEGIO EPISCOPAL SANTISIMA TRINIDAD,Open,"Calle Salud 1331 Ponce, PR 00716",,Ponce,PR,716,7878421331,,Hector,Castro,7878421331,Colegio La Milagrosa,2019-06-03T04:00:00.000Z,2019-06-28T04:00:00.000Z,"M,T,W,TH,F",7:00-3:00,7:00-9:00,11:00-1:30,,,,"B,L",1,N,US,130467,,2019,Ponce
-66.607836,18.017902,45687,Colegio La Milagrosa,Open,"CALLE GUADALUPE #9 Ponce, PR 00716",,Ponce,PR,716,7878414728,,Grisel,Carrasquillo,7878414728,Colegio La Milagrosa,2019-06-03T04:00:00.000Z,2019-07-12T04:00:00.000Z,"M,T,W,TH,F",7:00-3:00,7:00-9:00,11:00-1:30,,,,"B,L",1,N,US,130468,,2019,Ponce
-66.02642,18.38516,45688,Colegio Nuestra Se§ora del Carmen,Open,"Carr 181 Km 1.6 Trujillo Alto, PR 00920",,Trujillo Alto,PR,920,7877618010,,Elizabeth,Andino,7877618010,Colegio La Milagrosa,2019-06-03T04:00:00.000Z,2019-06-28T04:00:00.000Z,"M,T,W,TH,F",7:00-3:00,7:00-9:00,11:00-1:30,,,,"B,L",1,N,US,130474,,2019,San Juan
-66.60601,18.00552,45689,COPERATIVA LA CEIBA,Open,"Sector Cuatro Calles Avenida La Ceiba Ponce, PR 00716",,Ponce,PR,716,7878430255,,Walkiria,Ruiz,7878430255,Colegio La Milagrosa,2019-06-10T04:00:00.000Z,2019-07-05T04:00:00.000Z,"M,T,W,TH,F",7:00-3:00,7:00-9:00,11:00-1:30,,,,"B,L",1,N,US,130478,,2019,Ponce
-66.620948,18.001972,45690,Diversion y Ense§anza,Open,"Ave. Mu§oz Rivera 1587 Ponce PR 00717 Ponce, PR 00716",,Ponce,PR,716,7878412068,,Jesus,Sepulveda,7878412068,Colegio La Milagrosa,2019-06-03T04:00:00.000Z,2019-07-12T04:00:00.000Z,"M,T,W,TH,F",7:00-3:00,7:00-9:00,11:00-1:30,,,,"B,L",1,N,US,130494,,2019,Ponce
-66.632903,18.032741,45691,Estancias del Golf,Open,"Estancias del Golf 801 Ave. Anita Mosley Ponce Ponce, PR 00716",,Ponce,PR,716,7872846127,,Jose,Rodriguez,7872846127,Colegio La Milagrosa,2019-06-03T04:00:00.000Z,2019-06-28T04:00:00.000Z,"M,T,W,TH,F",7:00-3:00,7:00-9:00,11:00-1:30,,,,"B,L",1,N,US,130501,,2019,Ponce
-66.558056,18.057776,45692,Fily Christian,Open,"Carr. 14 Parcela M-17 Bo. Cerillo Hoyos Ponce, PR 00716",,Ponce,PR,716,7872847777,,Vaniliz,Perez,7872847777,Colegio La Milagrosa,2019-06-04T04:00:00.000Z,2019-06-28T04:00:00.000Z,"M,T,W,TH,F",7:00-3:00,7:00-9:00,11:00-1:30,,,,"B,L",1,N,US,130502,,2019,Ponce
-66.656456,18.066363,45693,Fily Comunidades Cerillo Hoyos,Open,"Centro Comunal Bo. Cerillo Hoyos Km 7.0 Ponce, PR 00716",,Ponce,PR,716,7872847777,,Vaniliz,Perez,7872847777,Colegio La Milagrosa,2019-07-01T04:00:00.000Z,2019-07-12T04:00:00.000Z,"M,T,W,TH,F",7:00-3:00,7:00-9:00,11:00-1:30,,,,"B,L",1,N,US,130503,,2019,Ponce
-66.553679,18.042767,45694,Fily Comunidades Palmarejo,Open,"Calle Acerola Coto Laurel Ponce, PR 00716",,Ponce,PR,716,7872847777,,Vaniliz,Perez,7872847777,Colegio La Milagrosa,2019-07-01T04:00:00.000Z,2019-07-12T04:00:00.000Z,"M,T,W,TH,F",7:00-3:00,7:00-9:00,11:00-1:30,,,,"B,L",1,N,US,130504,,2019,Ponce
-66.610138,18.043473,45696,Fily Comunidades Ponce Housing,Open,"Carr. # 504 Bo. R°o Chiquito Ponce, PR 00716",,Ponce,PR,716,7872847777,,Vaniliz,Perez,7872847777,Colegio La Milagrosa,2019-07-01T04:00:00.000Z,2019-07-12T04:00:00.000Z,"M,T,W,TH,F",7:00-3:00,7:00-9:00,11:00-1:30,,,,"B,L",1,N,US,130506,,2019,Ponce
-66.600261,18.014127,45697,FLOWERS STEP BY STEP,Open,"Avenida Emilio Fagot #2914 Suite B Ponce PR 00717 Ponce, PR 00716",,Ponce,PR,716,7876891246,,Stefanice,Rivera,7876891246,Colegio La Milagrosa,2019-06-03T04:00:00.000Z,2019-07-12T04:00:00.000Z,"M,T,W,TH,F",7:00-3:00,7:00-9:00,11:00-1:30,,,,"B,L",1,N,US,130507,,2019,Ponce
-66.61214,18.014613,45698,Fundacion Biblioteca Rafael H.,Open,"Calle Mayor #50 esq Calle Castillo Ponce, PR 00716",,Ponce,PR,716,7873655468,,Carolina,Calzada,7873655468,Colegio La Milagrosa,2019-06-03T04:00:00.000Z,2019-06-28T04:00:00.000Z,"M,T,W,TH,F",7:00-3:00,7:00-9:00,11:00-1:30,,,,"B,L",1,N,US,130508,,2019,Ponce
-66.61804,18.01357,45699,IGL BETHEL DEL SUR,Open,"Centro Comunal La Ceiba Bo. Sabanetas c/Acacia Ponce Ponce, PR 00716",,Ponce,PR,716,7878136458,,Gabriel,Ruiz,7878136458,Colegio La Milagrosa,2019-07-08T04:00:00.000Z,2019-07-12T04:00:00.000Z,"M,T,W,TH,F",7:00-3:00,7:00-9:00,11:00-1:30,,,,"B,L",1,N,US,130517,,2019,Ponce
-66.598934,18.003609,45700,Innovation & Fashionista,Open,"Centro Comunal Urb. Constancia Ponce, PR 00716",,Ponce,PR,716,9396405947,,Jadieliz,Mangual,9396405947,Colegio La Milagrosa,2019-06-04T04:00:00.000Z,2019-06-27T04:00:00.000Z,"M,T,W,TH,F",7:00-3:00,7:00-9:00,11:00-1:30,,,,"B,L",1,N,US,130526,,2019,Ponce
-66.620424,17.982142,45701,Julia Torres Colegio Metodista,Open,"Ave. Hostos # 835 Ponce (NETS) Ponce, PR 00716",NETS,Ponce,PR,716,7878427264,,Ana,Casillas,7878427264,Colegio La Milagrosa,2019-06-03T04:00:00.000Z,2019-06-07T04:00:00.000Z,"M,T,W,TH,F",7:00-3:00,7:00-9:00,11:00-1:30,,,,"B,L",1,N,US,130530,,2019,Ponce
-66.6263,18.0383,45703,My Little Castle Day Care,Open,"Urb. Mariani Calle Mc Manus # 5336 Ponce, PR 00731 Ponce, PR 00716",,Ponce,PR,716,7874075745,,Lisandra,Leon,7874075745,Colegio La Milagrosa,2019-06-03T04:00:00.000Z,2019-07-12T04:00:00.000Z,"M,T,W,TH,F",7:00-3:00,7:00-9:00,11:00-1:30,,,,"B,L",1,N,US,130539,,2019,Ponce
-66.644131,18.031896,45704,Natacion Verano,Open,"Urb. Las Delicias 606 Calle Juan Rodon Ponce,PR Ponce, PR 00716",,Ponce,PR,716,7873909070,,Macks,Borrero,7873909070,Colegio La Milagrosa,2019-07-01T04:00:00.000Z,2019-07-12T04:00:00.000Z,"M,T,W,TH,F",7:00-3:00,7:00-9:00,11:00-1:30,,,,"B,L",1,N,US,130540,,2019,Ponce
-66.618612,17.964359,45705,"Nautico Ponce Yatch & Fishing Club, Inc.",Open,"3631 Paseo La Guancha Ponce, PR Ponce, PR 00716",,Ponce,PR,716,7878429003,,Jorge,Miranda,7878429003,Colegio La Milagrosa,2019-06-03T04:00:00.000Z,2019-06-28T04:00:00.000Z,"M,T,W,TH,F",7:00-3:00,7:00-9:00,11:00-1:30,,,,"B,L",1,N,US,130541,,2019,Ponce
-66.634064,18.001256,45708,Ponce Olympic,Open,"75 Bolevar Ruth Fernandez Urb Madrigal Colegio Ingeniero Ponce, PR 00716",,Ponce,PR,716,7879031247,,Antonio,Gonzalez,7879031274,Colegio La Milagrosa,2019-06-03T04:00:00.000Z,2019-06-28T04:00:00.000Z,"M,T,W,TH,F",7:00-3:00,7:00-9:00,11:00-1:30,,,,"B,L",1,N,US,130547,,2019,Ponce
-66.600306,17.998728,45709,Ponce Value and Education Academy,Open,"Calle Marina Esq. Ferrocaril Orengo Medical Build Ponce, PR 00716",,Ponce,PR,716,7874130589,,Iris,Laracuente,7874130589,Colegio La Milagrosa,2019-06-03T04:00:00.000Z,2019-07-12T04:00:00.000Z,"M,T,W,TH,F",7:00-3:00,7:00-9:00,11:00-1:30,,,,"B,L",1,N,US,130549,,2019,Ponce
-66.614838,18.001975,45710,PUCPR PREESCOLAR,Open,"2250 Boulevard Luis A Ferre Aguayo Suite 604 Ponce, PR 00716",,Ponce,PR,716,7878412000,,Admin,Pre-escolar,7878412000,Colegio La Milagrosa,2019-06-03T04:00:00.000Z,2019-06-28T04:00:00.000Z,"M,T,W,TH,F",7:00-3:00,7:00-9:00,11:00-1:30,,,,"B,L",1,N,US,130553,,2019,Ponce
-66.603884,18.021091,45711,Res. 2da ext. Dr. Pila (Residentes),Open,"Centro Comunal Ave. Alcazar Carrt. #14 Ponce P.R 00716 Ponce, PR 00716",,Ponce,PR,716,7879966734,,Maria,Roque,7879966734,Colegio La Milagrosa,2019-06-03T04:00:00.000Z,2019-07-12T04:00:00.000Z,"M,T,W,TH,F",7:00-3:00,7:00-9:00,11:00-1:30,,,,"B,L",1,N,US,130559,,2019,Ponce
-66.619833,17.9847,45712,RESIDENCIAL CARIBE,Open,"71-79 cll Alfonso Xll Playa Ponce (Individual Management) Ponce, PR 00716",Individual Management,Ponce,PR,716,7872407118,,Christian,Perez,7872407118,Colegio La Milagrosa,2019-06-17T04:00:00.000Z,2019-06-28T04:00:00.000Z,"M,T,W,TH,F",7:00-3:00,7:00-9:00,11:00-1:30,,,,"B,L",1,N,US,130560,,2019,Ponce
-66.60293,18.02054,45713,RESIDENCIAL DR PILA 1RA EXT (CPAMENTO),Open,"Calle Alc†zar al norte, Carr. #14 al sur Urb. Alhbra al oeste y Urb. La Rambla al este (Individual Management) Ponce, PR 00716",Individual Management,Ponce,PR,716,7872407118,,Christian,Perez,7872407118,Colegio La Milagrosa,2019-06-17T04:00:00.000Z,2019-06-28T04:00:00.000Z,"M,T,W,TH,F",7:00-3:00,7:00-9:00,11:00-1:30,,,,"B,L",1,N,US,130561,,2019,Ponce
-66.604,18.021,45714,RESIDENCIAL DR PILA 2DA EXT (CPAMENTO),Open,"Calle Alc†zar al Norte, Carr. #14 al Sur Urb. Alhbra al Oeste y Urb. La Rambla al Este (Individual Management) Ponce, PR 00716",Individual Management,Ponce,PR,716,7872407118,,Christian,Perez,7872407118,Colegio La Milagrosa,2019-06-17T04:00:00.000Z,2019-06-28T04:00:00.000Z,"M,T,W,TH,F",7:00-3:00,7:00-9:00,11:00-1:30,,,,"B,L",1,N,US,130562,,2019,Ponce
-66.64681,18.006043,45715,RESIDENCIAL GOLDEN VIEW,Open,"Bo. Baraya Calle Vista Dorada (Individual Management) Ponce, PR 00716",Individual Management,Ponce,PR,716,7872407118,,Christian,Perez,7872407118,Colegio La Milagrosa,2019-06-17T04:00:00.000Z,2019-06-28T04:00:00.000Z,"M,T,W,TH,F",7:00-3:00,7:00-9:00,11:00-1:30,,,,"B,L",1,N,US,130563,,2019,Ponce
-66.61406,18.01108,45716,RESIDENCIAL JOSE GANDARA,Open,"Bulevar Miguel de Pou Al lado del Centro Sur (Individual Management) Ponce, PR 00716",Individual Management,Ponce,PR,716,7872407118,,Christian,Perez,7872407118,Colegio La Milagrosa,2019-06-17T04:00:00.000Z,2019-06-28T04:00:00.000Z,"M,T,W,TH,F",7:00-3:00,7:00-9:00,11:00-1:30,,,,"B,L",1,N,US,130564,,2019,Ponce
-66.632169,17.9894,45717,RESIDENCIAL LIRIOS DEL SUR,Open,"Calle Marlin Sector Guanchita Playa Ponce (Individual Management) Ponce, PR 00716",Individual Management,Ponce,PR,716,7872407118,,Christian,Perez,7872407118,Colegio La Milagrosa,2019-06-17T04:00:00.000Z,2019-06-28T04:00:00.000Z,"M,T,W,TH,F",7:00-3:00,7:00-9:00,11:00-1:30,,,,"B,L",1,N,US,130566,,2019,Ponce
-66.607129,18.027,45718,RESIDENCIAL LOS ROSALES,Open,"Ave. Fragot Final Bo. Machuelo Ave. Fragot Final Bo. Machuelo Ave. Fragot Final Bo. Machuelo (Individual Management) Ponce, PR 00716",Individual Management,Ponce,PR,716,7872407118,,Christian,Perez,7872407118,Colegio La Milagrosa,2019-06-17T04:00:00.000Z,2019-06-28T04:00:00.000Z,"M,T,W,TH,F",7:00-3:00,7:00-9:00,11:00-1:30,,,,"B,L",1,N,US,130567,,2019,Ponce
-66.603488,18.019487,45719,RESIDENCIAL MANUEL DE LA PILA,Open,"Calle Alc†zar al norte, Carr. #14 al sur Urb. Alhbra al oeste y Urb. La Rambla al este (Individual Management) Ponce, PR 00716",Individual Management,Ponce,PR,716,7872407118,,Christian,Perez,7872407118,Colegio La Milagrosa,2019-06-17T04:00:00.000Z,2019-06-28T04:00:00.000Z,"M,T,W,TH,F",7:00-3:00,7:00-9:00,11:00-1:30,,,,"B,L",1,N,US,130568,,2019,Ponce
-66.624281,18.0081,45720,RESIDENCIAL PEDRO ROSALY,Open,"Ave. Roosevelt Frente al Colegio San Conrrado (Individual Management) Ponce, PR 00716",Individual Management,Ponce,PR,716,7872407118,,Christian,Perez,7872407118,Colegio La Milagrosa,2019-06-17T04:00:00.000Z,2019-06-28T04:00:00.000Z,"M,T,W,TH,F",7:00-3:00,7:00-9:00,11:00-1:30,,,,"B,L",1,N,US,130569,,2019,Ponce
-66.635,18.0148,45721,RESIDENCIAL PERLA DEL BUCANA,Open,"Calle Villa Final Frente Esc. Olimpo Otero (Individual Management) Ponce, PR 00716",Individual Management,Ponce,PR,716,7872407118,,Christian,Perez,7872407118,Colegio La Milagrosa,2019-06-17T04:00:00.000Z,2019-06-28T04:00:00.000Z,"M,T,W,TH,F",7:00-3:00,7:00-9:00,11:00-1:30,,,,"B,L",1,N,US,130570,,2019,Ponce
-66.607487,18.0392,45722,RESIDENCIAL PERLA DEL CARIBE,Open,"Bo. R°o Chiquito Cerca Cementerio Municipal (Individual Management) Ponce, PR 00716",Individual Management,Ponce,PR,716,7872407118,,Christian,Perez,7872407118,Colegio La Milagrosa,2019-06-17T04:00:00.000Z,2019-06-28T04:00:00.000Z,"M,T,W,TH,F",7:00-3:00,7:00-9:00,11:00-1:30,,,,"B,L",1,N,US,130571,,2019,Ponce
-66.610149,18.0435,45723,RESIDENCIAL PONCE HOUSING,Open,"Carr. # 504 Bo. R°o Chiquito (Individual Management) Ponce, PR 00716",Individual Management,Ponce,PR,716,7872407118,,Christian,Perez,7872407118,Colegio La Milagrosa,2019-06-17T04:00:00.000Z,2019-06-28T04:00:00.000Z,"M,T,W,TH,F",7:00-3:00,7:00-9:00,11:00-1:30,,,,"B,L",1,N,US,130572,,2019,Ponce
-66.607965,18.0092,45724,RESIDENCIAL PORTUGUES,Open,"Calle Comercio #54 (Individual Management) Ponce, PR 00716",Individual Management,Ponce,PR,716,7872407118,,Christian,Perez,7872407118,Colegio La Milagrosa,2019-06-17T04:00:00.000Z,2019-06-28T04:00:00.000Z,"M,T,W,TH,F",7:00-3:00,7:00-9:00,11:00-1:30,,,,"B,L",1,N,US,130573,,2019,Ponce
-66.631586,17.998024,45725,RESIDENCIAL ROS ANTONINI,Open,"Calle Marginal Ponce (Individual Management) Ponce, PR 00716",Individual Management,Ponce,PR,716,7872407118,,Christian,Perez,7872407118,Colegio La Milagrosa,2019-06-17T04:00:00.000Z,2019-06-28T04:00:00.000Z,"M,T,W,TH,F",7:00-3:00,7:00-9:00,11:00-1:30,,,,"B,L",1,N,US,130574,,2019,Ponce
-66.621697,18.014704,45726,RESIDENCIAL SANTIAGO IGLESIAS,Open,"Calle Guadalupe, Esq. Petardo (Individual Management) Ponce, PR 00716",Individual Management,Ponce,PR,716,7872407118,,Christian,Perez,7872407118,Colegio La Milagrosa,2019-06-17T04:00:00.000Z,2019-06-28T04:00:00.000Z,"M,T,W,TH,F",7:00-3:00,7:00-9:00,11:00-1:30,,,,"B,L",1,N,US,130576,,2019,Ponce
-66.60315,18.0343,45727,RESIDENCIAL TORMOS DIEGO,Open,"Ave. Principal Bo. Machuelo (Individual Management) Ponce, PR 00716",Individual Management,Ponce,PR,716,7872407118,,Christian,Perez,7872407118,Colegio La Milagrosa,2019-06-17T04:00:00.000Z,2019-06-28T04:00:00.000Z,"M,T,W,TH,F",7:00-3:00,7:00-9:00,11:00-1:30,,,,"B,L",1,N,US,130577,,2019,Ponce
-66.611542,18.04265,45728,RESIDENCIAL VILLA ELENA,Open,"Bo. R°o Chiquito (Individual Management) Ponce, PR 00716",Individual Management,Ponce,PR,716,7872407118,,Christian,Perez,7872407118,Colegio La Milagrosa,2019-06-17T04:00:00.000Z,2019-06-28T04:00:00.000Z,"M,T,W,TH,F",7:00-3:00,7:00-9:00,11:00-1:30,,,,"B,L",1,N,US,130579,,2019,Ponce
-66.608945,18.014696,45729,Secretaria (Comunidades),Open,"21-31 calle Lolita Tizol Ponce, PR 00730",,Ponce,PR,730,7878404400,,Teresa,Cepeda,7878404400,Colegio La Milagrosa,2019-06-03T04:00:00.000Z,2019-06-28T04:00:00.000Z,"M,T,W,TH,F",7:00-3:00,7:00-9:00,11:00-1:30,,,,"B,L",1,N,US,130583,,2019,Ponce
-66.609001,18.012014,45730,SENADO PR,Open,"Calle cristina #23 Ponce 00716 Ponce, PR 00716",,Ponce,PR,716,7878420000,,Mareryler,Mejias,7878420000,Colegio La Milagrosa,2019-06-03T04:00:00.000Z,2019-06-28T04:00:00.000Z,"M,T,W,TH,F",7:00-3:00,7:00-9:00,11:00-1:30,,,,"B,L",1,N,US,130585,,2019,Ponce
-66.608033,18.03006,45731,Sport Training(Queneperos),Open,"Urb. Santa Teresita Calle San Carlo Centro Comunal Ponce Ponce, PR 00716",,Ponce,PR,716,7874854841,,Mario,Vazquez,7874854841,Colegio La Milagrosa,2019-06-03T04:00:00.000Z,2019-06-28T04:00:00.000Z,"M,T,W,TH,F",7:00-3:00,7:00-9:00,11:00-1:30,,,,"B,L",1,N,US,130588,,2019,Ponce
-66.612352,18.00549,45732,Tesoritos Day Care,Open,"Calle Cpeche #867 Ponce, PR 00716",,Ponce,PR,716,7873126323,,Waleska,Garcia,7873126323,Colegio La Milagrosa,2019-06-03T04:00:00.000Z,2019-06-28T04:00:00.000Z,"M,T,W,TH,F",7:00-3:00,7:00-9:00,11:00-1:30,,,,"B,L",1,N,US,130594,,2019,Ponce
-66.600444,18.025523,45733,Verano Edudivertido,Open,"Ave. Tito Castro #609 Suite 105 Centro Adralligince Ponce, PR 00716",,Ponce,PR,716,7873666062,,Daisy,Santiago,7873666062,Colegio La Milagrosa,2019-06-03T04:00:00.000Z,2019-06-28T04:00:00.000Z,"M,T,W,TH,F",7:00-3:00,7:00-9:00,11:00-1:30,,,,"B,L",1,N,US,130602,,2019,Ponce
-67.111304,18.138304,45734,Colegio La Monserrate Inc,Open,"Carr 346 Km 1.0 Bo Jaguitas Hormigueros PR (Po box 1314 Hormigueros PR 00660) Hormigueros, PR 00660",Po box 1314 Hormigueros PR 00660,Hormigueros,PR,660,7878491355,,Enid,Rodriguez,7873643966,Colegio La Monserrate,2019-05-20T04:00:00.000Z,2019-07-26T04:00:00.000Z,"M,T,W,TH,F",7:20-3:00,7:30-8:30,11:30-12:30,,,,"B,L",1,N,US,130469,,2019,Hormigueros
-65.964471,18.386128,45735,Arca de NoÇ,Open,"Ave. Roberto Clemente 24-5 Carolina, PR 00985",,Carolina,PR,985,7879690111,,Froken,Rodr°guez,7879690111,Colegio Mar°a Auxiliadora de Carolina,2019-06-03T04:00:00.000Z,2019-07-26T04:00:00.000Z,"M,T,W,TH,F",6:00-6:00,7:00-8:00,11:00-12:00,,,,"B,L",1,N,US,130444,,2019,Carolina
-65.96744,18.4025,45736,Asturias Little School,Open,"Via Emilia CL-5, Villa Fontana Carolina, PR 00983",,Carolina,PR,983,7877763844,,Sheila,Rivera,7877763844,Colegio Mar°a Auxiliadora de Carolina,2019-06-03T04:00:00.000Z,2019-07-26T04:00:00.000Z,"M,T,W,TH,F",6:00-6:00,,11:00-12:00,,,,L,1,N,US,130447,,2019,Carolina
-65.9884,18.402,45737,Bright Start,Open,"Calle San Fernando 262 Local 5 Carolina, PR 00982",,Carolina,PR,982,7872452186,,Claudia,Vazquez,7872452186,Colegio Mar°a Auxiliadora de Carolina,2019-06-04T04:00:00.000Z,2019-07-26T04:00:00.000Z,"M,T,W,TH,F",6:30-6:00,8:20-9:20,11:00-12:00,,,,"B,L",1,N,US,130452,,2019,Carolina
-65.959376,18.392347,45738,Centro de Cuidado Diurno,Open,"Ave. S†nchez Casta§o 122-42A Carolina, PR 00987",,Carolina,PR,987,7877686924,,Michelle,Torres,7877686924,Colegio Mar°a Auxiliadora de Carolina,2019-06-03T04:00:00.000Z,2019-07-26T04:00:00.000Z,"M,T,W,TH,F",6:00-6:00,8:00-9:00,11:00-12:00,,,,"B,L",1,N,US,130456,,2019,Carolina
-65.959376,18.392347,45740,Colegio Maria Auxiliadora,Open,"Ave. S†nchez Casta§o 122-42A Carolina, PR 00987",,Carolina,PR,987,7877686924,,Mar°a,Mendoza,7877686924,Colegio Mar°a Auxiliadora de Carolina,2019-06-03T04:00:00.000Z,2019-07-26T04:00:00.000Z,"M,T,W,TH,F",6:00-2:00,6:45-7:45,10:30-12:30,,,,"B,L",1,N,US,130471,,2019,Carolina
-65.959376,18.392347,45742,Cpamento Divertimundo,Open,"Ave. S†nchez Casta§o 122-42A Carolina, PR 00987",,Carolina,PR,987,9392474846,,Yolanda,Lausell,9392474846,Colegio Mar°a Auxiliadora de Carolina,2019-06-03T04:00:00.000Z,2019-07-26T04:00:00.000Z,"M,T,W,TH,F",6:00-6:00,8:00-9:00,11:30-12:30,,,,"B,L",1,N,US,130485,,2019,Carolina
-65.966703,18.4158,45743,Happy Garden Kids,Open,"Ave. Fidalgo Diaz 12 Villa Asturias 28 calle 34 Carolina, PR 00987",,Carolina,PR,987,7876441304,,Sara,Sierra,7876441304,Colegio Mar°a Auxiliadora de Carolina,2019-06-03T04:00:00.000Z,2019-07-26T04:00:00.000Z,"M,T,W,TH,F",6:00-6:00,7:00-8:00,11:00-12:00,,,,"B,L",1,N,US,130513,,2019,Carolina
-65.955955,18.382748,45744,Iglesia Pentecostal Oasis de Bendici¢n-Mateo 11:28,Open,"Calle Agustin Cabrera #105 Carolina, PR 00985",,Carolina,PR,985,9392472308,,Maritza,Serrano,9392472308,Colegio Mar°a Auxiliadora de Carolina,2019-07-22T04:00:00.000Z,2019-07-26T04:00:00.000Z,"M,T,W,TH,F",7:30-1:00,8:00-9:00,12:00-1:00,,,,"B,L",1,N,US,130525,,2019,Carolina
-65.95739,18.38078,45745,Manitas de Seda,Open,"Calle 33, Blq 29 #8, Villa Asturias Carolina, PR 00983",,Carolina,PR,983,7875500729,,Yurien,Canet,7875500729,Colegio Mar°a Auxiliadora de Carolina,2019-06-03T04:00:00.000Z,2019-07-26T04:00:00.000Z,"M,T,W,TH,F",6:00-6:00,7:00-8:00,11:00-12:00,,,,"B,L",1,N,US,130537,,2019,Carolina
-65.965222,18.401104,45746,Pasitos Kids Care,Open,"Ave. Roberto Clemente D7, Villa Carolina Carolina, PR 00985",,Carolina,PR,985,7879002676,,Maika,Rivera,7879002676,Colegio Mar°a Auxiliadora de Carolina,2019-06-03T04:00:00.000Z,2019-07-26T04:00:00.000Z,"M,T,W,TH,F",6:00-6:00,7:00-8:00,11:00-12:00,,,,"B,L",1,N,US,130545,,2019,Carolina
-66.575416,18.043436,45747,Colegio Ponce§o,Open,"1900 Carr. 14 Coto Laurel, P.R. 00780-2147 Ponce, PR 00780",,Ponce,PR,780,7878482525,222,Lian,Anglada,7879320780,"Colegio Ponceno, Inc.",2019-06-03T04:00:00.000Z,2019-07-26T04:00:00.000Z,"M,T,W,TH,F",6:00 - 2:30,7:30 - 8:30,11:00 - 1:00,,,,"B,L",1,N,US,130475,,2019,Ponce
-66.59948,18.026002,45748,Cpamento de Artes y Ciencias,Open,"All in one learning center, Ave. Tito Castro, Edificio B-1 Ponce, PR 00716",,Ponce,PR,716,7878482525,222,YanirÇ,Sosa,7873717353,"Colegio Ponceno, Inc.",2019-06-03T04:00:00.000Z,2019-07-26T04:00:00.000Z,"M,T,W,TH,F",8:00 - 5:00,8:00 - 9:00,12:00 - 1:00,,,,"B,L",1,N,US,130483,,2019,Ponce
-66.601878,18.02433,45749,Escuela B°blica de Veranano,Open,"Iglesia EvangÇlica Unida, Ave. Tito Castro #477, Marginal la Rbla Ponce, PR 00716",,Ponce,PR,716,7878482525,222,Elia,Negr¢n,7876497233,"Colegio Ponceno, Inc.",2019-06-10T04:00:00.000Z,2019-06-20T04:00:00.000Z,"M,T,W,TH,F",8:00 - 1:30,8:00 - 9:00,12:00 - 1:00,,,,"B,L",1,N,US,130500,,2019,Ponce
-66.618348,17.963428,45751,Ponce Yatch and Fishing Club,Open,"Club Na£tico de Ponce, 3631 Paseo Tablado, La Guancha Ponce, PR 00716",,Ponce,PR,716,7878482525,222,Jol,Miranda,7877090924,"Colegio Ponceno, Inc.",2019-06-03T04:00:00.000Z,2019-07-26T04:00:00.000Z,"M,T,W,TH,F",8:00 - 4:00,,12:00 - 1:00,,,,L,1,N,US,130550,,2019,Ponce
-66.602916,17.998788,45753,T4C Basketball Cp.,Open,"Cancha Bajo Techo Bo. San Ant¢n, Calle Sergia Collazo #230 Ponce, PR 00731",,Ponce,PR,731,7878482525,222,Javier,Col¢n,7873429510,"Colegio Ponceno, Inc.",2019-06-03T04:00:00.000Z,2019-06-28T04:00:00.000Z,"M,T,W,TH,F",7:00 - 3:00,8:00 - 9:00,12:00 - 1:00,,,,"B,L",1,N,US,130593,,2019,Ponce
-66.615324,18.010798,45754,Ballet Se§orial,Open,"Calle Mendez Vigo 128 Ponce, PR 00717 Ponce, PR 00717",,Ponce,PR,717,,,,,,Colegio San Judas Tadeo,2019-06-03T04:00:00.000Z,2019-06-28T04:00:00.000Z,"M,T,W,TH,F",7:00-3:00,8:30-9:30,11:30-12:30,,,,"B,L",1,N,US,130448,,2019,Ponce
-66.625592,17.99641,45755,Gotitas de or,Open,"Calle Comparsa Urb.Perla del Sur Ponce, PR. 00717 Ponce, PR 00717",,Ponce,PR,717,,,,,,Colegio San Judas Tadeo,2019-06-03T04:00:00.000Z,2019-06-28T04:00:00.000Z,"M,T,W,TH,F",7:00-3:00,8:00-9:00,11:30 12:30,,,,"B,L",1,N,US,130510,,2019,Ponce
-66.6074,18.002,45756,Happy Little Step,Open,"BLVDA.Luis A. Ferre 2625 Ponce, PR 00717 Ponce, PR 00717",,Ponce,PR,717,,,,,,Colegio San Judas Tadeo,2019-06-03T04:00:00.000Z,2019-06-28T04:00:00.000Z,"M,T,W,TH,F",7:00-3:00,8:00-9:00,11:30-12:30,,,,"B,L",1,N,US,130514,,2019,Ponce
-66.614843,18.016629,45757,Instituto Ponce§o Sindrome Down,Open,"Calle Bertoly # 24 Ponce PR 00731 Ponce, PR 00731",,Ponce,PR,731,,,,,,Colegio San Judas Tadeo,2019-06-03T04:00:00.000Z,2019-06-28T04:00:00.000Z,"M,T,W,TH,F",7:00-3:00,8:00-9:00,11:30 12:30,,,,"B,L",1,N,US,130527,,2019,Ponce
-66.590969,18.029287,45759,Riberas de Bucan†,Open,"Edif 2408 Ponce PR 00731 Ponce, PR 00731",,Ponce,PR,731,,,,,,Colegio San Judas Tadeo,2019-06-03T04:00:00.000Z,2019-06-28T04:00:00.000Z,"M,T,W,TH,F",7:00-3:00,8:15-9:15,12:00-1:00,,,,"B,L",1,N,US,130582,,2019,Ponce
-65.829608,18.154081,45760,ACADEMIA PENTECOSTAL,Open,"AVE. ROOSEVELT #83 Humacao, PR 00791",,Humacao,PR,791,7873083312,,MARIA,ALVERIO,7873083312,COSEY,2019-06-03T04:00:00.000Z,2019-06-28T04:00:00.000Z,"M,T,W,TH,F",7:00-3:00,7:30-8:30,11:30-12:30,,,,"B,L",1,N,US,130440,,2019,Humacao
-65.877398,18.188051,45763,COLEGIO MI CUIDO Y EDUCACION,Open,"CARR 198 KM. 21.5 (VILLAS DE LOS ARTESANOS) Las Piedras, PR 00771",VILLAS DE LOS ARTESANOS,Las Piedras,PR,771,7877334868,,MERILITZA,CRUZ,7877334868,COSEY,2019-06-03T04:00:00.000Z,2019-06-28T04:00:00.000Z,"M,T,W,TH,F",7:00-3:00,7:30-8:30,11:30-12:30,,,,"B,L",1,N,US,130473,,2019,Las Piedras
-65.885092,18.188481,45764,COLEGIO RUBI,Open,"DESVIO OLYMPIC CITY KM. 26 (BO. CEIBA NORTE) Las Piedras, PR 00771",BO. CEIBA NORTE,Las Piedras,PR,771,7877333238,,DARIS,FIGUEROA,7877333238,COSEY,2019-06-03T04:00:00.000Z,2019-06-28T04:00:00.000Z,"M,T,W,TH,F",6:30-2:00,7:00-7:30,11:30-12:00,,,,"B,L",1,N,US,130476,,2019,Las Piedras
-65.836894,18.085612,45765,COSEY,Open,"PR 53 SALIDA 39 BO. AGUACATE (CARMENS CAFê) Yabucoa, PR 00767",CARMENS CAFê,Yabucoa,PR,767,7872661616,,YIRAIDA,RIVERA,7872661616,COSEY,2019-05-20T04:00:00.000Z,2019-07-19T04:00:00.000Z,"M,T,W,TH,F",5:00-2:00,8:00-9:00,12:00-1:00,,,,"B,L",1,N,US,130479,,2019,Yabucoa
-65.867965,18.183303,45766,CPAMENTO MANITAS,Open,"CARR 198 KM. 24.3 (BO. COLLORES) Las Piedras, PR 00771",BO. COLLORES,Las Piedras,PR,771,7873760807,,BRENDA,DIAZ,7873760807,COSEY,2019-06-03T04:00:00.000Z,2019-07-19T04:00:00.000Z,"M,T,W,TH,F",7:00-3:00,7:30-8:00,11:50-12:50,,,,"B,L",1,N,US,130487,,2019,Las Piedras
-65.826833,18.153999,45768,PEQUENAS LIGAS MIGUEL LUZUNARIS,Open,"PARQUE VITICO 4.0 - KM. 1.0 Humacao, PR 00791",,Humacao,PR,791,7875989960,,ERIC,CARABALLO,7875989960,COSEY,2019-06-03T04:00:00.000Z,2019-06-28T04:00:00.000Z,"M,T,W,TH,F",7:30-3:00,8:00-9:00,12:00-1:00,,,,"B,L",1,N,US,130546,,2019,Humacao
-65.878557,18.04448,45769,RESIDENCIAL VICTOR BERRIOS,Open,"CALLE AULALIO REVERON (FRENTE ESCUELA T) Yabucoa, PR 00767",FRENTE ESCUELA T,Yabucoa,PR,767,7878939217,,DAGNARIS,RUIZ,7878939217,COSEY,2019-06-03T04:00:00.000Z,2019-06-14T04:00:00.000Z,"M,T,W,TH,F",7:30-2:00,7:50-8:00,12:00-12:15,,,,"B,L",1,N,US,130578,,2019,Yabucoa
-65.836894,18.085612,45770,SUMMER FUN,Open,"PR 53 SALIDA 39 BO. AGUACATE (COLEGIO ROQUE DIAZ) Yabucoa, PR 00767",COLEGIO ROQUE DIAZ,Yabucoa,PR,767,7878931205,,LIZ,ABREU,7872661616,COSEY,2019-06-03T04:00:00.000Z,2019-06-28T04:00:00.000Z,"M,T,W,TH,F",7:30-3:30,8:00-9:00,11:30-12:30,,,,"B,L",1,N,US,130589,,2019,Yabucoa
-65.886604,18.046051,45771,TUTORIAS A+,Open,"URB. JAIME C RODRIGUEZ C-1 B22 Yabucoa, PR 00767",,Yabucoa,PR,767,7876022735,,GLADYS,MARTINEZ,7876022735,COSEY,2019-05-27T04:00:00.000Z,2019-06-21T04:00:00.000Z,"M,T,W,TH,F",7:30-2:00,8:00-8:30,11:30-12:30,,,,"B,L",1,N,US,130598,,2019,Yabucoa
-67.141715,18.282221,45775,Escuela Bellas Artes Municipio de A§asco,Open,"Calle 65 Infanteria al costado A§asco, PR 00610",,A§asco,PR,610,,,Gladis,Echavaria Guitierrez,7878264345,Habacuc Bilingual Academy,2019-07-08T04:00:00.000Z,2019-07-19T04:00:00.000Z,"M,T,W,TH,F",7:00-12:00,7:00-8:00,11:00-12:00,,,,"B,L",1,N,US,130499,,2019,Anasco
-67.148697,18.274292,45776,Habacuc Bilingual Academy,Open,"Bo. Pozo Hondo carr 109 km 1.9 A§asco, PR 00610",,A§asco,PR,610,7878262326,,Carmen,Guitierrez,7874644714,Habacuc Bilingual Academy,2019-05-20T04:00:00.000Z,2019-07-26T04:00:00.000Z,"M,T,W,TH,F",5:30-3:00,9:00-10:00,12:30-1:30,,,,"B,L",1,N,US,130512,,2019,Anasco
-67.148697,18.274292,45777,Habacuc Bilingual Academy,Open,"Bo. Pozo Hondo carr 109 km 1.9 A§asco, PR 00610",,A§asco,PR,610,7878262326,,Cen,Guitierrez,7874644714,Habacuc Bilingual Academy,2019-05-20T04:00:00.000Z,2019-07-26T04:00:00.000Z,"M,T,W,TH,F",5:30-3:00,8:00-9:00,11:30-12:30,,,,"B,L",1,N,US,130512,,2019,Anasco
-67.108551,18.279977,45778,Igelsia Jesus Pan de Vida,Open,"Bo. Cidra carr 406 km 8.0 A§asco, PR 00610",,A§asco,PR,610,,,Otilio,Gonzalez,7874646910,Habacuc Bilingual Academy,2019-06-24T04:00:00.000Z,2019-07-05T04:00:00.000Z,"M,T,W,TH,F",8:00-1:00,8:00-9:00,11:00-12:00,,,,"B,L",1,N,US,130516,,2019,Anasco
-67.179703,18.297091,45779,Iglesia Alianza Cristiana Misionera,Open,"Bo. Miradero carr 108 km 2.2 MayagÅez, PR 00680",,MayagÅez,PR,680,,,Fri F.,Montes Velez,7874052482,Habacuc Bilingual Academy,2019-07-08T04:00:00.000Z,2019-07-12T04:00:00.000Z,"M,T,W,TH,F",7:00-12:00,7:00-8:00,11:00-12:00,,,,"B,L",1,N,US,130518,,2019,Anasco
-67.0918,18.2958,45780,Iglesia de Dios Pentecostal MI,Open,"Bo. Cerro Gordo carr 406 km 21.1 A§asco, PR 00610",,A§asco,PR,610,,,Gricel,Irrizarry Lopez,7875901172,Habacuc Bilingual Academy,2019-07-08T04:00:00.000Z,2019-07-12T04:00:00.000Z,"M,T,W,TH,F",7:00-3:00,,11:00-12:00,,,,L,1,N,US,130520,,2019,Anasco
-67.04889,18.223739,45781,Iglesia de Dios Pentecostal MI,Open,"Bo. Rio Ca§a carr 354 km 0.5 MayagÅez, PR 00680",,MayagÅez,PR,680,,,Fri F.,Montes Velez,7874052482,Habacuc Bilingual Academy,2019-07-15T04:00:00.000Z,2019-07-19T04:00:00.000Z,"M,T,W,TH,F",7:00-12:00,7:00-8:00,11:00-12:00,,,,"B,L",1,N,US,130521,,2019,Mayaguez
-67.1317,18.234221,45782,Reino Infantil,Open,"Avenida Pedro Albizo Cpo Calle Habacuc #65 MayagÅez, PR 00680",,MayagÅez,PR,680,7879947113,,Margarita,Seda Moreno,7879947113,Habacuc Bilingual Academy,2019-05-20T04:00:00.000Z,2019-07-12T04:00:00.000Z,"M,T,W,TH,F",7:00-3:00,7:30-8:30,11:30-12:30,,,,"B,L",1,N,US,130555,,2019,Mayaguez
-66.10572,18.46633,45817,Ligmar Food Management Corp.,Open,"carr. 177 km 3.3 Cino Alejandrino San Juan San Juan, PR 00919",,San Juan,PR,919,7872225353,,Edwin,Hernandez,7872225353,Universidad Interamericana de Puerto Rico Recinto,2019-06-03T04:00:00.000Z,2019-07-19T04:00:00.000Z,"M,T,W,TH,F",6:00-3:00,,11:30-1:00,,2:00-2:30,,"L,A",1,N,US,130533,,2019,San Juan
-66.267932,18.318868,46190,CAPAMENTO JESUS ES DULCE,Open,"CARR.165 NARANJITO Naranjito, PR 00719",,Naranjito,PR,719,7872156118,,ODALIZ,BAEZ,7872156118,VUSCA,2019-07-01T04:00:00.000Z,2019-07-05T04:00:00.000Z,"M,T,W,TH,F",8:00-3:00,8:00-9:00,11:30-1:00,,,,"B,L",1,N,US,130454,,2019,Naranjito
-66.24724,18.30274,46209,CP. SAN MIGUEL,Open,"CARR. 825 K.M 0.2 BO. ACHIOTE Naranjito, PR 00719",,Naranjito,PR,719,7876696842,,SOL CLETA,LOPEZ,7876696842,VUSCA,2019-06-14T04:00:00.000Z,2019-06-28T04:00:00.000Z,"S,M,T,W,TH,F,SA",1:00-5:00,,,,2:30-3:00,5:00-6:00,"S,A",1,N,US,130481,,2019,Naranjito
-66.24754,18.30135,46592,VUSCA,Open,"CALLE GEORGETTI#136 Naranjito, PR 00719",,Naranjito,PR,719,7878691223,,LORIAN,RODRIGUEZ,7878691223,VUSCA,2019-06-10T04:00:00.000Z,2019-07-26T04:00:00.000Z,"S,M,T,W,TH,F,SA",7:00-3:00,7:30-8:30,11:30-1:00,,,,"B,L",1,N,US,130605,,2019,Naranjito
-66.24754,18.30135,46593,VUSCA PISINA,Open,"CALLE GEORGETTI #136 Naranjito, PR 00719",,Naranjito,PR,719,7878691223,,LORIAN,RODRIGUEZ,7878691223,VUSCA,2019-06-10T04:00:00.000Z,2019-07-26T04:00:00.000Z,W,11:30-12:30,,11:30-1:00,,,,L,1,N,US,130607,,2019,Naranjito
-66.0627,18.4355,46594,YMCA San Juan,Open,"800 Boulevard Sagrado Corazon (Suite 2) Santurce, PR 00909",Suite 2,Santurce,PR,909,7877287200,,,,,YMCA De San Juan,2019-05-20T04:00:00.000Z,2019-08-04T04:00:00.000Z,"M,T,W,TH,F,S",6:00-3:00,7:00-8:30,11:30-1:00,,,,"B,L",1,N,US,130611,,2019,San Juan
-66.058092,18.452723,53061,Academia San Jorge,Open,"Calle Colon Esq San Jorge #1701 San Juan, PR 00911",,San Juan,PR,911,7877223182,,Carla Castro,,,Academia San Jorge,2019-06-03T04:00:00.000Z,2019-07-03T04:00:00.000Z,"M,T,W,TH,F",6:00-1:00,6:40-7:30,11:00-12:00,,,,"B,L",2,N,US,132238,,2019,San Juan
-66.052809,18.44716,53062,Coorporacion Amigos de Jesus,Open,"Calle Tapia 453 Villa Palmeras San Juan, PR 00916",,San Juan,PR,916,7874483147,,Miguel A. Rivera Borges,,,Academia San Jorge,2019-06-10T04:00:00.000Z,2019-06-21T04:00:00.000Z,"M,T,W,TH,F",7:00-1:00,7:00-8:00,11:00-12:00,,,,"B,L",2,N,US,132270,,2019,San Juan
-66.226001,18.442169,53063,JosÇ Robles Otero,Open,"Carr. 867 Km. 5 (Barrio Ingenio) Toa Baja, PR 00949",Barrio Ingenio,Toa Baja,PR,949,7877943470,,Marta,Berrios,7877408890,Autoridad Escolar de Alimentos-DE,2019-06-03T04:00:00.000Z,2019-08-02T04:00:00.000Z,"M,T,W,TH,F",6:00-2:00,7:00-8:00,11:00-1:00,9:00-10:00,,,"B,L,M",2,N,US,132318,,2019,Toa Baja
-66.26767,18.45883,53064,JosÇ Santos Alegr°a,Open,"Calle Cristo Final Dorado, PR 00692",,Dorado,PR,692,7877961520,,Elsa,Berrios,7878784868,Autoridad Escolar de Alimentos-DE,2019-06-03T04:00:00.000Z,2019-08-02T04:00:00.000Z,"M,T,W,TH,F",6:00-2:00,7:00-8:00,11:00-1:00,9:00-10:00,,,"B,L,M",2,N,US,132319,,2019,Dorado
-66.681287,18.255929,53065,JosÇ Vizcarrondo,Open,"Carr. 111 Km. 16.6 (Bo. Angeles) Utuado, PR 00641",Bo. Angeles,Utuado,PR,641,7878947702,,Salvador,Burgos,7878283085,Autoridad Escolar de Alimentos-DE,2019-06-03T04:00:00.000Z,2019-08-02T04:00:00.000Z,"M,T,W,TH,F",6:00-2:00,7:00-8:00,11:00-1:00,9:00-10:00,,,"B,L,M",2,N,US,132320,,2019,Utuado
-66.095365,18.376765,53066,Josefina Barcel¢,Open,"Ave. Los Filtros Guaynabo, PR 00970",,Guaynabo,PR,970,7877207870,,Denice,Toledo,7877207977,Autoridad Escolar de Alimentos-DE,2019-06-03T04:00:00.000Z,2019-08-02T04:00:00.000Z,"M,T,W,TH,F",6:00-2:00,7:00-8:00,11:00-1:00,9:00-10:00,,,"B,L,M",2,N,US,132321,,2019,Guaynabo
-66.49212,18.42745,53067,Juan A Sanchez Davila,Open,"carr. 670 km 1 Hm. 2 (Frente Urb. Oneill) Manat°, PR 00674",Frente Urb. Oneill,Manat°,PR,674,7878540360,,Miguel,Fndez.,7878784868,Autoridad Escolar de Alimentos-DE,2019-06-03T04:00:00.000Z,2019-08-02T04:00:00.000Z,"M,T,W,TH,F",6:00-2:00,7:00-8:00,11:00-1:00,9:00-10:00,,,"B,L,M",2,N,US,132322,,2019,Manati
-66.096843,18.376973,53068,Juan E. Miranda,Open,"Ave. Los Filtros Guaynabo, PR 00970",,Guaynabo,PR,970,7877908198,,Denice,Toledo,7877207977,Autoridad Escolar de Alimentos-DE,2019-06-03T04:00:00.000Z,2019-08-02T04:00:00.000Z,"M,T,W,TH,F",6:00-2:00,7:00-8:00,11:00-1:00,9:00-10:00,,,"B,L,M",2,N,US,132323,,2019,Guaynabo
-66.052687,18.203052,53069,Juan J. Osuna,Open,"Carretera 1 (Sector Esperanza) Caguas, PR 00726",Sector Esperanza,Caguas,PR,726,7877478629,,Maritza,Vazquez,7877030422,Autoridad Escolar de Alimentos-DE,2019-06-03T04:00:00.000Z,2019-08-02T04:00:00.000Z,"M,T,W,TH,F",6:00-2:00,7:00-8:00,11:00-1:00,9:00-10:00,,,"B,L,M",2,N,US,132324,,2019,Caguas
-66.05323,18.378896,53070,TVA Camp,Open,"Ave. San Claudio #369 San Juan, PR 00926",,San Juan,PR,926,7872954162,,Chavelly Vellon,,,Academia San Jorge,2019-06-03T04:00:00.000Z,2019-07-19T04:00:00.000Z,"M,T,W,TH,F",8:00-6:00,,12:00 -1:00,,1:30-2:00,,"L,A",2,N,US,132385,,2019,San Juan
-66.080654,18.405373,53072,Acad. Bautista,Open,"Ave. Jesus T. Pi§ero 1136 (Puerto Nuevo) San Juan, PR 00902",Puerto Nuevo,San Juan,PR,902,7877824072,,Ivette,Linares,7877592000,Autoridad Escolar de Alimentos-DE,2019-06-03T04:00:00.000Z,2019-08-02T04:00:00.000Z,"M,T,W,TH,F",6:00-2:00,7:00-8:00,11:00-1:00,9:00-10:00,,,"B,L,M",2,N,US,132234,,2019,San Juan
-66.007273,18.407517,53073,Acad. Joeleanny,Open,"C/Eider 958 (Urb. Country Club) San Juan, PR 00924",Urb. Country Club,San Juan,PR,924,7874042901,,Javier,Mendez,7877592000,Autoridad Escolar de Alimentos-DE,2019-06-03T04:00:00.000Z,2019-08-02T04:00:00.000Z,"M,T,W,TH,F",6:00-2:00,7:00-8:00,11:00-1:00,9:00-10:00,,,"B,L,M",2,N,US,132235,,2019,San Juan
-66.056452,18.371586,53074,Acad. La Providencia,Open,"Urb. San Gerardo (C/Agueda 1730) San Juan, PR 00902",C/Agueda 1730,San Juan,PR,902,7877656240,,Denice,Toledo,7877592000,Autoridad Escolar de Alimentos-DE,2019-06-03T04:00:00.000Z,2019-08-02T04:00:00.000Z,"M,T,W,TH,F",6:00-2:00,7:00-8:00,11:00-1:00,9:00-10:00,,,"B,L,M",2,N,US,132236,,2019,San Juan
-65.965018,18.408387,53075,Academia Presbiteriana,Open,"Ave. Roberto Clemente (Villa Carolina) Carolina, PR 00984",Villa Carolina,Carolina,PR,984,7877529875,,Johanney,Jaca,7877620225,Autoridad Escolar de Alimentos-DE,2019-06-03T04:00:00.000Z,2019-08-02T04:00:00.000Z,"M,T,W,TH,F",6:00-2:00,7:00-8:00,11:00-1:00,9:00-10:00,,,"B,L,M",2,N,US,132237,,2019,Carolina
-65.96071,18.3954,53076,Agust°n Cabrera,Open,"Ave. Central Boulevard (Villa Carolina) Carolina, PR 00984",Villa Carolina,Carolina,PR,984,7877681725,,Johanney,Jaca,7877620225,Autoridad Escolar de Alimentos-DE,2019-06-03T04:00:00.000Z,2019-08-02T04:00:00.000Z,"M,T,W,TH,F",6:00-2:00,7:00-8:00,11:00-1:00,9:00-10:00,,,"B,L,M",2,N,US,132239,,2019,Carolina
-66.131108,18.441503,53077,Altinencia Valle,Open,"Carr. Palmas #2 (Barrio Campanilals) Toa Baja, PR 00949",Barrio Campanilals,Toa Baja,PR,949,7877846127,,Marta,Berrios,7877408890,Autoridad Escolar de Alimentos-DE,2019-06-03T04:00:00.000Z,2019-08-02T04:00:00.000Z,"M,T,W,TH,F",6:00-2:00,7:00-8:00,11:00-1:00,9:00-10:00,,,"B,L,M",2,N,US,132240,,2019,Catano
-66.05429,18.393307,53078,Amalia Marin,Open,"C/Pe§asco Final (Paradise Hills) San Juan, PR 00902",Paradise Hills,San Juan,PR,902,7877632452,,Denice,Toledo,7877592000,Autoridad Escolar de Alimentos-DE,2019-06-03T04:00:00.000Z,2019-08-02T04:00:00.000Z,"M,T,W,TH,F",6:00-2:00,7:00-8:00,11:00-1:00,9:00-10:00,,,"B,L,M",2,N,US,132241,,2019,San Juan
-65.915622,18.329765,53079,Angel P. Mill†n,Open,"Carr. 857 Km. 0 Hm. 9 (Bo. Canovanillas) Carolina, PR 00984",Bo. Canovanillas,Carolina,PR,984,7872760120,,Keishla,Robles,7877620225,Autoridad Escolar de Alimentos-DE,2019-06-03T04:00:00.000Z,2019-08-02T04:00:00.000Z,"M,T,W,TH,F",6:00-2:00,7:00-8:00,11:00-1:00,9:00-10:00,,,"B,L,M",2,N,US,132242,,2019,Carolina
-66.004544,18.393742,53080,Angeles Pastor,Open,"Urb. San Martin San Juan, PR 00928",,San Juan,PR,928,7877683016,,Javier,Mendez,7877592000,Autoridad Escolar de Alimentos-DE,2019-06-03T04:00:00.000Z,2019-08-02T04:00:00.000Z,"M,T,W,TH,F",6:00-2:00,7:00-8:00,11:00-1:00,9:00-10:00,,,"B,L,M",2,N,US,132243,,2019,San Juan
-66.018124,18.364892,53081,Antilles Military Academy,Open,"Paseo Las Cumbres (Carr. 846 Bo. Cuevas) Trujillo Alto, PR 00976",Carr. 846 Bo. Cuevas,Trujillo Alto,PR,976,7877611710,,Marie,Cruz,7877207977,Autoridad Escolar de Alimentos-DE,2019-06-03T04:00:00.000Z,2019-08-02T04:00:00.000Z,"M,T,W,TH,F",6:00-2:00,7:00-8:00,11:00-1:00,9:00-10:00,,,"B,L,M",2,N,US,132244,,2019,Trujillo Alto
-67.03268,18.463,53082,Antonio G. Paredes,Open,"Carr. 112 Km. 3.5 (Barrio Mora) Isabela, PR 00662",Barrio Mora,Isabela,PR,662,7878721942,,Sonia,Calero,7878964644,Autoridad Escolar de Alimentos-DE,2019-06-03T04:00:00.000Z,2019-08-02T04:00:00.000Z,"M,T,W,TH,F",6:00-2:00,7:00-8:00,11:00-1:00,9:00-10:00,,,"B,L,M",2,N,US,132245,,2019,Isabela
-66.1859,18.277591,53083,Antonio Rivera,Open,"Carr. 167 Ramal 816 (barrio Nuevo) Bayam¢n, PR 00956",barrio Nuevo,Bayam¢n,PR,956,7877306588,,neuris,Gonzalez,7877408890,Autoridad Escolar de Alimentos-DE,2019-06-03T04:00:00.000Z,2019-08-02T04:00:00.000Z,"M,T,W,TH,F",6:00-2:00,7:00-8:00,11:00-1:00,9:00-10;00,,,"B,L,M",2,N,US,132246,,2019,Bayamon
-66.078294,18.407972,53084,Antonio S. Pedreira,Open,"C/Argel Esq. Angora (Puerto Nuevo) San Juan, PR 00928",Puerto Nuevo,San Juan,PR,928,7877821030,,Ivette,Linares,7877592000,Autoridad Escolar de Alimentos-DE,2019-06-03T04:00:00.000Z,2019-08-02T04:00:00.000Z,"M,T,W,TH,F",6:00-2:00,7:00-8:00,11:00-1:00,9:00-10:00,,,"B,L,M",2,N,US,132247,,2019,San Juan
-66.4635,18.43606,53085,Antonio Velez Alvarado,Open,"Barrio Campo Alegre (Carr. 149 Km. 4 Hm. 8) Manat°, PR 00674",Carr. 149 Km. 4 Hm. 8,Manat°,PR,674,7878544160,,Miguel,Fernandez,7878784868,Autoridad Escolar de Alimentos-DE,2019-06-03T04:00:00.000Z,2019-08-02T04:00:00.000Z,"M,T,W,TH,F",6:00-2:00,7:00-8:00,11:00-1:00,9:00-10:00,,,"B,L,M",2,N,US,132248,,2019,Manati
-66.33128,18.41217,53086,Apolo San Antonio,Open,"Calle Luis M. Rivera Vega Alta, PR 00692",,Vega Alta,PR,692,7878833130,,Elsa,berrios,7878784868,Autoridad Escolar de Alimentos-DE,2019-06-03T04:00:00.000Z,2019-08-02T04:00:00.000Z,"M,T,W,TH,F",6:00-2:00,7:00-8:00,11:00-1:00,9:00-10:00,,,"B,L,M",2,N,US,94289,,2019,Vega Alta
-66.13108,18.381001,53087,Basilio Mil†n,Open,"Urb. Levittown (6ta. Seccion) Toa Baja, PR 00949",6ta. Seccion,Toa Baja,PR,949,7877845570,,Marta,Berrios,7877845570,Autoridad Escolar de Alimentos-DE,2019-06-03T04:00:00.000Z,2019-08-02T04:00:00.000Z,"M,T,W,TH,F",6:00-2:00,7:00-8:00,11:00-1:00,9:00-10:00,,,"B,L,M",2,N,US,132249,,2019,Bayamon
-66.711506,18.2755,53089,Bernardo Gonz†lez,Open,"Carr. 123 (Bo. Salto Abajo) Utuado, PR 00641",Bo. Salto Abajo,Utuado,PR,641,7878942524,,Salvador,Burgos,7878452220,Autoridad Escolar de Alimentos-DE,2019-06-03T04:00:00.000Z,2019-08-02T04:00:00.000Z,"M,T,W,TH,F",6:00-2:00,7:00-8:00,11:00-1:00,9:00-10:00,,,"B,L,M",2,N,US,132251,,2019,Utuado
-66.012982,18.401154,53090,Berwind Elemental,Open,"C/G Final (Res. Jdnes. Berwind) San Juan, PR 00928",Res. Jdnes. Berwind,San Juan,PR,928,7877682570,,Javier,Mendez,7877592000,Autoridad Escolar de Alimentos-DE,2019-06-03T04:00:00.000Z,2019-08-02T04:00:00.000Z,"M,T,W,TH,F",6:00-2:00,7:00-8:00,11:00-1:00,9:00-10:00,,,"B,L,M",2,N,US,132252,,2019,San Juan
-65.95897,18.38987,53091,Carlos F. Daniels,Open,"Calle JosÇ S. Qui§ones Carolina, PR 00984",,Carolina,PR,984,7877627385,,Keishla,Robles,7877620225,Autoridad Escolar de Alimentos-DE,2019-06-03T04:00:00.000Z,2019-08-02T04:00:00.000Z,"M,T,W,TH,F",6:00-2:00,7:00-8:00,11:00-1:00,9:00-10:00,,,"B,L,M",2,N,US,132253,,2019,Carolina
-66.011641,18.390537,53093,Carmen Gomez Tejera,Open,"C/15 Final (Urb. Monte Carlo) San Juan, PR 00928",Urb. Monte Carlo,San Juan,PR,928,7877627437,,Javier,mendez,7877592000,Autoridad Escolar de Alimentos-DE,2019-06-03T04:00:00.000Z,2019-08-02T04:00:00.000Z,"M,T,W,TH,F",6:00-2:00,7:00-8:00,11:00-1:00,9:00-10:00,,,"B,L,M",2,N,US,132254,,2019,San Juan
-66.14285,18.382168,53094,Carmen G¢mez Tejera,Open,"Avenida Main Urb. Santa Rosa Bayam¢n, PR 00957",,Bayam¢n,PR,957,7877851364,,Glenda,Rivera,7877408890,Autoridad Escolar de Alimentos-DE,2019-06-03T04:00:00.000Z,2019-08-02T04:00:00.000Z,"M,T,W,TH,F",6:00-2:00,7:00-8:00,11:00-1:00,9:00-10:00,,,"B,L,M",2,N,US,132255,,2019,Bayamon
-66.069705,18.448352,53095,Central Artes Visuales,Open,"Ave. Ponce de Le¢n (Pda. 20) San Juan, PR 00902",Pda. 20,San Juan,PR,902,7877238911,,Miladys,Torres,7877592000,Autoridad Escolar de Alimentos-DE,2019-06-03T04:00:00.000Z,2019-08-02T04:00:00.000Z,"M,T,W,TH,F",6:00-2:00,7:00-8:00,11:00-1:00,9:00-10:00,,,"B,L,M",2,N,US,132256,,2019,San Juan
-66.037734,18.399642,53096,Centro del Triunfo,Open,"C/Los Angeles 1020 San Juan, PR 00924",,San Juan,PR,924,7877714420,,Javier,Mendez,7877592000,Autoridad Escolar de Alimentos-DE,2019-06-03T04:00:00.000Z,2019-08-02T04:00:00.000Z,"M,T,W,TH,F",6:00-2:00,7:00-8:00,11:00-1:00,9:00-10:00,,,"B,L,M",2,N,US,132257,,2019,San Juan
-66.048835,18.442946,53097,Centro Metodista,Open,"C/Buena Ventura #322 San Juan, PR 00902",,San Juan,PR,902,7877264620,,Margarita,Pacheco,7877592000,Autoridad Escolar de Alimentos-DE,2019-06-03T04:00:00.000Z,2019-08-02T04:00:00.000Z,"M,T,W,TH,F",6:00-2:00,7:00-8:00,11:00-1:00,9:00-10:00,,,"B,L,M",2,N,US,132258,,2019,San Juan
-66.067983,18.378541,53098,CODERI,Open,"Urb. El Cerezal San Juan, PR 00902",,San Juan,PR,902,7877618925,,Denice,Toledo,7877592000,Autoridad Escolar de Alimentos-DE,2019-06-03T04:00:00.000Z,2019-08-02T04:00:00.000Z,"M,T,W,TH,F",6:00-2:00,7:00-8:00,11:00-1:00,9:00-10:00,,,"B,L,M",2,N,US,132259,,2019,San Juan
-65.95739,18.38078,53099,Col. Bautista Elem.,Open,"Ave. 65 Infanteria Carolina, PR 00984",,Carolina,PR,984,7877620225,,Keishla,Robles,7877620225,Autoridad Escolar de Alimentos-DE,2019-06-03T04:00:00.000Z,2019-08-02T04:00:00.000Z,"M,T,W,TH,F",6:00-2:00,7:00-8:00,11:00-1:00,9:00-10:00,,,"B,L,M",2,N,US,132260,,2019,Carolina
-65.95739,18.38078,53100,Col. Carvin Secundaria,Open,"Calle Natividad (Carolina Alta) Carolina, PR 00984",Carolina Alta,Carolina,PR,984,7877575151,,Johanney,Jaca,7877620225,Autoridad Escolar de Alimentos-DE,2019-06-03T04:00:00.000Z,2019-08-02T04:00:00.000Z,"M,T,W,TH,F",6:00-2:00,7:00-8:00,11:00-1:00,9:00-10:00,,,"B,L,M",2,N,US,132261,,2019,Carolina
-66.065886,18.41084,53101,Col. La Merced,Open,"C/Sargento Medina 374 (Hato Rey) San Juan, PR 00902",Hato Rey,San Juan,PR,902,7877541162,,Ivette,Linares,7877592000,Autoridad Escolar de Alimentos-DE,2019-06-03T04:00:00.000Z,2019-08-02T04:00:00.000Z,"M,T,W,TH,F",6:00-2:00,7:00-8:00,11:00-1:00,9:00-10:00,,,"B,L,M",2,N,US,132262,,2019,San Juan
-66.043805,18.396737,53102,Col. San Antonio,Open,"C/Capuchino (Esq. Arzuaga) San Juan, PR 00924",Esq. Arzuaga,San Juan,PR,924,7877640090,,Javier,Mendez,7877592000,Autoridad Escolar de Alimentos-DE,2019-06-03T04:00:00.000Z,2019-08-02T04:00:00.000Z,"M,T,W,TH,F",6:00-2:00,7:00-8:00,11:00-1:00,9:00-10:00,,,"B,L,M",2,N,US,132263,,2019,San Juan
-66.256521,18.301209,53103,Coleen V†zquez,Open,"Carr. 164 Km. 7.1 Naranjito, PR 00719",,Naranjito,PR,719,7878691309,,Joel,Morales,7877408890,Autoridad Escolar de Alimentos-DE,2019-06-03T04:00:00.000Z,2019-08-02T04:00:00.000Z,"M,T,W,TH,F",6:00-2:00,7:00-8:00,11:00-1:00,9:00-10:00,,,"B,L,M",2,N,US,132264,,2019,Naranjito
-66.048644,18.424301,53104,Colegio Congragaci¢n Mita,Open,"Calle Paris #16 San Juan, PR 00928",,San Juan,PR,928,7877592000,,Ivette,Linares,7877592000,Autoridad Escolar de Alimentos-DE,2019-06-03T04:00:00.000Z,2019-08-02T04:00:00.000Z,"M,T,W,TH,F",6:00-2:00,7:00-8:00,11:00-1:00,9:00-10:00,,,"B,L,M",2,N,US,132265,,2019,San Juan
-65.988463,18.416021,53105,Colegio De Diego,Open,"Bo. Sabana Abajo Carolina, PR 00984",,Carolina,PR,984,7877681111,,Johanney,Jaca,7877620225,Autoridad Escolar de Alimentos-DE,2019-06-03T04:00:00.000Z,2019-08-02T04:00:00.000Z,"M,T,W,TH,F",6:00-2:00,7:00-8:00,11:00-1:00,9:00-10:00,,,"B,L,M",2,N,US,132266,,2019,Carolina
-66.032738,18.383479,53106,Colegio Mi Reino Infantil,Open,"Ave. Frontera (Villa Andalucia) San Juan, PR 00902",Villa Andalucia,San Juan,PR,902,7877618925,,Denice,Toledo,7877592000,Autoridad Escolar de Alimentos-DE,2019-06-03T04:00:00.000Z,2019-08-02T04:00:00.000Z,"M,T,W,TH,F",6:00-2:00,7:00-8:00,11:00-1:00,9:00-10:00,,,"B,L,M",2,N,US,132267,,2019,San Juan
-65.965468,18.418216,53107,Colegio Saint Francis,Open,"Ave. Campo Rico (Villa Carolina) Carolina, PR 00984",Villa Carolina,Carolina,PR,984,7877628035,,Johanney,Jaca,7877620225,Autoridad Escolar de Alimentos-DE,2019-06-03T04:00:00.000Z,2019-08-02T04:00:00.000Z,"M,T,W,TH,F",6:00-2:00,7:00-8:00,11:00-1:00,9:00-10:00,,,"B,L,M",2,N,US,132268,,2019,Carolina
-66.05846,18.444084,53108,Colegio San Juan Bosco,Open,"Ave. Eduardo Conde San Juan, PR 00902",,San Juan,PR,902,7877261995,,Javier,Mendez,7877592000,Autoridad Escolar de Alimentos-DE,2019-06-03T04:00:00.000Z,2019-08-02T04:00:00.000Z,"M,T,W,TH,F",6:00-2:00,7:00-8:00,11:00-1:00,9:00-10:00,,,"B,L,M",2,N,US,132269,,2019,San Juan
-66.879799,18.2957,53111,Domingo Aponte,Open,"Calle De jesus sierra Lares, PR 00612",,Lares,PR,612,7878971570,,Irma,Villanueva,7878784868,Autoridad Escolar de Alimentos-DE,2019-06-03T04:00:00.000Z,2019-08-02T04:00:00.000Z,"M,T,W,TH,F",6:00-2:00,7:00-8:00,11:00-1:00,9:00-10:00,,,"B,L,M",2,N,US,132273,,2019,Lares
-66.038289,18.402037,53112,Dr. Rafael L¢pez Sicardo,Open,"Bo. Sabana Llana San Juan, PR 00928",,San Juan,PR,928,7872748255,,Javier,Mendez,7877592000,Autoridad Escolar de Alimentos-DE,2019-06-03T04:00:00.000Z,2019-08-02T04:00:00.000Z,"M,T,W,TH,F",6:00-2:00,7:00-8:00,11:00-1:00,9:00-10:00,,,"B,L,M",2,N,US,132274,,2019,San Juan
-66.111038,18.352714,53113,Elemental Urbana,Open,"C/Carrazo Guaynabo, PR 00970",,Guaynabo,PR,970,7877203356,,Denice,Toledo,7877207977,Autoridad Escolar de Alimentos-DE,2019-06-03T04:00:00.000Z,2019-08-02T04:00:00.000Z,"M,T,W,TH,F",6:00-2:00,7:00-8:00,11:00-1:00,9:00-10:00,,,"B,L,M",2,N,US,132275,,2019,Guaynabo
-66.49989,18.24829,53115,Esc. Abelardo Mart°nez Otero,Open,"Villa Los Santos (Calle 14 Final) Arecibo, PR 00612",Calle 14 Final,Arecibo,PR,612,7878786717,,Irma,Villanueva,7878784868,Autoridad Escolar de Alimentos-DE,2019-06-03T04:00:00.000Z,2019-08-02T04:00:00.000Z,"M,T,W,TH,F",6:00-2:00,7:00-8:00,11:00-1:00,9:00-10:00,,,"B,L,M",2,N,US,132277,,2019,Orocovis
-66.65156,18.42356,53116,Esc. Cayetano Coll y Toste,Open,"Carr. 683 Km. 3 Hm. 5 (Barrio Miraflores) Arecibo, PR 00612",Barrio Miraflores,Arecibo,PR,612,7878616002,,Irma,Villanueva,7878784868,Autoridad Escolar de Alimentos-DE,2019-06-03T04:00:00.000Z,2019-08-02T04:00:00.000Z,"M,T,W,TH,F",6:00-2:00,7:00-8:00,11:00-1:00,9:00-10:00,,,"B,L,M",2,N,US,132278,,2019,Arecibo
-66.53851,18.4505,53118,Esc. Eli Ramos,Open,"Carr. 140 Barrio Llanada (Sector Fortuna) Barceloneta, PR 00617",Sector Fortuna,Barceloneta,PR,617,7878466813,,Miguel,Fernandez,7878784868,Autoridad Escolar de Alimentos-DE,2019-06-03T04:00:00.000Z,2019-08-02T04:00:00.000Z,"M,T,W,TH,F",6:00-2:00,7:00-8:00,11:00-1:00,9:00-10:00,,,"B,L,M",2,N,US,132280,,2019,Barceloneta
-65.826558,18.148213,53119,Esc. Fernando Suria,Open,"Calle Georgetti 31 (Barrio Pueblo) Barceloneta, PR 00617",Barrio Pueblo,Barceloneta,PR,617,7878466750,,Miguel,Fernandez,7878784868,Autoridad Escolar de Alimentos-DE,2019-06-03T04:00:00.000Z,2019-08-02T04:00:00.000Z,"M,T,W,TH,F",6:00-2:00,7:00-8:00,11:00-1:00,9:00-10:00,,,"B,L,M",2,N,US,132281,,2019,Humacao
-66.71573,18.47245,53120,Esc. Francisco G. Marin,Open,"Urb. Vista Azul Arecibo, PR 00612",,Arecibo,PR,612,7878782019,,Irma,Villanueva,7878784868,Autoridad Escolar de Alimentos-DE,2019-06-03T04:00:00.000Z,2019-08-02T04:00:00.000Z,"M,T,W,TH,F",6:00-2:00,7:00-8:00,11:00-1:00,9:00-10:00,,,"B,L,M",2,N,US,132282,,2019,Arecibo
-66.6349,18.4455,53122,Esc. Jes£s S. Delgado (Factor V),Open,"barrio Factor (Sector Animas) Arecibo, PR 00612",Sector Animas,Arecibo,PR,612,7878813090,,Jessica,Hernandez,7878784868,Autoridad Escolar de Alimentos-DE,2019-06-03T04:00:00.000Z,2019-08-02T04:00:00.000Z,"M,T,W,TH,F",6:00-2:00,7:00-8:00,11:00-1:00,9:00-10:00,,,"B,L,M",2,N,US,132284,,2019,Arecibo
-66.08729,18.391712,53125,Evaristo Rivera Chevremont,Open,"C/58 Bella Vista Hermosa San Juan, PR 00902",,San Juan,PR,902,7877920255,,Denice,Toledo,7877592000,Autoridad Escolar de Alimentos-DE,2019-06-03T04:00:00.000Z,2019-08-02T04:00:00.000Z,"M,T,W,TH,F",6:00-2:00,7:00-8:00,11:00-1:00,9:00-10:00,,,"B,L,M",2,N,US,132287,,2019,San Juan
-66.034275,18.362506,53126,Fair View,Open,"Calle 18 Esq. 17 (Urb. Fairview) Trujillo Alto, PR 00976",Urb. Fairview,Trujillo Alto,PR,976,7877613280,,Marie,Cruz,7877207977,Autoridad Escolar de Alimentos-DE,2019-06-03T04:00:00.000Z,2019-08-02T04:00:00.000Z,"M,T,W,TH,F",6:00-2:00,7:00-8:00,11:00-1:00,9:00-10:00,,,"B,L,M",2,N,US,132288,,2019,San Juan
-66.266,18.13996,53127,Federico Degetau II,Open,"Calle Ignacio Lopez (Carr. 14) Aibonito, PR 00786",Carr. 14,Aibonito,PR,786,7877352600,,Elsa,Colon,7877030422,Autoridad Escolar de Alimentos-DE,2019-06-03T04:00:00.000Z,2019-08-02T04:00:00.000Z,"M,T,W,TH,F",6:00-2:00,7:00-8:00,11:00-1:00,9:00-10:00,,,"B,L,M",2,N,US,132289,,2019,Aibonito
-66.024234,18.406825,53128,Felipe Gutierrez,Open,"C/Aristides Chavier (Villa Prades) San Juan, PR 00928",Villa Prades,San Juan,PR,928,7877675395,,Javier,Mendez,7877592000,Autoridad Escolar de Alimentos-DE,2019-06-03T04:00:00.000Z,2019-08-02T04:00:00.000Z,"M,T,W,TH,F",6:00-2:00,7:00-8:00,11:00-1:00,9:00-10:00,,,"B,L,M",2,N,US,132290,,2019,San Juan
-66.242516,18.298509,53129,Francisco L¢pez Cruz,Open,"Carr. 164 Km. 4.6 Naranjito, PR 00719",,Naranjito,PR,719,7878691003,,Joel,Morales,7877408890,Autoridad Escolar de Alimentos-DE,2019-06-03T04:00:00.000Z,2019-08-02T04:00:00.000Z,"M,T,W,TH,F",6:00-2:00,7:00-8:00,11:00-1:00,9:00-10:00,,,"B,L,M",2,N,US,132291,,2019,Naranjito
-66.128406,18.442238,53131,Francisco Oller,Open,"Avenida Las Nereidas Cata§o, PR 00962",,Cata§o,PR,962,7877887240,,Marta,Berrios,7877408890,Autoridad Escolar de Alimentos-DE,2019-06-03T04:00:00.000Z,2019-08-02T04:00:00.000Z,"M,T,W,TH,F",6:00-2:00,7:00-8:00,11:00-1:00,9:00-10:00,,,"B,L,M",2,N,US,132293,,2019,Catano
-66.035788,18.434939,53132,Fray BartolomÇ de Las Casas,Open,"Ave. Eduardo Conde (Res. Las Margaritas) San Juan, PR 00928",Res. Las Margaritas,San Juan,PR,928,7877265169,,Javier,Mendez,7877592000,Autoridad Escolar de Alimentos-DE,2019-06-03T04:00:00.000Z,2019-08-02T04:00:00.000Z,"M,T,W,TH,F",6:00-2:00,7:00-8:00,11:00-1:00,9:00-10:00,,,"B,L,M",2,N,US,132294,,2019,San Juan
-66.049129,18.411199,53134,Guillermo Atiles Moreau,Open,"Urb. Perez Moris (Calle Baez 500) San Juan, PR 00928",Calle Baez 500,San Juan,PR,928,7877676710,,Javier,Mendez,7877592000,Autoridad Escolar de Alimentos-DE,2019-06-03T04:00:00.000Z,2019-08-02T04:00:00.000Z,"M,T,W,TH,F",6:00-2:00,7:00-8:00,11:00-1:00,9:00-10:00,,,"B,L,M",2,N,US,132296,,2019,San Juan
-66.063288,18.448903,53135,Gustavo Becquer,Open,"C/Francia (Esq. Arecibo 31) San Juan, PR 00928",Esq. Arecibo 31,San Juan,PR,928,7877644260,,Javier,Mendez,7877592000,Autoridad Escolar de Alimentos-DE,2019-06-03T04:00:00.000Z,2019-08-02T04:00:00.000Z,"M,T,W,TH,F",6:00-2:00,7:00-8:00,11:00-1:00,9:00-10:00,,,"B,L,M",2,N,US,132297,,2019,San Juan
-67.0304,18.4801,53136,Heriberto Domenech,Open,"Carr. 2 Km. 112 (Barrio Mora) Isabela, PR 00662",Barrio Mora,Isabela,PR,662,7878302915,,Sonia,Calero,7878964644,Autoridad Escolar de Alimentos-DE,2019-06-03T04:00:00.000Z,2019-08-02T04:00:00.000Z,"M,T,W,TH,F",6:00-2:00,7:00-8:00,11:00-1:00,9:00-10:00,,,"B,L,M",2,N,US,132298,,2019,Isabela
-66.145598,18.313879,53137,Herminia Rivera,Open,"carr. 174 Km. 9 (Barrio guaraguao) Bayam¢n, PR 00959",Barrio guaraguao,Bayam¢n,PR,959,7877879774,,Glenda,Rivera,7877408890,Autoridad Escolar de Alimentos-DE,2019-06-03T04:00:00.000Z,2019-08-02T04:00:00.000Z,"M,T,W,TH,F",6:00-2:00,7:00-8:00,11:00-1:00,9:00-10:00,,,"B,L,M",2,N,US,132299,,2019,Bayamon
-66.170679,18.387573,53138,Hiram Gonz†lez,Open,"Avenida Los Millones (Urb. San Fernando) Bayam¢n, PR 00961",Urb. San Fernando,Bayam¢n,PR,961,7877408890,,Marta,Berrios,7877408890,Autoridad Escolar de Alimentos-DE,2019-06-03T04:00:00.000Z,2019-08-02T04:00:00.000Z,"M,T,W,TH,F",6:00-2:00,7:00-8:00,11:00-1:00,9:00-10:00,,,"B,L,M",2,N,US,132300,,2019,Bayamon
-66.343894,18.414898,53139,Ileana de Gracia,Open,"Carr. 2 Km. 31.8 (Sector bajura) Vega Alta, PR 00692",Sector bajura,Vega Alta,PR,692,7878837780,,Elsa,berrios,7878784868,Autoridad Escolar de Alimentos-DE,2019-06-03T04:00:00.000Z,2019-08-02T04:00:00.000Z,"M,T,W,TH,F",6:00-2:00,7:00-8:00,11:00-1:00,9:00-10:00,,,"B,L,M",2,N,US,132301,,2019,Vega Alta
-66.15572,18.39856,53140,InÇs M. Mendoza,Open,"Ave. Tnte. Nelson martinez (Urb. El Flamboy†n) Bayam¢n, PR 00961",Urb. El Flamboy†n,Bayam¢n,PR,961,7877808232,,Glenda,Rivera,7877408890,Autoridad Escolar de Alimentos-DE,2019-06-03T04:00:00.000Z,2019-08-02T04:00:00.000Z,"M,T,W,TH,F",6:00-2:00,7:00-8:00,11:00-1:00,9:00-10:00,,,"B,L,M",2,N,US,132302,,2019,Bayamon
-66.10572,18.4663,53141,Ines Mar°a Mendoza,Open,"Bo. Caimito Alto San Juan, PR 00902",,San Juan,PR,902,7877200790,,Denice,Toledo,7877592000,Autoridad Escolar de Alimentos-DE,2019-06-03T04:00:00.000Z,2019-08-02T04:00:00.000Z,"M,T,W,TH,F",6:00-2:00,7:00-8:00,11:00-1:00,9:00-10:00,,,"B,L,M",2,N,US,132303,,2019,San Juan
-66.024336,18.234898,53142,Inst. Modelo Ense§anza Ind.,Open,"C/Arizmendi 211 San Juan, PR 00924",,San Juan,PR,924,7877580535,,Javier,Mendez,7877592000,Autoridad Escolar de Alimentos-DE,2019-06-03T04:00:00.000Z,2019-08-02T04:00:00.000Z,"M,T,W,TH,F",6:00-2:00,7:00-8:00,11:00-1:00,9:00-10:00,,,"B,L,M",2,N,US,132304,,2019,Caguas
-67.020316,18.498348,53143,Irma Deliz de Mu§oz,Open,"Ave. Juan Hernandez Ortiz Isabela, PR 00662",,Isabela,PR,662,7878722598,,Sonia,Calero,7878964644,Autoridad Escolar de Alimentos-DE,2019-06-03T04:00:00.000Z,2019-08-02T04:00:00.000Z,"M,T,W,TH,F",6:00-2:00,7:00-8:00,11:00-1:00,9:00-10:00,,,"B,L,M",2,N,US,132305,,2019,Isabela
-66.159333,18.391893,53146,JosÇ A. D†vila,Open,"Carr. 167 Km. 5 (Forest Hills) Bayam¢n, PR 00961",Forest Hills,Bayam¢n,PR,961,7877852292,,Glenda,Rivera,7877408890,Autoridad Escolar de Alimentos-DE,2019-06-03T04:00:00.000Z,2019-08-02T04:00:00.000Z,"M,T,W,TH,F",6:00-2:00,7:00-8:00,11:00-1:00,9:00-10:00,,,"B,L,M",2,N,US,132308,,2019,Bayamon
-66.290763,18.126071,53147,Jose Celso Barbosa,Open,"Carr. 14 Km. 46.5 (Barrio Asomante) Aibonito, PR 00786",Barrio Asomante,Aibonito,PR,786,7877358892,,Elsa,Colon,7877030422,Autoridad Escolar de Alimentos-DE,2019-06-03T04:00:00.000Z,2019-08-02T04:00:00.000Z,"M,T,W,TH,F",6:00-2:00,7:00-8:00,11:00-1:00,9:00-10:00,,,"B,L,M",2,N,US,132309,,2019,Aibonito
-66.159559,18.399218,53148,JosÇ Celso Barbosa,Open,"C/parque Esq. Betances (carretera 167) Bayam¢n, PR 00961",carretera 167,Bayam¢n,PR,961,7877853469,,Glenda,rivera,7877408890,Autoridad Escolar de Alimentos-DE,2019-06-03T04:00:00.000Z,2019-08-02T04:00:00.000Z,"M,T,W,TH,F",6:00-2:00,7:00-8:00,11:00-1:00,9:00-10:00,,,"B,L,M",2,N,US,132310,,2019,Bayamon
-66.46878,18.33606,53149,JosÇ de Diego Ecol¢gica,Open,"Carretera 695 Km. 1.6 (Barrio Puertos) Dorado, PR 00692",Barrio Puertos,Dorado,PR,692,7872780321,,Elsa,berrios,7878784868,Autoridad Escolar de Alimentos-DE,2019-06-03T04:00:00.000Z,2019-08-02T04:00:00.000Z,"M,T,W,TH,F",6:00-2:00,7:00-8:00,11:00-1:00,9:00-10:00,,,"B,L,M",2,N,US,132311,,2019,Ciales
-66.02378,18.21746,53151,JosÇ Mercado,Open,"Calle Woodroe Wilson (Urb. Jose Mercado) Caguas, PR 00726",Urb. Jose Mercado,Caguas,PR,726,7877467860,,Maritza,Vazquez,7877030422,Autoridad Escolar de Alimentos-DE,2019-06-03T04:00:00.000Z,2019-08-02T04:00:00.000Z,"M,T,W,TH,F",6:00-2:00,7:00-8:00,11:00-1:00,9:00-10:00,,,"B,L,M",2,N,US,132313,,2019,Caguas
-66.61378,18.43384,53154,JosÇ Ram¢n Rivera,Open,"Carr. 693 Km. 3 Hm. 5 (Barrio Sabana Hoyos) Arecibo, PR 00612",Barrio Sabana Hoyos,Arecibo,PR,612,7878788160,,Irma,Villanueva,7878784868,Autoridad Escolar de Alimentos-DE,2019-06-03T04:00:00.000Z,2019-08-02T04:00:00.000Z,"M,T,W,TH,F",6:00-2:00,7:00-8:00,11:00-1:00,9:00-10:00,,,"B,L,M",2,N,US,132316,,2019,Arecibo
-66.55785,18.35413,53156,Juan Ponce de Leon,Open,"Barrio ceiba Carr. 641 (Km. 0 Hm. 5) Florida, PR 00650",Km. 0 Hm. 5,Florida,PR,650,7878222050,,Miguel,Fndez.,7878784868,Autoridad Escolar de Alimentos-DE,2019-06-03T04:00:00.000Z,2019-08-02T04:00:00.000Z,"M,T,W,TH,F",6:00-2:00,7:00-8:00,11:00-1:00,9:00-10:00,,,"B,L,M",2,N,US,132325,,2019,Florida
-66.12105,18.400735,53157,Juan Ponce de Le¢n,Open,"Barrio Juan Domingo Guaynabo, PR 00970",,Guaynabo,PR,970,7877650269,,Denice,Toledo,7877207977,Autoridad Escolar de Alimentos-DE,2019-06-03T04:00:00.000Z,2019-08-02T04:00:00.000Z,"M,T,W,TH,F",6:00-2:00,7:00-8:00,11:00-1:00,9:00-10:00,,,"B,L,M",2,N,US,132327,,2019,Guaynabo
-66.042969,18.420241,53158,Juan Ponce de Le¢n,Open,"Ave. barbosa (Esq. Vergel 374) San Juan, PR 00928",Esq. Vergel 374,San Juan,PR,928,7877644630,,Javier,Mendez,7877592000,Autoridad Escolar de Alimentos-DE,2019-06-03T04:00:00.000Z,2019-08-02T04:00:00.000Z,"M,T,W,TH,F",6:00-2:00,7:00-8:00,11:00-1:00,9:00-10:00,,,"B,L,M",2,N,US,132326,,2019,San Juan
-66.066638,18.397343,53161,Julio Selles Sola,Open,"C/19 Esq. 20 (Urb. Villa Nevarez) San Juan, PR 00928",Urb. Villa Nevarez,San Juan,PR,928,7877671333,,Ivette,Linares,7877592000,Autoridad Escolar de Alimentos-DE,2019-06-03T04:00:00.000Z,2019-08-02T04:00:00.000Z,"M,T,W,TH,F",6:00-2:00,7:00-8:00,11:00-1:00,9:00-10:00,,,"B,L,M",2,N,US,132330,,2019,San Juan
-66.32378,18.40911,53162,Ladislao Martinez Otero,Open,"Calle C (urb. Villa Linares) Vega Alta, PR 00692",urb. Villa Linares,Vega Alta,PR,692,7878835105,,Elsa,Berrios,7878784868,Autoridad Escolar de Alimentos-DE,2019-06-03T04:00:00.000Z,2019-08-02T04:00:00.000Z,"M,T,W,TH,F",6:00-2:00,7:00-8:00,11:00-1:00,9:00-10:00,,,"B,L,M",2,N,US,132331,,2019,Vega Alta
-66.07163,18.445067,53163,Loa°za Cordero,Open,"C/Feria Esq. C/Hip¢dromo #1312 San Juan, PR 00902",,San Juan,PR,902,7877240893,,Miladys,Torres,7877592000,Autoridad Escolar de Alimentos-DE,2019-06-03T04:00:00.000Z,2019-08-02T04:00:00.000Z,"M,T,W,TH,F",6:00-2:00,7:00-8:00,11:00-1:00,9:00-10:00,,,"B,L,M",2,N,US,132332,,2019,San Juan
-66.82545,18.48633,53164,Lorenzo Coballes Gand°a,Open,"Sector Los Alvarez (Carr. 130 Km. 3) Hatillo, PR 00612",Carr. 130 Km. 3,Hatillo,PR,612,7878984300,,Irma,Villanueva,7878784868,Autoridad Escolar de Alimentos-DE,2019-06-03T04:00:00.000Z,2019-08-02T04:00:00.000Z,"M,T,W,TH,F",6:00-2:00,7:00-8:00,11:00-1:00,9:00-10:00,,,"B,L,M",2,N,US,132333,,2019,Hatillo
-66.038596,18.446711,53166,Luis Llorens Torres,Open,"C/Marisabel (Res. Luis Llorens Torres) San Juan, PR 00902",Res. Luis Llorens Torres,San Juan,PR,902,7877261195,,Miladys,Torres,7877592000,Autoridad Escolar de Alimentos-DE,2019-06-03T04:00:00.000Z,2019-08-02T04:00:00.000Z,"M,T,W,TH,F",6:00-2:00,7:00-8:00,11:00-1:00,9:00-10:00,,,"B,L,M",2,N,US,132334,,2019,San Juan
-66.43473,18.12235,53167,Luis Mu§oz Mar°n,Open,"Sector La Ara§a Aguas Buenas, PR 00703",,Aguas Buenas,PR,703,7877323521,,Angel,Diaz,7877030422,Autoridad Escolar de Alimentos-DE,2019-06-03T04:00:00.000Z,2019-08-02T04:00:00.000Z,"M,T,W,TH,F",6:00-2:00,7:00-8:00,11:00-1:00,9:00-10:00,,,"B,L,M",2,N,US,132335,,2019,Villalba
-66.052083,18.231221,53168,Luis Mu§oz Rivera,Open,"Calle Mu§oz Rivera 54 Caguas, PR 00726",,Caguas,PR,726,7877432303,,Maritza,Vazquez,7877030422,Autoridad Escolar de Alimentos-DE,2019-06-03T04:00:00.000Z,2019-08-02T04:00:00.000Z,"M,T,W,TH,F",6:00-2:00,7:00-8:00,11:00-1:00,9:00-10:00,,,"B,L,M",2,N,US,132337,,2019,Caguas
-66.72525,18.26712,53169,Luis Mu§oz Rivera,Open,"Calle Dr. Cueto #124 Utuado, PR 00641",,Utuado,PR,641,7878942666,,Salvador,Burgos,7878283085,Autoridad Escolar de Alimentos-DE,2019-06-03T04:00:00.000Z,2019-08-02T04:00:00.000Z,"M,T,W,TH,F",6:00-2:00,7:00-8:00,11:00-1:00,9:00-10:00,,,"B,L,M",2,N,US,65509,,2019,Utuado
-66.79323,18.40773,53170,Luis Mu§oz Rivera,Open,"Carr. 130 Km. 3 Hm. 5 (barrio Capaez) Hatillo, PR 00612",barrio Capaez,Hatillo,PR,612,7878981830,,Irma,Villanueva,7878784868,Autoridad Escolar de Alimentos-DE,2019-06-03T04:00:00.000Z,2019-08-02T04:00:00.000Z,"M,T,W,TH,F",6:00-2:00,7:00-8:00,11:00-1:00,9:00-10:00,,,"B,L,M",2,N,US,132338,,2019,Hatillo
-66.117388,18.433432,53172,Luis Munoz Rivera II,Open,"Bo Amelia Guaynabo, PR 00965",,Guaynabo,PR,965,7872731530,,Margarita,Pacheco,7872731530,Autoridad Escolar de Alimentos-DE,2019-06-03T04:00:00.000Z,2019-08-02T04:00:00.000Z,"M,T,W,TH,F",6:00-2:00,7:00-8:00,11:00-1:00,9:00-10:00,,,"B,L,M",2,N,US,132339,,2019,Guaynabo
-66.051997,18.449015,53174,Luis Rodriguez Cabrero,Open,"C/Corona (Res. Luis Llorens Torres) San Juan, PR 00902",Res. Luis Llorens Torres,San Juan,PR,902,7877276095,,Miladys,Torres,7877592000,Autoridad Escolar de Alimentos-DE,2019-06-03T04:00:00.000Z,2019-08-02T04:00:00.000Z,"M,T,W,TH,F",6:00-2:00,7:00-8:00,11:00-1:00,9:00-10:00,,,"B,L,M",2,N,US,132341,,2019,San Juan
-66.3027,18.4488,53175,Luisa Valderrama,Open,"barrio San Antonio (Carr. 696) Dorado, PR 00692",Carr. 696,Dorado,PR,692,7877964410,,Elsa,Berrios,7878784868,Autoridad Escolar de Alimentos-DE,2019-06-03T04:00:00.000Z,2019-08-02T04:00:00.000Z,"M,T,W,TH,F",6:00-2:00,7:00-8:00,11:00-1:00,9:00-10:00,,,"B,L,M",2,N,US,132342,,2019,Dorado
-65.962416,18.39871,53176,Luz A. Calder¢n,Open,"Ave. Central Boulevard (Villa Carolina) Carolina, PR 00984",Villa Carolina,Carolina,PR,984,7877521135,,Johanney,Jaca,7877620225,Autoridad Escolar de Alimentos-DE,2019-06-03T04:00:00.000Z,2019-08-02T04:00:00.000Z,"M,T,W,TH,F",6:00-2:00,7:00-8:00,11:00-1:00,9:00-10:00,,,"B,L,M",2,N,US,132343,,2019,Carolina
-66.217425,18.369845,53178,Manuel Velilla,Open,"Carr. 861 Km. 5.9 (barrio Pi§as) Toa Alta, PR 00953",barrio Pi§as,Toa Alta,PR,953,7877973558,,Marta,Berrios,7877408890,Autoridad Escolar de Alimentos-DE,2019-06-03T04:00:00.000Z,2019-08-02T04:00:00.000Z,"M,T,W,TH,F",6:00-2:00,7:00-8:00,11:00-1:00,9:00-10:00,,,"B,L,M",2,N,US,132345,,2019,Toa Alta
-66.024115,18.240845,53179,Manuela Toro,Open,"Calle 5 (Urb. Caguas Norte) Caguas, PR 00725",Urb. Caguas Norte,Caguas,PR,725,7877450420,,Maritza,Vazquez,7877030422,Autoridad Escolar de Alimentos-DE,2019-06-03T04:00:00.000Z,2019-08-02T04:00:00.000Z,"M,T,W,TH,F",6:00-2:00,7:00-8:00,11:00-1:00,9:00-10:00,,,"B,L,M",2,N,US,132346,,2019,Caguas
-66.71573,18.47245,53181,Maria Cadilla,Open,"Carretera 129 (Barrio Hato Arriba) Arecibo, PR 00612",Barrio Hato Arriba,Arecibo,PR,612,7878783840,,Irma,Villanueva,7878784868,Autoridad Escolar de Alimentos-DE,2019-06-03T04:00:00.000Z,2019-08-02T04:00:00.000Z,"M,T,W,TH,F",6:00-2:00,7:00-8:00,11:00-1:00,9:00-10:00,,,"B,L,M",2,N,US,132348,,2019,Arecibo
-66.211326,18.303305,53182,Mar°a V†zquez de Umpierre,Open,"Carretera 167 Km. 8 (Buena Vista) Bayam¢n, PR 00957",Buena Vista,Bayam¢n,PR,957,7877990023,,Neuris,Gonzalez,7877408890,Autoridad Escolar de Alimentos-DE,2019-06-03T04:00:00.000Z,2019-08-02T04:00:00.000Z,"M,T,W,TH,F",6:00-2:00,7:00-8:00,11:00-1:00,9:0010:00,,,"B,L,M",2,N,US,132349,,2019,Naranjito
-66.13461,18.37439,53183,Mariano Abril,Open,"Barrio Rio Guaynabo Guaynabo, PR 00970",,Guaynabo,PR,970,7877207870,,Denice,Toledo,7877207977,Autoridad Escolar de Alimentos-DE,2019-06-03T04:00:00.000Z,2019-08-02T04:00:00.000Z,"M,T,W,TH,F",6:00-2:00,7:00-8:00,11:00-1:00,9:00-10:00,,,"B,L,M",2,N,US,132350,,2019,Guaynabo
-66.15572,18.39856,53184,Marta VÇlez Fajardo,Open,"Calle 11 #100 (Can†) Bayam¢n, PR 00957",Can†,Bayam¢n,PR,957,7877971775,,Neuris,Gonzalez,7877408890,Autoridad Escolar de Alimentos-DE,2019-06-03T04:00:00.000Z,2019-08-02T04:00:00.000Z,"M,T,W,TH,F",6:00-2:00,7:00-8:00,11:00-1:00,9:00-10:00,,,"B,L,M",2,N,US,132351,,2019,Bayamon
-66.481302,18.360401,53185,Mart°n Garc°a Guisti,Open,"Carr. 863 (Barrio Pajaros) Toa Baja, PR 00949",Barrio Pajaros,Toa Baja,PR,949,7872512268,,Marta,Berrios,7877408890,Autoridad Escolar de Alimentos-DE,2019-06-03T04:00:00.000Z,2019-08-02T04:00:00.000Z,"M,T,W,TH,F",6:00-2:00,7:00-8:00,11:00-1:00,9:00-10:00,,,"B,L,M",2,N,US,132352,,2019,Ciales
-66.148674,18.373018,53187,Miguel Cervantes Saavedra,Open,"Calle 831 Urb. Lomas verdes (Urb. Lomas verdes) Bayam¢n, PR 00956",Urb. Lomas verdes,Bayam¢n,PR,956,7877864065,,Glenda,Rivera,7877408890,Autoridad Escolar de Alimentos-DE,2019-06-03T04:00:00.000Z,2019-08-02T04:00:00.000Z,"M,T,W,TH,F",6:00-2:00,7:00-8:00,11:00-2:00,9:00-10:00,,,"B,L,M",2,N,US,132354,,2019,Bayamon
-66.050001,18.402941,53188,Modelo UPR,Open,"Ave. G†ndara San Juan, PR 00928",,San Juan,PR,928,7877640000,,Javier,Mendez,7877592000,Autoridad Escolar de Alimentos-DE,2019-06-03T04:00:00.000Z,2019-08-02T04:00:00.000Z,"M,T,W,TH,F",6:00-2:00,7:00-8:00,11:00-1:00,9:00-10:00,,,"B,L,M",2,N,US,132355,,2019,San Juan
-66.6951,18.2669,53189,Monserrate Moreno,Open,"Ave. Rivas Dominichi (Km. 2 Hm. 9 Bo. Vivi Abajo) Utuado, PR 00641",Km. 2 Hm. 9 Bo. Vivi Abajo,Utuado,PR,641,7878942486,,Salvador,Burgos,7878283085,Autoridad Escolar de Alimentos-DE,2019-06-03T04:00:00.000Z,2019-08-02T04:00:00.000Z,"M,T,W,TH,F",6:00-2:00,7:00-8:00,11:00-1:00,9:00-10:00,,,"B,L,M",2,N,US,132356,,2019,Utuado
-66.04271,18.222832,53190,Myrna Fuentes,Open,"Calle 3 (Urb. Bonneville) Caguas, PR 00726",Urb. Bonneville,Caguas,PR,726,7877442303,,Maritza,Vazquez,7877030422,Autoridad Escolar de Alimentos-DE,2019-06-03T04:00:00.000Z,2019-08-02T04:00:00.000Z,"M,T,W,TH,F",6:00-2:00,7:00-8:00,11:00-1:00,9:00-10:00,,,"B,L,M",2,N,US,132357,,2019,Caguas
-66.030706,18.232507,53191,Nicolas Aguayo Aldea,Open,"Calle Rafael Cordero 13 (Urb. Borinquen) Caguas, PR 00725",Urb. Borinquen,Caguas,PR,725,7877435065,,maritza,Vazquez,7877030422,Autoridad Escolar de Alimentos-DE,2019-06-03T04:00:00.000Z,2019-08-02T04:00:00.000Z,"M,T,W,TH,F",6:00-2:00,7:00-8:00,11:00-1:00,9:00-10:00,,,"B,L,M",2,N,US,132358,,2019,Caguas
-66.187407,18.378533,53192,Pablo Casals,Open,"Calle C (Bayam¢n Gardens) Bayam¢n, PR 00958",Bayam¢n Gardens,Bayam¢n,PR,958,7877990820,,Neuris,Gonzalez,7877408890,Autoridad Escolar de Alimentos-DE,2019-06-03T04:00:00.000Z,2019-08-02T04:00:00.000Z,"M,T,W,TH,F",6:00-2:00,7:00-8:00,11:00-1;00,9:00-10;00,,,"B,L,M",2,N,US,96915,,2019,Bayamon
-66.172062,18.396138,53195,Papa Juan XXIII,Open,"Isla nena 10 Esq. AO (Villa Rica) Bayam¢n, PR 00958",Villa Rica,Bayam¢n,PR,958,7877984611,,Neuris,Gonzalez,7877408890,Autoridad Escolar de Alimentos-DE,2019-06-03T04:00:00.000Z,2019-08-02T04:00:00.000Z,"M,T,W,TH,F",6:00-2:00,7:00-8:00,11:00-1:00,9:00-10:00,,,"B,L,M",2,N,US,132361,,2019,Bayamon
-65.9758,18.4127,53196,Pascasio P. Sancerrit,Open,"Calle Granada (Vista Mar) Carolina, PR 00984",Vista Mar,Carolina,PR,984,7877694260,,Johanney,Jaca,7877620225,Autoridad Escolar de Alimentos-DE,2019-06-03T04:00:00.000Z,2019-08-02T04:00:00.000Z,"M,T,W,TH,F",6:00-2:00,7:00-8:00,11:00-1:00,9:00-10:00,,,"B,L,M",2,N,US,132362,,2019,Carolina
-66.181701,18.4491,53198,Pedro Albizu Campos,Open,"Ave. Boulevard (Urb. Levittown) Toa Baja, PR 00949",Urb. Levittown,Toa Baja,PR,949,7877844605,,Marta,Berrios,7877844605,Autoridad Escolar de Alimentos-DE,2019-06-03T04:00:00.000Z,2019-08-02T04:00:00.000Z,"M,T,W,TH,F",6:00-2:00,7:00-8:00,11:00-1:00,9:00-10:00,,,"B,L,M",2,N,US,32665,,2019,Toa Baja
-66.047215,18.240304,53199,Pepita Arenas,Open,"Calle Milagros Carrillo #18 (Urb. Valle Tolima) Caguas, PR 00725",Urb. Valle Tolima,Caguas,PR,725,7877464262,,Maritza,Vazquez,7877030422,Autoridad Escolar de Alimentos-DE,2019-06-03T04:00:00.000Z,2019-08-02T04:00:00.000Z,"M,T,W,TH,F",6:00-2:00,7:00-8:00,11:00-1:00,9:00-10:00,,,"B,L,M",2,N,US,80450,,2019,Caguas
-66.032638,18.246318,53200,Pepita Garriga,Open,"Calle Esmeralda (Urb. Villa nca) Caguas, PR 00725",Urb. Villa nca,Caguas,PR,725,7877433633,,Maritza,Vazquez,7877030422,Autoridad Escolar de Alimentos-DE,2019-06-03T04:00:00.000Z,2019-08-02T04:00:00.000Z,"M,T,W,TH,F",6:00-2:00,7:00-8:00,11:00-1:00,9:00-10:00,,,"B,L,M",2,N,US,132364,,2019,Caguas
-66.49212,18.42745,53201,Petra Corretjer,Open,"Carr. 670 Km. 1 Hm. 2 Manat°, PR 00674",,Manat°,PR,674,7878540360,,Miguel,Fndez.,7878784868,Autoridad Escolar de Alimentos-DE,2019-06-03T04:00:00.000Z,2019-08-02T04:00:00.000Z,"M,T,W,TH,F",6:00-2:00,7:00-8:00,11:00-1:00,9:00-10:00,,,"B,L,M",2,N,US,132365,,2019,Manati
-66.011519,18.368141,53202,Petra Zen¢n de Fabery,Open,"Carr. 181 (Exp. Trujillo Alto) Trujillo Alto, PR 00976",Exp. Trujillo Alto,Trujillo Alto,PR,976,7877610685,,Marie,Cruz,7877207977,Autoridad Escolar de Alimentos-DE,2019-06-03T04:00:00.000Z,2019-08-02T04:00:00.000Z,"M,T,W,TH,F",6:00-2:00,7:00-8:00,11:00-1:00,9:00-10:00,,,"B,L,M",2,N,US,132366,,2019,Trujillo Alto
-66.074345,18.430315,53204,Rafael Mar°a de Labra,Open,"C/Roberto H. Todd (Pda. 18) San Juan, PR 00902",Pda. 18,San Juan,PR,902,7877227443,,Miladys,Torres,7877227443,Autoridad Escolar de Alimentos-DE,2019-06-03T04:00:00.000Z,2019-08-02T04:00:00.000Z,"M,T,W,TH,F",6:00-2:00,7:00-8:00,11:00-1:00,9:00-10:00,,,"B,L,M",2,N,US,132368,,2019,San Juan
-66.940196,18.478842,53205,Ramon E Betances,Open,"Calle San Justo Quebradillas, PR 00674",,Quebradillas,PR,674,7878952575,,Jessica,Hernandez,7878784868,Autoridad Escolar de Alimentos-DE,2019-06-03T04:00:00.000Z,2019-08-02T04:00:00.000Z,"M,T,W,TH,F",6:00-2:00,7:00-8:00,11:00-1:00,9:00-10:00,,,"B,L,M",2,N,US,132369,,2019,Quebradillas
-66.102275,18.376429,53206,Ram¢n Mar°n Sol†,Open,"C/Azalea (Urb. Mu§oz Rivera) Guaynabo, PR 00970",Urb. Mu§oz Rivera,Guaynabo,PR,970,7877203911,,Denice,Toledo,7877207977,Autoridad Escolar de Alimentos-DE,2019-06-03T04:00:00.000Z,2019-08-02T04:00:00.000Z,"M,T,W,TH,F",6:00-2:00,7:00-8:00,11:00-1:00,9:00-10:00,,,"B,L,M",2,N,US,132370,,2019,Guaynabo
-66.062772,18.451935,53209,Republica del peru,Open,"C/Lo°za Final San Juan, PR 00902",,San Juan,PR,902,7877592000,,Miladys,Torres,7877592000,Autoridad Escolar de Alimentos-DE,2019-06-03T04:00:00.000Z,2019-08-02T04:00:00.000Z,"M,T,W,TH,F",6:00-2:00,7:00-8:00,11:00-1:00,9:00-10:00,,,"B,L,M",2,N,US,132373,,2019,San Juan
-66.196989,18.370602,53210,Rexville Elemental,Open,"Calle 13 Esq. Calle 23 (Urb. Rexville) Bayam¢n, PR 00957",Urb. Rexville,Bayam¢n,PR,957,7877975004,,Neuris,Gonzalez,7877408890,Autoridad Escolar de Alimentos-DE,2019-06-03T04:00:00.000Z,2019-08-02T04:00:00.000Z,"M,T,W,TH,F",6:00-2:00,7:00-8:00,11:00-1:00,9:00-10:00,,,"B,L,M",2,N,US,132374,,2019,Bayamon
-66.101454,18.380451,53212,Santiago Iglesias Pant°n,Open,"Urb. Santiago Iglesias Guaynabo, PR 00970",,Guaynabo,PR,970,7877838385,,Denice,Toledo,7877207977,Autoridad Escolar de Alimentos-DE,2019-06-03T04:00:00.000Z,2019-08-02T04:00:00.000Z,"M,T,W,TH,F",6:00-2:00,7:00-8:00,11:00-1:00,9:00-10:00,,,"B,L,M",2,N,US,132376,,2019,San Juan
-66.725858,18.266868,53214,Sup. Voc. Antonio Reyes,Open,"Carr. 10 (Bo. Salto Arriba) Utuado, PR 00641",Bo. Salto Arriba,Utuado,PR,641,7878140012,,Salvador,Burgos,7878283085,Autoridad Escolar de Alimentos-DE,2019-06-03T04:00:00.000Z,2019-08-02T04:00:00.000Z,"M,T,W,TH,F",6:00-2:00,7:00-8:00,11:00-1:00,9:00-10:00,,,"B,L,M",2,N,US,132378,,2019,Utuado
-66.82545,18.48633,53216,Timoteo Delgado,Open,"barrio Pajuil (Carr. 130 Km. 8 Hm. 3) Hatillo, PR 00612",Carr. 130 Km. 8 Hm. 3,Hatillo,PR,612,7878989566,,Irma,Villanueva,7878784868,Autoridad Escolar de Alimentos-DE,2019-06-03T04:00:00.000Z,2019-08-02T04:00:00.000Z,"M,T,W,TH,F",6:00-2:00,7:00-8:00,11:00-1:00,9:00-10:00,,,"B,L,M",2,N,US,132380,,2019,Hatillo
-66.20882,18.373362,53218,Tom†s Maso Rivera,Open,"Carretera 861 Km. 5.5 (Barrios Pi§as) Toa Alta, PR 00953",Barrios Pi§as,Toa Alta,PR,953,7872794401,,Marta,Berrios,7877408890,Autoridad Escolar de Alimentos-DE,2019-06-03T04:00:00.000Z,2019-08-02T04:00:00.000Z,"M,T,W,TH,F",6:00-2:00,7:00-8:00,11:00-1:00,9:00-10:00,,,"B,L,M",2,N,US,132382,,2019,Toa Alta
-66.15572,18.39856,53219,Trina Padilla,Open,"Carretera 663 Km. 1 (Urb. Villa Los Santos) Arecibo, PR 00612",Urb. Villa Los Santos,Arecibo,PR,612,7878781365,,Jessica,Hernandez,7872073709,Autoridad Escolar de Alimentos-DE,2019-06-03T04:00:00.000Z,2019-08-02T04:00:00.000Z,"M,T,W,TH,F",6:00-2:00,7:00-8:00,11:00-1:00,,,,"B,L",2,N,US,132383,,2019,Bayamon
-66.007867,18.352912,53220,Tulio Larrinaga,Open,"C/Andres Valcarcel Final Trujillo Alto, PR 00976",,Trujillo Alto,PR,976,7877611154,,Marie,Cruz,7877207977,Autoridad Escolar de Alimentos-DE,2019-06-03T04:00:00.000Z,2019-08-02T04:00:00.000Z,"M,T,W,TH,F",6:00-2:00,7:00-8:00,11:00-1:00,9:00-10:00,,,"B,L,M",2,N,US,132384,,2019,Trujillo Alto
-66.081842,18.395676,53221,University Gardens,Open,"Ave. Notre Dame (University Gdn.) San Juan, PR 00928",University Gdn.,San Juan,PR,928,7877642503,,Ivette,Linares,7877642503,Autoridad Escolar de Alimentos-DE,2019-06-03T04:00:00.000Z,2019-08-02T04:00:00.000Z,"M,T,W,TH,F",6:00-2:00,7:00-8:00,11:00-1:00,9:00-10:00,,,"B,L,M",2,N,US,132386,,2019,San Juan
-66.061128,18.409562,53222,Victor Pares Collazo,Open,"C/Peru Final (Urb. Baldrich) San Juan, PR 00928",Urb. Baldrich,San Juan,PR,928,7877642151,,Ivette,Linares,7877642151,Autoridad Escolar de Alimentos-DE,2019-06-03T04:00:00.000Z,2019-08-02T04:00:00.000Z,"M,T,W,TH,F",6:00-2:00,7:00-8:00,11:00-1:00,9:00-10:00,,,"B,L,M",2,N,US,132387,,2019,San Juan
-66.026008,18.395267,53223,Villa Capri,Open,"C/Verona (Esq. Niza Urb. Villa capri) San Juan, PR 00928",Esq. Niza Urb. Villa capri,San Juan,PR,928,7877618765,,Javier,Mendez,7877592000,Autoridad Escolar de Alimentos-DE,2019-06-03T04:00:00.000Z,2019-08-02T04:00:00.000Z,"M,T,W,TH,F",6:00-2:00,7:00-8:00,11:00-1:00,9:00-10:00,,,"B,L,M",2,N,US,132388,,2019,San Juan
-66.15014,18.23263,53224,Violanta JimÇnez,Open,"Carretera 165 (Calle Adela Rol¢n Fuentes) Toa Alta, PR 00953",Calle Adela Rol¢n Fuentes,Toa Alta,PR,953,7878701378,,Marta,Berrios,7877408890,Autoridad Escolar de Alimentos-DE,2019-06-03T04:00:00.000Z,2019-08-02T04:00:00.000Z,"M,T,W,TH,F",6:00-2:00,7:00-8:00,11:00-1:00,9:00-10:00,,,"B,L,M",2,N,US,132389,,2019,Aguas Buenas
-66.043456,18.409975,53226,Voc. Miguel Such,Open,"Ave. Barbosa (Esq. Pi§ero) San Juan, PR 00928",Esq. Pi§ero,San Juan,PR,928,7877513780,,Javier,Mendez,7877592000,Autoridad Escolar de Alimentos-DE,2019-06-03T04:00:00.000Z,2019-08-02T04:00:00.000Z,"M,T,W,TH,F",6:00-2:00,7:00-8:00,11:00-1:00,9:00-10:00,,,"B,L,M",2,N,US,132391,,2019,San Juan
-66.31684,18.34106,53227,Vocacional Agr°cola,Open,"carr. 159 Int (barrio Abras) Corozal, PR 00783",barrio Abras,Corozal,PR,783,7878598200,,Neuris,Gonzalez,7877408890,Autoridad Escolar de Alimentos-DE,2019-06-03T04:00:00.000Z,2019-08-02T04:00:00.000Z,"M,T,W,TH,F",6:00-2:00,7:00-8:00,11:00-1:00,9:0010:00,,,"B,L,M",2,N,US,132392,,2019,Corozal
-66.05584,18.21478,53228,Wesleyan Academy,Open,"Km. 1.6 Camino Alejandrino Guaynabo, PR 00970",,Guaynabo,PR,970,7876425730,,Denice,Toledo,7877207977,Autoridad Escolar de Alimentos-DE,2019-06-03T04:00:00.000Z,2019-08-02T04:00:00.000Z,"M,T,W,TH,F",6:00-2:00,7:00-8:00,11:00-1:00,9:00-10:00,,,"B,L,M",2,N,US,132393,,2019,Caguas
-66.38767,18.44439,55395,Agapito Rosario,Open,"Calle 5 Esquina T (Urb. Alturas Vega Baja) Vega Baja, PR 00693",Urb. Alturas Vega Baja,Vega Baja,PR,693,7878582988,,Diphna,Sanmiguel,7878784868,Autoridad Escolar de Alimentos-DE,2019-06-03T04:00:00.000Z,2019-08-02T04:00:00.000Z,"M,T,W,TH,F",6:00-2:00,7:00-8:00,11:00-1:00,9:00-10:00,,,"B,L,M",3,N,US,133430,,2019,
-66.392649,18.223495,55796,Alberto MelÇndez,Open,"Calle Juan Rivera y Stgo. Orocovis, PR 00720",,Orocovis,PR,720,7878673353,,Hector,Perez,7877408890,Autoridad Escolar de Alimentos-DE,2019-06-03T04:00:00.000Z,2019-08-02T04:00:00.000Z,"M,T,W,TH,F",6:00-2:00,7:00-8:00,11:00-1:00,9:00-10:00,,,"B,L,M",3,N,US,133432,,2019,
-66.151851,18.399086,56175,Asamblea Familiar Virgilio Davila,Open,"Calle Santa Cruz #11 Bayam¢n, PR 00961",,Bayam¢n,PR,961,7872690325,,Juanita,Becerril,7872690325,"Asamblea Familiar Virgilio Davila, Inc.",2019-06-10T04:00:00.000Z,2019-07-05T04:00:00.000Z,"M,T,W,TH,F",7:00-2:00,8:30-9:30,12:00-1:00,,,,"B,L",3,N,US,133444,,2019,
-67.116853,18.18525,56176,Acad. Adv. Bella Vista,Open,"Carr. 349 (Cerro Las Mesas) MayagÅez, PR 00680",Cerro Las Mesas,MayagÅez,PR,680,7878338321,,Caroline,Mendez,7878322062,Autoridad Escolar de Alimentos-DE,2019-06-03T04:00:00.000Z,2019-08-02T04:00:00.000Z,"M,T,W,TH,F",6:00-2:00,7:00-8:00,11:00-1:00,9:00-10:00,,,"B,L,M",3,N,US,133420,,2019,
-67.156495,18.241962,56177,Acad. Adv. Elemental,Open,"Sector Cuba #1060 MayagÅez, PR 00680",,MayagÅez,PR,680,7878329626,,Caroline,Mendez,7878322062,Autoridad Escolar de Alimentos-DE,2019-06-03T04:00:00.000Z,2019-08-02T04:00:00.000Z,"M,T,W,TH,F",6:00-2:00,7:00-8:00,11:00-1:00,9:00-10:00,,,"B,L,M",3,N,US,133421,,2019,
-67.000023,18.351334,56178,Acad. Adv. Ram¢n Rivera,Open,"Carr. 445 Km. 1.0 (Bo. Guatemala) San Sebasti†n, PR 00669",Bo. Guatemala,San Sebasti†n,PR,669,7878961506,,Zulma,Martinez,7878964644,Autoridad Escolar de Alimentos-DE,2019-06-03T04:00:00.000Z,2019-08-02T04:00:00.000Z,"M,T,W,TH,F",6:00-2:00,7:00-8:00,11:00-1:00,9:00-10:00,,,"B,L,M",3,N,US,133422,,2019,
-66.1049,17.98073,56179,Acad. San Antonio,Open,"Avenida Los veteranos Guayama, PR 00714",,Guayama,PR,714,7877030422,,Carol,Diaz,7877030422,Autoridad Escolar de Alimentos-DE,2019-06-03T04:00:00.000Z,2019-08-02T04:00:00.000Z,"M,T,W,TH,F",6:00-2:00,7:00-8:00,11:00-1:00,9:00-10:00,,,"B,L,M",3,N,US,133423,,2019,
-66.159405,18.125477,56180,Academia La Milagrosa,Open,"Carr. 171 Km. 7.4 (Barrio Rincon) Cayey, PR 00736",Barrio Rincon,Cayey,PR,736,7877385565,,Angel,Diaz,7877030422,Autoridad Escolar de Alimentos-DE,2019-06-03T04:00:00.000Z,2019-08-02T04:00:00.000Z,"M,T,W,TH,F",6:00-2:00,7:00-8:00,11:00-1:00,9:00-10:00,,,"B,L,M",3,N,US,133424,,2019,
-66.595003,18.223978,56183,Adrian Torres Torres,Open,"Carr. 141 (Ramal Desvio Norte) Jayuya, PR 00664",Ramal Desvio Norte,Jayuya,PR,664,7878283625,,Salvador,Burgos,7878283085,Autoridad Escolar de Alimentos-DE,2019-06-03T04:00:00.000Z,2019-08-02T04:00:00.000Z,"M,T,W,TH,F",6:00-2:00,7:00-8:00,11:00-1:00,9:00-10:00,,,"B,L,M",3,N,US,133427,,2019,
-65.82738,18.14968,56184,Agapito L¢pez Flores,Open,"Urb. Verdemar Humacao, PR 00741",,Humacao,PR,741,7878526494,,Sheila,Pujols,7878500010,Autoridad Escolar de Alimentos-DE,2019-06-03T04:00:00.000Z,2019-08-02T04:00:00.000Z,"M,T,W,TH,F",6:00-2:00,7:00-8:00,11:00-1:00,9:00-10:00,,,"B,L,M",3,N,US,133429,,2019,
-65.89933,18.00719,56187,Alfonso Casta,Open,"Avenida Calimano Maunabo, PR 00707",,Maunabo,PR,707,7878612300,,Zoraida,Canales,7872662201,Autoridad Escolar de Alimentos-DE,2019-06-03T04:00:00.000Z,2019-08-02T04:00:00.000Z,"M,T,W,TH,F",6:00-2:00,7:00-8:00,11:00-1:00,9:00-10:00,,,"B,L,M",3,N,US,133433,,2019,
-65.921,18.22746,56188,Alfonso D°az Lebr¢n,Open,"Carr. 31 Km. 25.6 Juncos, PR 00777",,Juncos,PR,777,7877346806,,Maria de L.,Contreras,7872662201,Autoridad Escolar de Alimentos-DE,2019-06-03T04:00:00.000Z,2019-08-02T04:00:00.000Z,"M,T,W,TH,F",6:00-2:00,7:00-8:00,11:00-1:00,9:00-10:00,,,"B,L,M",3,N,US,133434,,2019,
-66.49212,18.12718,56189,Alfredo Bocachica,Open,"Bo. El Pino (Km. 22) Villalba, PR 00766",Km. 22,Villalba,PR,766,7878478452,,Ileana,Ruiz,7878452220,Autoridad Escolar de Alimentos-DE,2019-06-03T04:00:00.000Z,2019-08-02T04:00:00.000Z,"M,T,W,TH,F",6:00-2:00,7:00-8:00,11:00-1:00,9:00-10:00,,,"B,L,M",3,N,US,133435,,2019,
-67.145239,18.1486,56190,Alfredo Dorrington,Open,"Urb. Valle Hermoso (34 Flamboyan) Hormigueros, PR 00660",34 Flamboyan,Hormigueros,PR,660,7878060185,,Caroline,Mendez,7878322062,Autoridad Escolar de Alimentos-DE,2019-06-03T04:00:00.000Z,2019-08-02T04:00:00.000Z,"M,T,W,TH,F",6:00-2:00,7:00-8:00,11:00-1:00,9:00-10:00,,,"B,L,M",3,N,US,133436,,2019,
-66.160529,18.174697,56191,Ana J. Candelas,Open,"Barrio Sud (Carretera 171 Km. 0.4) Cidra, PR 00739",Carretera 171 Km. 0.4,Cidra,PR,739,7877393011,,Angel,Diaz,7877030422,Autoridad Escolar de Alimentos-DE,2019-06-03T04:00:00.000Z,2019-08-02T04:00:00.000Z,"M,T,W,TH,F",6:00-2:00,7:00-8:00,11:00-1:00,9:00-10:00,,,"B,L,M",3,N,US,133437,,2019,
-65.820264,18.149539,56192,Ana RoquÇ,Open,"Calle Dr. Vidal Humacao, PR 00741",,Humacao,PR,741,7878521115,,Sheila,Pujols,7878500010,Autoridad Escolar de Alimentos-DE,2019-06-03T04:00:00.000Z,2019-08-02T04:00:00.000Z,"M,T,W,TH,F",6:00-2:00,7:00-8:00,11:00-1:00,9:00-10:00,,,"B,L,M",3,N,US,133438,,2019,
-65.847025,18.086446,56193,AndrÇs Sand°n,Open,"Barrio Aguacate Yabucoa, PR 00767",,Yabucoa,PR,767,7878934803,,Liz S.,Cruz,7872662201,Autoridad Escolar de Alimentos-DE,2019-06-03T04:00:00.000Z,2019-08-02T04:00:00.000Z,"M,T,W,TH,F",6:00-2:00,7:00-8:00,11:00-1:00,9:00-10:00,,,"B,L,M",3,N,US,128274,,2019,
-67.172369,18.365,56194,Anselmo Villarubia,Open,"carr. 4416 Km. 8 (Barrio Malpaso) Aguada, PR 00602",Barrio Malpaso,Aguada,PR,602,7878688735,,Sonia,Calero,7878964644,Autoridad Escolar de Alimentos-DE,2019-06-03T04:00:00.000Z,2019-08-02T04:00:00.000Z,"M,T,W,TH,F",6:00-2:00,7:00-8:00,11:00-1:00,9:00-10:00,,,"B,L,M",3,N,US,133439,,2019,
-66.578781,18.260829,56195,Antonia Serrano,Open,"Carr. 141 Km. 11 Hm. 1 (Bo. Mameyes) Jayuya, PR 00664",Bo. Mameyes,Jayuya,PR,664,7878281285,,Salvador,Burgos,7878283085,Autoridad Escolar de Alimentos-DE,2019-06-03T04:00:00.000Z,2019-08-02T04:00:00.000Z,"M,T,W,TH,F",6:00-2:00,7:00-8:00,11:00-1:00,9:00-10:00,,,"B,L,M",3,N,US,133440,,2019,
-65.959658,18.2149,56196,Antonio Fernos Isern,Open,"Carr. 181 (Salida Gurabo) San Lorenzo, PR 00754",Salida Gurabo,San Lorenzo,PR,754,7877361821,,Maria de L.,Contreras,7872662201,Autoridad Escolar de Alimentos-DE,2019-06-03T04:00:00.000Z,2019-08-02T04:00:00.000Z,"M,T,W,TH,F",6:00-2:00,7:00-8:00,11:00-1:00,9:00-10:00,,,"B,L,M",3,N,US,133441,,2019,
-65.892753,18.344977,56197,Antonio R. Barcel¢,Open,"Barrio san Isidro Can¢vanas, PR 00729",,Can¢vanas,PR,729,7878762182,,Maribel,Colon,7878762182,Autoridad Escolar de Alimentos-DE,2019-06-03T04:00:00.000Z,2019-08-02T04:00:00.000Z,"M,T,W,TH,F",6:00-2:00,7:00-8:00,11:00-1:00,9:00-10:00,,,"B,L,M",3,N,US,133442,,2019,
-66.625343,18.192141,56198,Antonio Romero Mu§iz,Open,"Carr. 140 Km. 16 Hm. 1 (Bo. Collores) Jayuya, PR 00664",Bo. Collores,Jayuya,PR,664,7878282169,,Salvador,Burgos,7878283085,Autoridad Escolar de Alimentos-DE,2019-06-03T04:00:00.000Z,2019-08-02T04:00:00.000Z,"M,T,W,TH,F",6:00-2:00,7:00-8:00,11:00-1:00,9:00-10:00,,,"B,L,M",3,N,US,133443,,2019,
-65.87933,18.05052,56199,Asunci¢n Lugo,Open,"Carr. 182 (Barrio Calabazas) Yabucoa, PR 00767",Barrio Calabazas,Yabucoa,PR,767,7878938345,,Liz S.,Cruz,7872662201,Autoridad Escolar de Alimentos-DE,2019-06-03T04:00:00.000Z,2019-08-02T04:00:00.000Z,"M,T,W,TH,F",6:00-2:00,7:00-8:00,11:00-1:00,9:00-10:00,,,"B,L,M",3,N,US,133445,,2019,
-66.904735,17.975462,56201,Aurea Quiles,Open,"Carr. 333 Km. 5 Gu†nica, PR 00653",,Gu†nica,PR,653,7878212800,,Maritza,Ortiz,7878561750,Autoridad Escolar de Alimentos-DE,2019-06-03T04:00:00.000Z,2019-08-02T04:00:00.000Z,"M,T,W,TH,F",6:00-2:00,7:00-8:00,11:00-1:00,9:00-10:00,,,"B,L,M",3,N,US,133447,,2019,
-66.442656,18.354702,56202,Barahona Elemental,Open,"Carr. 633 Km. 4.1 (Barrio Barahona) Morovis, PR 00687",Barrio Barahona,Morovis,PR,687,7878622010,,Hector,perez,7877408890,Autoridad Escolar de Alimentos-DE,2019-06-03T04:00:00.000Z,2019-08-02T04:00:00.000Z,"M,T,W,TH,F",6:00-2:00,7:00-8:00,11:00-1:00,9:00-10:00,,,"B,L,M",3,N,US,133448,,2019,
-65.878843,18.433134,56203,BelÇn Blanco,Open,"Calle San Patricio (Carr. 188 Principal) Lo°za, PR 00729",Carr. 188 Principal,Lo°za,PR,729,7878768260,,Maribel,Colon,7878762182,Autoridad Escolar de Alimentos-DE,2019-06-03T04:00:00.000Z,2019-08-02T04:00:00.000Z,"M,T,W,TH,F",6:00-2:00,7:00-8:00,11:00-1:00,9:00-10:00,,,"B,L,M",3,N,US,133450,,2019,
-65.823102,18.13928,56204,Bellas Artes,Open,"Zona Industrial (Barrio Cata§o) Humacao, PR 00741",Barrio Cata§o,Humacao,PR,741,7872855575,,Liz S.,Cruz,7877340135,Autoridad Escolar de Alimentos-DE,2019-06-03T04:00:00.000Z,2019-08-02T04:00:00.000Z,"M,T,W,TH,F",6:00-2:00,7:00-8:00,11:00-1:00,9:00-10:00,,,"B,L,M",3,N,US,133451,,2019,
-67.15482,18.4593,56206,Benito Cerezo,Open,"Carr. 107 (Barrio Borinquen) Aguadilla, PR 00603",Barrio Borinquen,Aguadilla,PR,603,7878915000,,Agneris,Rosa,7878910662,Autoridad Escolar de Alimentos-DE,2019-06-03T04:00:00.000Z,2019-08-02T04:00:00.000Z,"M,T,W,TH,F",6:00-2:00,7:00-8:00,11:00-1:00,9:00-10:00,,,"B,L,M",3,N,US,133453,,2019,
-66.166,18.11191,56207,Benjam°n Harrison,Open,"Calle Jose de Diego (Esq. Ave. MMM) Cayey, PR 00736",Esq. Ave. MMM,Cayey,PR,736,7877382616,,Angel,Diaz,7877030422,Autoridad Escolar de Alimentos-DE,2019-06-03T04:00:00.000Z,2019-08-02T04:00:00.000Z,"M,T,W,TH,F",6:00-2:00,7:00-8:00,11:00-1:00,9:00-10:00,,,"B,L,M",3,N,US,133454,,2019,
-66.629661,18.002847,56208,Bernardino Cordero,Open,"Ave. Juan B. Roman Ponce, PR 00731",,Ponce,PR,731,7878484605,,Maria M.,Rodriguez,7878409150,Autoridad Escolar de Alimentos-DE,2019-06-03T04:00:00.000Z,2019-08-02T04:00:00.000Z,"M,T,W,TH,F",6:00-2:00,7:00-8:00,11:00-1:00,9:00-10:00,,,"B,L,M",3,N,US,133455,,2019,
-65.650471,18.349615,56209,Berta Zalduondo,Open,"Urb. Monte Brisas (Calle 104) Fajardo, PR 00738",Calle 104,Fajardo,PR,738,7878633959,,Zoraida,Canales,7878637535,Autoridad Escolar de Alimentos-DE,2019-06-03T04:00:00.000Z,2019-08-02T04:00:00.000Z,"M,T,W,TH,F",6:00-2:00,7:00-8:00,11:00-1:00,9:00-10:00,,,"B,L,M",3,N,US,133456,,2019,
-66.431991,18.17378,56210,Bonifacio Alvarado,Open,"Carretera 143 Km. 40.8 (Barrio Bermejales) Orocovis, PR 00720",Barrio Bermejales,Orocovis,PR,720,7878674633,,Hector,Perez,7877408890,Autoridad Escolar de Alimentos-DE,2019-06-03T04:00:00.000Z,2019-08-02T04:00:00.000Z,"M,T,W,TH,F",6:00-2:00,7:00-8:00,11:00-1:00,9:00-10:00,,,"B,L,M",3,N,US,133457,,2019,
-66.36677,18.241402,56212,Botijas I,Open,"Carr. 568 Km. 44.0 (Barrio Botijas) Orocovis, PR 00720",Barrio Botijas,Orocovis,PR,720,7878672260,,Hector,Perez,7877408890,Autoridad Escolar de Alimentos-DE,2019-06-03T04:00:00.000Z,2019-08-02T04:00:00.000Z,"M,T,W,TH,F",6:00-2:00,7:00-8:00,11:00-1:00,9:00-10:00,,,"B,L,M",3,N,US,133459,,2019,
-65.71655,18.37245,56213,Camilo VallÇs,Open,"Urb. Brisas del Mar (Calle 3) Luquillo, PR 00773",Calle 3,Luquillo,PR,773,7878895156,,Alexandra,Malave,7878762182,Autoridad Escolar de Alimentos-DE,2019-06-03T04:00:00.000Z,2019-08-02T04:00:00.000Z,"M,T,W,TH,F",6:00-2:00,7:00-8:00,11:00-1:00,9:00-10:00,,,"B,L,M",3,N,US,133460,,2019,
-66.29795,17.97747,56214,Carlos Col¢n Burgos,Open,"Carretera 3 (Sector Godreau) Salinas, PR 00704",Sector Godreau,Salinas,PR,704,7872842470,,Carol,Diaz,7877030422,Autoridad Escolar de Alimentos-DE,2019-06-03T04:00:00.000Z,2019-08-02T04:00:00.000Z,"M,T,W,TH,F",6:00-2:00,7:00-8:00,11:00-1:00,9:00-10:00,,,"B,L,M",3,N,US,133462,,2019,
