long,lat,objectID,siteName,siteStatus,siteAddress,siteAddress2,siteCity,siteState,siteZip,sitePhone,ext,contactFirstName,contactLastName,contactPhone,sponsoringOrganization,startDate,endDate,daysofOperation,comments,breakfastTime,lunchTime,snackTimeAM,snackTimePM,dinnerSupperTime,mealTypesServed,cycleNumber,recordStatus,country,fnsid,created,season,county
-117.0403167,46.41054449,63842,Beachview Park,Open,"1015 2nd Street Clarkston, WA 99403",,Clarkston,WA,99403,5097696346,,Amy,Kimberling,5097696346,Clarkston School District,2019-06-10T07:00:00.000Z,2019-08-15T07:00:00.000Z,"M, T, W, TH, F",,,11:45AM - 12:25PM,,,,L,4,N,US,25788,,2019,Asotin
-117.0599959,46.416294,63843,Arnold Park,Open,"Ash and Maple St Clarkston, WA 99403",,Clarkston,WA,99403,5097696346,,Amy,Kimberling,5097696346,Clarkston School District,2019-06-10T07:00:00.000Z,2019-08-15T07:00:00.000Z,"M, T, W, TH, F",,,11:30AM - 12:30PM,,,,L,4,N,US,25633,,2019,Asotin
-124.1012115,46.86227423,63844,Ocosta Elementary School,Open,"2580 S. Montesano Street Westport, WA 98595",,Westport,WA,98595,3602689125,240,Steve,Schmeling,3602689125,Ocosta School District,2019-07-08T07:00:00.000Z,2019-08-02T07:00:00.000Z,"M, T, W, TH, F",,8:40AM - 9:00AM,11:50AM - 12:20PM,,,,BL,4,N,US,59442,,2019,Grays Harbor
-122.9622239,46.13926433,63847,Olympic Elementary School,Open,"1324 30th Ave Longview, WA 98632",,Longview,WA,98632,3605757175,,Rick,Traynor,3605757175,Longview School District,2019-06-17T07:00:00.000Z,2019-06-28T07:00:00.000Z,"M, T, W, TH, F",,8:30AM - 8:45AM,12:00PM - 12:15PM,,,,BL,4,N,US,29901,,2019,Cowlitz
-119.6743556,48.00616145,63848,Bridgeport Elementary School,Open,"1400 Tacoma Avenue Bridgeport, WA 98813",,Bridgeport,WA,98813,5096865656,404,Debby,Sharp,5096865656,Bridgeport School District,2019-06-10T07:00:00.000Z,2019-08-14T07:00:00.000Z,"M, T, W, TH, F",,7:30AM - 8:30AM,11:30AM - 12:30PM,,,,BL,4,N,US,26127,,2019,Douglas
-122.7195932,46.5814424,63851,Onalaska Elementary School,Open,"551 Carlisle Avenue Onalaska, WA 98570",,Onalaska,WA,98570,3609784111,6,Jerry,Carlson,3609784111,Onalaska School District,2019-06-25T07:00:00.000Z,2019-06-28T07:00:00.000Z,"T, W, TH, F",,8:30AM - 9:00AM,11:45AM - 12:15PM,,,,BL,4,N,US,29907,,2019,Lewis
-122.7195932,46.5814424,63852,Onalaska Elementary School,Open,"551 Carlisle Avenue Onalaska, WA 98570",,Onalaska,WA,98570,3609784111,6,Jerry,Carlson,3609784111,Onalaska School District,2019-07-08T07:00:00.000Z,2019-07-25T07:00:00.000Z,"M, T, W, TH",,8:00AM - 8:30AM,11:30AM - 12:30PM,,,,BL,4,N,US,29907,,2019,Lewis
-117.042921,46.41083649,63853,Clarkston High School,Open,"401 Chestnut Street Clarkston, WA 99403",,Clarkston,WA,99403,5097696346,,Amy,Kimberling,5097696346,Clarkston School District,2019-06-10T07:00:00.000Z,2019-08-15T07:00:00.000Z,"M, T, W, TH, F",,9:00AM - 9:30AM,11:00AM - 1:00PM,,,,BL,4,N,US,26605,,2019,Asotin
-122.2240928,48.51410454,63854,Cascade Middle School,Open,"905 McGarigle Road Sedro-Woolley, WA 98284",,Sedro-Woolley,WA,98284,3608553866,,Mark,Campbell,3608553866,Sedro-Woolley School District,2019-07-01T07:00:00.000Z,2019-08-23T07:00:00.000Z,"M, T, W, TH, F",,9:00AM - 9:30AM,12:00PM - 1:00PM,,,,BL,4,N,US,26362,,2019,Skagit
-123.9062603,46.98279858,63855,Hoquiam Middle School,Open,"200 Spencer St. Hoquiam, WA 98550",,Hoquiam,WA,98550,3605388278,,Chris,Hansen,3605388278,Hoquiam School District,2019-06-17T07:00:00.000Z,2019-08-23T07:00:00.000Z,"M, T, W, TH, F",,,12:00PM - 12:30PM,,,,L,4,N,US,44071,,2019,Grays Harbor
-117.2011922,47.65713653,63856,Mica Peak,Open,"15111 E. Sprague Ave. Spokane, WA 99037",,Spokane,WA,99037,5095585414,,Denice,Kwate,5095585414,Central Valley School District,2019-06-17T07:00:00.000Z,2019-07-25T07:00:00.000Z,"M, T, W, TH",,10:00AM - 10:30AM,,,,,B,4,N,US,59143,,2019,Spokane
-117.3524238,47.97062848,63858,Riverside High School,Open,"4120 E Deer Park-Milan Rd Chattaroy, WA 99003",,Chattaroy,WA,99003,5094648202,,Ron,Thompson,5094648202,Riverside School District,2019-06-18T07:00:00.000Z,2019-08-07T07:00:00.000Z,"T, W",,,10:45AM - 11:00AM,,,,L,4,N,US,30506,,2019,Spokane
-117.0431612,46.40811255,63859,Parkway Elementary School,Open,"1103 4th Street Clarkston, WA 99403",,Clarkston,WA,99403,5097696346,,Amy,Kimberling,5097696346,Clarkston School District,2019-07-15T07:00:00.000Z,2019-07-19T07:00:00.000Z,"M, T, W, TH, F",,,12:30PM - 1:00PM,2:50PM - 3:20PM,,,LA,4,N,US,30059,,2019,Asotin
-119.2759462,46.26983132,63860,Lewis & Clark Elementary,Open,"415 Jadwin Ave Richland, WA 99352",,Richland,WA,99352,5099676115,,Cathy,Albertson,5099676115,Richland School District,2019-06-24T07:00:00.000Z,2019-08-02T07:00:00.000Z,"M, T, W, TH, F",,8:00AM - 8:30AM,,,,,B,4,N,US,134769,,2019,Benton
-119.2759462,46.26983132,63861,Lewis & Clark Elementary,Open,"415 Jadwin Ave Richland, WA 99352",,Richland,WA,99352,5099676115,,Cathy,Albertson,5099676115,Richland School District,2019-06-24T07:00:00.000Z,2019-08-02T07:00:00.000Z,"M, T, W, TH, F",,,11:45AM - 12:15PM,,,,L,4,N,US,134769,,2019,Benton
-122.5441944,45.76630052,63864,Maple Grove K-8 (formerly Maple Grove Middle School),Open,"610 B SW Eaton Blvd Battle Ground, WA 98604",,Battle Ground,WA,98604,3608855300,3907,James,Capen,3608855300,Battle Ground School District,2019-07-22T07:00:00.000Z,2019-08-08T07:00:00.000Z,"M, T, W, TH",,,11:00AM - 12:30PM,,,,L,4,N,US,45126,,2019,Clark
-122.9450899,46.14560116,63865,Northlake Elementary,Open,"2210 Olympia Way Longview, WA 98632",,Longview,WA,98632,3605757175,,Rick,Traynor,3605757175,Longview School District,2019-06-17T07:00:00.000Z,2019-08-16T07:00:00.000Z,"M, T, W, TH, F",,8:30AM - 8:45AM,12:00PM - 12:15PM,,,,BL,4,N,US,29790,,2019,Cowlitz
-122.9577553,46.13834799,63866,Monticello Middle School,Open,"1225- 28th Longview, WA 98632",,Longview,WA,98632,3605757175,,Rick,Traynor,3605757175,Longview School District,2019-07-08T07:00:00.000Z,2019-07-26T07:00:00.000Z,"M, T, W, TH, F",,8:30AM - 8:45AM,12:00PM - 12:15PM,,,,BL,4,N,US,82823,,2019,Cowlitz
-122.3021008,47.740815,63868,Shorecrest High,Open,"15343 25th Ave. N.E. Shoreline, WA 98155",,Shoreline,WA,98155,2063934209,,Andy,Orellana,2063934209,Shoreline School District,2019-07-08T07:00:00.000Z,2019-08-02T07:00:00.000Z,"M, T, W, TH, F",,,12:00PM - 12:30PM,,,,L,4,N,US,83689,,2019,King
-117.6759307,47.56839411,63869,Hallett Elementary,Open,"524 S. Hallett St. (P.O. Box 128) Medical Lake, WA 99022",P.O. Box 128,Medical Lake,WA,99022,5095653131,,Jill,Howard,5095653131,Medical Lake School District,2019-07-01T07:00:00.000Z,2019-08-15T07:00:00.000Z,"M, T, W, TH",,9:15AM - 9:30AM,11:45AM - 12:15PM,,,,BL,4,N,US,58463,,2019,Spokane
-122.8037724,47.03014277,63870,Lacey Elementary,Open,"1800 Homann Dr. Lacey, WA 98503",,Lacey,WA,98503,3604124446,21601,Alicia,Neal,3604124446,North Thurston School District,2019-06-24T07:00:00.000Z,2019-08-16T07:00:00.000Z,"M, T, W, TH, F",,,12:00PM - 12:30PM,3:00PM - 3:30PM,,,LA,4,N,US,90970,,2019,Thurston
-122.7997244,47.00551746,63871,Lakes Elementary,Open,"6217 Mullen Rd. Lacey, WA 98503",,Lacey,WA,98503,3604124446,21601,Alicia,Neal,3604124446,North Thurston School District,2019-06-24T07:00:00.000Z,2019-08-16T07:00:00.000Z,"M, T, W, TH, F",,8:00AM - 9:00AM,12:00PM - 12:30PM,,,,BL,4,N,US,107656,,2019,Thurston
-122.8458048,47.0410181,63872,Lydia Hawk Elementary,Open,"7600 5th St. S.E. Lacey, WA 98503",,Lacey,WA,98503,3604124446,21601,Alicia,Neal,3604124446,North Thurston School District,2019-06-24T07:00:00.000Z,2019-08-16T07:00:00.000Z,"M, T, W, TH, F",,,12:00PM - 12:45PM,3:00PM - 3:30PM,,,LA,4,N,US,37124,,2019,Thurston
-122.8004352,47.00606831,63873,Timberline High School,Open,"6120 Mullen Rd. SE Lacey, WA 98503",,Lacey,WA,98503,3604124446,21601,Alicia,Neal,3604124446,North Thurston School District,2019-07-08T07:00:00.000Z,2019-08-08T07:00:00.000Z,"M, T, W, TH",,8:00AM - 8:30AM,12:00PM - 12:45PM,,,,BL,4,N,US,109086,,2019,Thurston
-118.1538906,46.26696953,63876,Waitsburg Elementary,Open,"PO Box 217, 184 Academy St. Waitsburg, WA 99361",,Waitsburg,WA,99361,5093376461,1312,Susan,Wildey,5093376461,Waitsburg School District,2019-06-17T07:00:00.000Z,2019-08-16T07:00:00.000Z,"M, T, W, TH, F",,8:00AM - 8:30AM,11:30AM - 12:00PM,,,,BL,4,N,US,31723,,2019,Walla Walla
-120.4801115,46.555632,63877,Union Gap School,Open,"3201 South 4th Street Union Gap, WA 98903",,Union Gap,WA,98903,5092483966,402,Debra,Manzano,5092483966,Union Gap School District,2019-07-08T07:00:00.000Z,2019-08-02T07:00:00.000Z,"M, T, W, TH, F",,7:45AM - 8:45AM,11:15AM - 12:15PM,,,,BL,4,N,US,60527,,2019,Yakima
-119.9977422,46.31655897,63878,Chief Kamiakin Elementary,Open,"1700 E. Lincoln Avenue Sunnyside, WA 98944",,Sunnyside,WA,98944,5098368714,,Kelly,Barth,5098368714,Sunnyside School District,2019-06-24T07:00:00.000Z,2019-07-19T07:00:00.000Z,"M, T, W, TH, F",,7:15AM - 8:00AM,10:45AM - 12:00PM,,,,BL,4,N,US,26505,,2019,Yakima
-120.1907896,46.3461322,63879,Granger Middle School,Open,"501 Bailey Ave. Granger, WA 98932",,Granger,WA,98932,5098541614,,Michelle,Oswalt,5098541614,Granger School District,2019-06-17T07:00:00.000Z,2019-07-11T07:00:00.000Z,"M, T, W, TH",,7:30AM - 8:30AM,11:30AM - 12:30PM,,,,BL,4,N,US,90705,,2019,Yakima
-119.8548532,47.23404467,63881,Quincy Innovation Academy,Open,"404 1st Avenue SW Quincy, WA 98848",,Quincy,WA,98848,5097874571,3107,Tia,Stoddard,5097874571,Quincy School District,2019-06-24T07:00:00.000Z,2019-07-19T07:00:00.000Z,"M, T, W, TH, F",,7:30AM - 8:15AM,11:15AM - 12:00PM,,,,BL,4,N,US,135297,,2019,Grant
-117.2479917,47.64701734,63882,Opportunity Elementary,Open,"1109 S Wilbur Rd Spokane, WA 99206",,Spokane,WA,99206,5095585414,,Denice,Kwate,5095585414,Central Valley School District,2019-06-24T07:00:00.000Z,2019-07-18T07:00:00.000Z,"M, T, W, TH",,8:00AM - 8:30AM,11:45AM - 12:30PM,,,,BL,4,N,US,135173,,2019,Spokane
-120.0202203,46.31194408,63883,Sunnyside Community Center,Open,"1521 SOUTH FIRST STREET SUNNYSIDE, WA 98944",,SUNNYSIDE,WA,98944,5098368714,,Kelly,Barth,5098368714,Sunnyside School District,2019-06-24T07:00:00.000Z,2019-08-16T07:00:00.000Z,"M, T, W, TH, F",,,11:30AM - 12:30PM,,,,L,4,N,US,108964,,2019,Yakima
-120.0154075,46.32106527,63884,Central Park - Sunnyside Recreation,Open,"559 S 4th Street Sunnyside, WA 98944",,Sunnyside,WA,98944,5098368714,,Kelly,Barth,5098368714,Sunnyside School District,2019-06-24T07:00:00.000Z,2019-08-16T07:00:00.000Z,"M, T, W, TH, F",,,11:45AM - 12:45PM,,,,L,4,N,US,134031,,2019,Yakima
-117.0551305,48.17697527,63886,Stratton Elementary,Open,"1201 West Fifth Street Newport, WA 99156",,Newport,WA,99156,5094473167,4521,Sheila,Myrvang,5094473167,Newport School District,2019-07-08T07:00:00.000Z,2019-08-02T07:00:00.000Z,"M, T, W, TH, F",,7:45AM - 8:15AM,11:40AM - 12:10PM,,,,BL,4,N,US,108935,,2019,Pend Oreille
-117.162981,47.65325946,63887,Green Acres Elementary School,Open,"17915 E 4th Greenacres, WA 99016",,Greenacres,WA,99016,5095585414,,Denice,Kwate,5095585414,Central Valley School District,2019-06-24T07:00:00.000Z,2019-07-18T07:00:00.000Z,"M, T, W, TH",,8:00AM - 8:30AM,11:45AM - 12:30PM,,,,BL,4,N,US,134491,,2019,Spokane
-122.9189737,47.04786062,63888,Garfield Elementary,Open,"325 Plymouth St. N.W. Olympia, WA 98502",,Olympia,WA,98502,3605705857,,Luke,Burns,3605705857,City of Olympia,2019-06-24T07:00:00.000Z,2019-08-16T07:00:00.000Z,"M, T, W, TH, F",,,12:00PM - 12:30PM,3:00PM - 3:15PM,,,LA,4,N,US,35902,,2019,Thurston
-122.5156405,47.29714108,63891,Chinese Community Center,Open,"5025 N. Pearl Ruston, WA 98407",,Ruston,WA,98407,2533763553,,Belinda,Louie,2533763553,Chinese Community Center,2019-06-24T07:00:00.000Z,2019-08-30T07:00:00.000Z,"M, T, W, TH, F",,8:00AM - 9:00AM,11:30AM - 12:30PM,,,,BL,4,N,US,57815,,2019,Pierce
-117.4004008,47.67179551,63892,St. Aloysius School,Open,"611 East Mission Spokane, WA 99202",,Spokane,WA,99202,5094897825,242,Pat,Klumb,5094897825,St. Aloysius School,2019-06-17T07:00:00.000Z,2019-08-22T07:00:00.000Z,"M, T, W, TH, F",,8:20AM - 9:40AM,10:50AM - 12:40PM,,,,BL,4,N,US,31112,,2019,Spokane
-122.4854158,46.53031353,63894,Mossyrock Junior Senior High School,Open,"295 Williams St. Mossyrock, WA 98564",,Mossyrock,WA,98564,3609833181,302,Janice,Greene,3609833181,Mossyrock School District,2019-06-24T07:00:00.000Z,2019-07-31T07:00:00.000Z,"M, T, W, TH",,8:00AM - 8:45AM,11:45AM - 12:30PM,,,,BL,4,N,US,97400,,2019,Lewis
-124.384243,47.94822277,63895,Forks Junior- Senior High School,Open,"261 South Spartan Ave Forks, WA 98331",,Forks,WA,98331,3603746262,437,Sheri,Llewellyn,3603746262,Quillayute Valley School District,2019-06-24T07:00:00.000Z,2019-07-16T07:00:00.000Z,"M, T, W, TH, F",,8:30AM - 9:15AM,12:00PM - 12:45PM,,,,BL,4,N,US,134391,,2019,Clallam
-117.2921608,47.68230252,63899,West Valley High School,Open,"E 8301 Buckeye Spokane, WA 99212",,Spokane,WA,99212,5092326092,2551,Tim,Morgan,5092326092,West Valley School District-Spokane,2019-06-24T07:00:00.000Z,2019-06-27T07:00:00.000Z,"M, T, W, TH",,7:45AM - 10:30AM,11:15AM - 12:45PM,,,,BL,4,N,US,31860,,2019,Spokane
-117.2921608,47.68230252,63900,West Valley High School,Open,"E 8301 Buckeye Spokane, WA 99212",,Spokane,WA,99212,5092326092,2551,Tim,Morgan,5092326092,West Valley School District-Spokane,2019-07-08T07:00:00.000Z,2019-08-01T07:00:00.000Z,"M, T, W, TH",,8:30AM - 10:30AM,11:15AM - 12:45PM,,,,BL,4,N,US,31860,,2019,Spokane
-117.2773681,48.01876427,63901,Elk Community Park,Open,"40044 N Elk-Camden Rd Elk, WA 99009",,Elk,WA,99009,5094648202,,Ron,Thompson,5094648202,Riverside School District,2019-06-17T07:00:00.000Z,2019-08-08T07:00:00.000Z,"M, T, W, TH",,,12:15PM - 12:45PM,,,,L,4,N,US,27287,,2019,Spokane
-122.6269001,47.52578748,63903,East Port Orchard Elementary School,Open,"1964 Hoover Ave. S.E. Port Orchard, WA 98366",,Port Orchard,WA,98366,3604433667,,Ariane,Shanley,3604433667,South Kitsap School District,2019-06-24T07:00:00.000Z,2019-08-16T07:00:00.000Z,"M, T, W, TH, F",,,11:30AM - 12:30PM,,,,L,4,N,US,42818,,2019,Kitsap
-122.6362109,47.54182324,63904,Port Orchard Library,Open,"87 Sidney Ave Port Orchard, WA 98366",,Port Orchard,WA,98366,3604433667,,Ariane,Shanley,3604433667,South Kitsap School District,2019-07-10T07:00:00.000Z,2019-08-14T07:00:00.000Z,W,,,12:00PM - 12:15PM,,,,L,4,N,US,46491,,2019,Kitsap
-117.5765733,47.50724343,63905,Cheney Middle School,Open,"740 Betz Road Cheney, WA 99004",,Cheney,WA,99004,5095594506,,Jerald,Klinkenberg,5095594506,Cheney School District,2019-06-24T07:00:00.000Z,2019-07-26T07:00:00.000Z,"M, T, W, TH, F",,7:30AM - 8:30AM,11:30AM - 12:30PM,,,,BL,4,N,US,42102,,2019,Spokane
-119.2943561,46.27231508,63906,Marcus Whitman Elementary,Open,"1704 Gray Street Richland, WA 99352",,Richland,WA,99352,5099676115,,Cathy,Albertson,5099676115,Richland School District,2019-06-17T07:00:00.000Z,2019-08-16T07:00:00.000Z,"M, T, W, TH, F",,,12:00PM - 12:30PM,,,,L,4,N,US,87122,,2019,Benton
-122.8853606,47.04426853,63908,Madison Elementary School,Open,"1225 Legion Way SE Olympia, WA 98501",,Olympia,WA,98501,3605705857,,Luke,Burns,3605705857,City of Olympia,2019-06-24T07:00:00.000Z,2019-08-16T07:00:00.000Z,"M, T, W, TH, F",,,12:00PM - 12:30PM,3:00PM - 3:15PM,,,LA,4,N,US,37152,,2019,Thurston
-119.8559283,47.0852366,63909,George Elementary,Open,"401 South Washington Way Quincy, WA 98848",,Quincy,WA,98848,5097874571,3107,Tia,Stoddard,5097874571,Quincy School District,2019-06-24T07:00:00.000Z,2019-07-19T07:00:00.000Z,"M, T, W, TH, F",,7:30AM - 8:15AM,11:15AM - 12:00PM,,,,BL,4,N,US,134444,,2019,Grant
-120.3706635,47.73717507,63910,Ardenvoir Fire Station,Open,"223 Arden Road Ardenvoir, WA 98811",,Ardenvoir,WA,98811,5097847117,,May,Segle,5097847117,Entiat Valley Community Services Food Bank,2019-06-12T07:00:00.000Z,2019-08-23T07:00:00.000Z,"W, TH, F",,,12:05PM - 12:30PM,,,,L,4,N,US,33912,,2019,Chelan
-120.2168213,47.67316587,63911,Garden Apartments,Open,"2331 Albin Drive Entiat, WA 98822",,Entiat,WA,98822,5097847117,,May,Segle,5097847117,Entiat Valley Community Services Food Bank,2019-06-12T07:00:00.000Z,2019-08-23T07:00:00.000Z,"W, TH, F",,,11:15AM - 11:35AM,,,,L,4,N,US,35892,,2019,Chelan
-122.0985685,47.91767658,63914,Snohomish High School,Open,"1316 5th Street Snohomish, WA 98290",,Snohomish,WA,98290,3605637298,,Marty,Grasa,3605637298,Snohomish School District,2019-06-26T07:00:00.000Z,2019-08-30T07:00:00.000Z,"M, T, W, TH, F",,8:30AM - 9:00AM,11:30AM - 12:30PM,,,,BL,4,N,US,30905,,2019,Snohomish
-122.0862247,47.91275783,63915,Snohomish Boys & Girls Club,Open,"402 2nd Street Snohomish, WA 98290",,Snohomish,WA,98290,3605637298,,Marty,Grasa,3605637298,Snohomish School District,2019-06-26T07:00:00.000Z,2019-08-30T07:00:00.000Z,"M, T, W, TH, F",,8:15AM - 8:45AM,11:30AM - 12:15PM,,,,BL,4,N,US,30904,,2019,Snohomish
-117.1701023,47.38524452,63916,Community Center,Open,"304 E. Main Fairfield, WA 99012",,Fairfield,WA,99012,5092913962,,La Donna,Kelley,5092913962,Town of Fairfield,2019-06-24T07:00:00.000Z,2019-08-09T07:00:00.000Z,"M, T, W, TH, F",,,12:00PM - 1:00PM,,,,L,4,N,US,57895,,2019,Spokane
-117.3659222,47.70421051,63917,Northeast Youth Center No II,Open,"3004 E. Queen Spokane, WA 99207",,Spokane,WA,99207,5094820708,,Kate,Green,5094820708,Northeast Youth Center,2019-06-17T07:00:00.000Z,2019-08-28T07:00:00.000Z,"M, T, W, TH, F",,7:30AM - 8:00AM,11:00AM - 12:15PM,,,,BL,4,N,US,29785,,2019,Spokane
-117.3496389,48.02213994,63919,Aloha Pines Trailer Park,Open,"40602 N Newport Hwy Elk, WA 99009",,Elk,WA,99009,5094648202,,Ron,Thompson,5094648202,Riverside School District,2019-06-17T07:00:00.000Z,2019-08-08T07:00:00.000Z,"M, T, W, TH",,,11:45AM - 12:00PM,,,,L,4,N,US,133696,,2019,Spokane
-122.5396724,45.77756,63921,Kiwanis Park,Open,"422 SW 2nd Ave Battle Ground, WA 98604",,Battle Ground,WA,98604,3608855300,3907,James,Capen,3608855300,Battle Ground School District,2019-06-24T07:00:00.000Z,2019-08-16T07:00:00.000Z,"M, T, W, TH, F",,,11:30AM - 12:30PM,,,,L,4,N,US,44592,,2019,Clark
-122.0534465,47.83161932,63922,3 Rivers Trailer Park,Open,"13201 Elliott Road Snohomish, WA 98269",,Snohomish,WA,98269,3605637298,,Marty,Grasa,3605637298,Snohomish School District,2019-06-26T07:00:00.000Z,2019-08-30T07:00:00.000Z,"M, T, W, TH, F",,,11:15AM - 11:30PM,,,,L,4,N,US,25378,,2019,Snohomish
-119.0922909,46.24128246,63923,Bobbie Littrell Branch,Open,"333 West Court Street Pasco, WA 99301",,Pasco,WA,99301,5095439980,409,Rachel,Lockard-Duvall,5095439980,Boys & Girls Clubs of Benton and Franklin Counties,2019-06-20T07:00:00.000Z,2019-08-21T07:00:00.000Z,"M, T, W, TH, F",,,,2:30PM - 3:00PM,,4:00PM - 4:30PM,SA,4,N,US,25931,,2019,Franklin
-119.2757268,46.30866295,63924,Sacajawea Elementary,Open,"535 Fuller Richland, WA 99354",,Richland,WA,99354,5099676115,,Cathy,Albertson,5099676115,Richland School District,2019-06-17T07:00:00.000Z,2019-08-16T07:00:00.000Z,"M, T, W, TH, F",,,12:00PM - 12:30PM,,,,L,4,N,US,135385,,2019,Benton
-120.2096923,47.67525664,63925,Entiat Valley Community Services,Open,"2084 Entiat Way Entiat, WA 98822",,Entiat,WA,98822,5097847117,,May,Segle,5097847117,Entiat Valley Community Services Food Bank,2019-06-12T07:00:00.000Z,2019-08-23T07:00:00.000Z,"TH, F",,,11:30AM - 11:55AM,,,,L,4,N,US,35543,,2019,Chelan
-122.947977,46.13121351,63926,Longview Teen Center,Open,"2121 Kessler Blvd Longview, WA 98632",,Longview,WA,98632,3605757175,,Rick,Traynor,3605757175,Longview School District,2019-06-17T07:00:00.000Z,2019-08-16T07:00:00.000Z,"M, T, W, TH, F",,,,3:30PM - 3:45PM,,,A,4,N,US,29020,,2019,Cowlitz
-122.7980128,47.03523632,63927,Boys and Girls Club,Open,"1105 Tracy St. SE Lacey, WA 98503",,Lacey,WA,98503,3604124446,21601,Alicia,Neal,3604124446,North Thurston School District,2019-06-24T07:00:00.000Z,2019-08-16T07:00:00.000Z,"M, T, W, TH, F",,,12:15PM - 12:40PM,,,,L,4,N,US,26036,,2019,Thurston
-122.9458585,46.13744694,63928,Archie Anderson Park,Open,"21st Avenue Longview, WA 98632",,Longview,WA,98632,3605757175,,Rick,Traynor,3605757175,Longview School District,2019-07-08T07:00:00.000Z,2019-08-16T07:00:00.000Z,"M, T, W, TH",,,,3:00PM - 3:30PM,,,A,4,N,US,133734,,2019,Cowlitz
-122.9458585,46.13744694,63929,Archie Anderson Park,Open,"21st Avenue Longview, WA 98632",,Longview,WA,98632,3605757175,,Rick,Traynor,3605757175,Longview School District,2019-07-08T07:00:00.000Z,2019-08-16T07:00:00.000Z,"M, T, W, TH",,,12:00PM - 12:15PM,,,,L,4,N,US,133734,,2019,Cowlitz
-122.3556605,47.23892252,63932,Colburn Park,Open,"5506 20th Street East (Colburn Park) Fife, WA 98424",Colburn Park,Fife,WA,98424,2533051022,,Renee,Ward,2533051022,Metro Parks Tacoma,2019-06-24T07:00:00.000Z,2019-08-30T07:00:00.000Z,"M, T, W, TH, F",,,12:00PM - 1:00PM,,,,L,4,N,US,34927,,2019,Pierce
-122.0883453,47.9183104,63933,Snohomish Aquatic Center,Open,"516 Maple Ave Snohomish, WA 98290",,Snohomish,WA,98290,3605637298,,Marty,Grasa,3605637298,Snohomish School District,2019-06-26T07:00:00.000Z,2019-08-30T07:00:00.000Z,"M, T, W, TH, F",,,12:30PM - 12:45PM,,,,L,4,N,US,30903,,2019,Snohomish
-119.8524322,47.24053452,63934,North Park,Open,"7 C STREET NE Quincy, WA 98848",,Quincy,WA,98848,5097874571,3107,Tia,Stoddard,5097874571,Quincy School District,2019-06-24T07:00:00.000Z,2019-08-23T07:00:00.000Z,"M, T, W, TH, F",,,11:00AM - 11:30AM,,,,L,4,N,US,29765,,2019,Grant
-119.9871116,46.32517911,63935,YV Tech Skills Center,Open,"437 Barnard Blvd Sunnyside, WA 98944",,Sunnyside,WA,98944,5098368714,,Kelly,Barth,5098368714,Sunnyside School District,2019-06-17T07:00:00.000Z,2019-07-05T07:00:00.000Z,"M, T, W, TH, F",,,11:00AM - 11:30AM,,,,L,4,N,US,84492,,2019,Yakima
-117.0439893,48.180672,63936,Newport Public Library,Open,"116 S Washington Newport, WA 99156",,Newport,WA,99156,5094473167,4521,Sheila,Myrvang,5094473167,Newport School District,2019-06-25T07:00:00.000Z,2019-08-17T07:00:00.000Z,"M, T, W, TH, F, SA",,,12:00PM - 1:00PM,,,,L,4,N,US,82987,,2019,Pend Oreille
-122.5050742,48.78967748,63939,Villa Santa Fe,Open,"804 West Bakerview Rd Bellingham, WA 98226",,Bellingham,WA,98226,3606766574,,Mark,Dalton,3606766574,Bellingham School District,2019-02-13T08:00:00.000Z,2019-02-15T08:00:00.000Z,"W, TH, F",,,12:00PM - 1:00PM,,,,L,4,N,US,92076,,2019,Whatcom
-120.4173327,46.43368672,63940,Simcoe Elementary School,Open,"1307 S. Camas Avenue Wapato, WA 98951",,Wapato,WA,98951,5098775021,,John,Mattingly,5098775021,Wapato School District,2019-06-24T07:00:00.000Z,2019-07-25T07:00:00.000Z,"M, T, W, TH",,7:15AM - 8:30AM,11:00AM - 12:30PM,,,,BL,4,N,US,108770,,2019,Yakima
-123.8868306,46.97692186,63941,Hoquiam Timberland Library,Open,"420 7th Street Hoquiam, WA 98550",,Hoquiam,WA,98550,3605388278,,Chris,Hansen,3605388278,Hoquiam School District,2019-06-17T07:00:00.000Z,2019-08-23T07:00:00.000Z,"M, T, W, TH, F",,,12:15PM - 12:45PM,,,,L,4,N,US,111321,,2019,Grays Harbor
-122.6262332,47.53335321,63943,Helpline,Open,"1012 Mitchell Ave Port Orchard, WA 98366",,Port Orchard,WA,98366,3604433667,,Ariane,Shanley,3604433667,South Kitsap School District,2019-02-15T08:00:00.000Z,2019-02-15T08:00:00.000Z,F,,,11:30AM - 12:30PM,,,,L,4,N,US,134538,,2019,Kitsap
-117.3495389,47.97633625,63945,Riverside Village Mobile Home Park,Open,"35312 N Newport Hwy Chattaroy, WA 99003",,Chattaroy,WA,99003,5094648202,,Ron,Thompson,5094648202,Riverside School District,2019-06-17T07:00:00.000Z,2019-08-08T07:00:00.000Z,"M, T, W, TH",,,11:15AM - 11:30AM,,,,L,4,N,US,135344,,2019,Spokane
-119.8499625,47.228499,63946,South Park,Open,"L Street SE & 2nd Avenue SE Quincy, WA 98848",,Quincy,WA,98848,5097874571,3107,Tia,Stoddard,5097874571,Quincy School District,2019-06-24T07:00:00.000Z,2019-08-23T07:00:00.000Z,"M, T, W, TH, F",,,10:30AM - 11:00PM,,,,L,4,N,US,135502,,2019,Grant
-119.8561001,47.08085174,63947,George Library,Open,"109 N Washington Way George, WA 98824",,George,WA,98824,5097874571,3107,Tia,Stoddard,5097874571,Quincy School District,2019-06-24T07:00:00.000Z,2019-08-23T07:00:00.000Z,"M, T, W, TH, F",,,12:15PM - 12:45PM,,,,L,4,N,US,134445,,2019,Grant
-119.2742764,46.29332713,63948,Boys & Girls Club-Jefferson,Open,"1550 George Washington Way Richland, WA 99354",,Richland,WA,99354,5095439980,409,Rachel,Lockard-Duvall,5095439980,Boys & Girls Clubs of Benton and Franklin Counties,2019-07-01T07:00:00.000Z,2019-07-05T07:00:00.000Z,"M, T, W, TH, F",,,,3:30PM - 4:00PM,,,A,4,N,US,133885,,2019,Benton
-119.2742764,46.29332713,63949,Boys & Girls Club-Jefferson,Open,"1550 George Washington Way Richland, WA 99354",,Richland,WA,99354,5095439980,409,Rachel,Lockard-Duvall,5095439980,Boys & Girls Clubs of Benton and Franklin Counties,2019-07-22T07:00:00.000Z,2019-08-23T07:00:00.000Z,"M, T, W, TH, F",,,,3:00PM - 3:30PM,,,A,4,N,US,133885,,2019,Benton
-119.2757268,46.30866295,63950,Boys & Girls Club- Sacajawea,Open,"535 Fuller St. Richland, WA 99354",,Richland,WA,99354,5095439980,409,Rachel,Lockard-Duvall,5095439980,Boys & Girls Clubs of Benton and Franklin Counties,2019-06-17T07:00:00.000Z,2019-08-23T07:00:00.000Z,"M, T, W, TH, F",,,,3:00PM - 3:30PM,,,A,4,N,US,133883,,2019,Benton
-119.2943561,46.27231508,63951,Boys & Girls Club- Marcus Whitman,Open,"1704 Gray St. Richland, WA 99354",,Richland,WA,99354,5095439980,409,Rachel,Lockard-Duvall,5095439980,Boys & Girls Clubs of Benton and Franklin Counties,2019-06-17T07:00:00.000Z,2019-08-23T07:00:00.000Z,"M, T, W, TH, F",,,,3:30PM - 4:00PM,,,A,4,N,US,133878,,2019,Benton
-120.5232218,46.61258152,63952,OIC of Washington,Open,"815 Fruitvale Blvd Yakima, WA 98902",,Yakima,WA,98902,5099726044,,Magieline,Benedicto,5099726044,West Valley School District-Yakima,2019-06-17T07:00:00.000Z,2019-08-08T07:00:00.000Z,"M, T, W, TH, F",,7:30AM - 8:00AM,11:30AM - 12:30PM,,,,BL,4,N,US,135162,,2019,Yakima
-119.2808899,47.12737242,90582,McCosh Park,Open,"401 4th Avenue Moses Lake, WA 98837",,Moses Lake,WA,98837,5097649694,,Jenn,Olson,5097649694,Boys & Girls Club of the Columbia Basin,2019-06-17T04:00:00.000Z,2019-08-09T04:00:00.000Z,"M, T, W, TH, F",,,11:30AM - 12:30PM,,,,,7,N,US,37266,,2019,Grant
-122.6095835,47.57095491,90583,Manette Park,Open,"1125 Vandalia Ave Bremerton, WA 98310",,Bremerton,WA,98310,3604734716,,Lynn,Johnson,3604734716,Bremerton School District,2019-07-08T04:00:00.000Z,2019-08-09T04:00:00.000Z,"M, T, W, TH, F",,,12:00PM - 12:30PM,,,,,7,N,US,143812,,2019,Kitsap
-122.693874,47.56071988,90584,Nollwood Housing,Open,"385 Nollwood Lane Bremerton, WA 98312",,Bremerton,WA,98312,3604734716,,Lynn,Johnson,3604734716,Bremerton School District,2019-06-19T04:00:00.000Z,2019-08-16T04:00:00.000Z,"M, T, W, TH, F",,,12:00PM - 12:30PM,3:00PM - 3:15PM,,,,7,N,US,59375,,2019,Kitsap
-119.1438909,46.26796248,90585,James McGee Elementary School,Open,"4601 N. Horizon Dr Pasco, WA 99301",,Pasco,WA,99301,5095462836,,Kristen,Blair,5095462836,Pasco School District,2019-06-17T04:00:00.000Z,2019-08-16T04:00:00.000Z,"M, T, W, TH, F",,8:30AM - 9:00AM,11:30AM - 12:00PM,,,,,7,N,US,143475,,2019,Franklin
-119.1093605,46.23133651,90586,Memorial Park,Open,"1520 W.Shoshone St. Pasco, WA 99301",,Pasco,WA,99301,5095462836,,Kristen,Blair,5095462836,Pasco School District,2019-06-24T04:00:00.000Z,2019-08-01T04:00:00.000Z,"M, T, W, TH",,,11:30AM - 12:30PM,,,,,7,N,US,29368,,2019,Franklin
-123.4296159,48.1026729,90587,"Port Angeles B & G Club, Games Room",Open,"2620 S. Francis Street Port Angeles, WA 98362",,Port Angeles,WA,98362,3606838095,,David,Miller,3606838095,Boys & Girls Clubs of the Olympic Peninsula,2019-06-24T04:00:00.000Z,2019-08-29T04:00:00.000Z,"M, T, W, TH, F",,8:30AM - 9:00AM,,,,,,7,N,US,144433,,2019,Clallam
-123.4296159,48.1026729,90588,"Port Angeles B & G Club, Games Room",Open,"2620 S. Francis Street Port Angeles, WA 98362",,Port Angeles,WA,98362,3606838095,,David,Miller,3606838095,Boys & Girls Clubs of the Olympic Peninsula,2019-06-24T04:00:00.000Z,2019-08-29T04:00:00.000Z,"M, T, W, TH, F",,,12:00PM - 1:00PM,,,,,7,N,US,144433,,2019,Clallam
-120.1220081,47.87976964,90589,Lakeview Trailer Park,Open,"2441 Hwy 150 Manson, WA 98831",,Manson,WA,98831,5096873140,,Eric,Sivertson,5096873140,Manson School District,2019-06-17T04:00:00.000Z,2019-08-23T04:00:00.000Z,"M, T, W, TH, F",,8:40AM - 9:00AM,12:25PM - 12:55PM,,,,,7,N,US,28787,,2019,Chelan
-122.90787,46.15927649,90590,Barnes Elementary School,Open,"401 Barnes Street Kelso, WA 98626",,Kelso,WA,98626,3605011808,,Vivien,Basom,3605011808,Kelso School District,2019-06-17T04:00:00.000Z,2019-07-26T04:00:00.000Z,"M, T, W, TH, F",,8:15AM - 9:00AM,11:45AM - 12:30PM,,,,,7,N,US,25723,,2019,Cowlitz
-122.8907437,46.1448855,90591,Kelso High School,Open,"1904 Allen St Kelso, WA 98626",,Kelso,WA,98626,3605011808,,Vivien,Basom,3605011808,Kelso School District,2019-06-17T04:00:00.000Z,2019-07-26T04:00:00.000Z,"M, T, W, TH, F",,7:15AM - 8:30AM,11:00AM - 12:30PM,,,,,7,N,US,28607,,2019,Cowlitz
-123.8495843,46.97231128,90592,West End Park,Open,"2715 Bay Avenue Aberdeen, WA 98520",,Aberdeen,WA,98520,3605382256,,Jaime,Matisons,3605382256,Aberdeen School District,2019-06-15T04:00:00.000Z,2019-06-15T04:00:00.000Z,SA,,,11:30AM - 12:00PM,,,,,7,N,US,60670,,2019,Grays Harbor
-123.8495843,46.97231128,90593,West End Park,Open,"2715 Bay Avenue Aberdeen, WA 98520",,Aberdeen,WA,98520,3605382256,,Jaime,Matisons,3605382256,Aberdeen School District,2019-06-17T04:00:00.000Z,2019-08-23T04:00:00.000Z,"M, T, W, TH, F",,,11:30AM - 12:00PM,1:45PM - 2:00PM,,,,7,N,US,60670,,2019,Grays Harbor
-123.8052105,46.98706578,90594,North End Park,Open,"Young Street Aberdeen, WA 98520",,Aberdeen,WA,98520,3605382256,,Jaime,Matisons,3605382256,Aberdeen School District,2019-06-17T04:00:00.000Z,2019-08-23T04:00:00.000Z,"M, T, W, TH, F",,,11:30AM - 12:00PM,1:30PM - 1:45PM,,,,7,N,US,59390,,2019,Grays Harbor
-123.7922067,46.96776921,90595,Pioneer Park,Open,"214 South Tilden Aberdeen, WA 98520",,Aberdeen,WA,98520,3605382256,,Jaime,Matisons,3605382256,Aberdeen School District,2019-06-17T04:00:00.000Z,2019-08-23T04:00:00.000Z,"M, T, W, TH, F",,,11:30AM - 12:00PM,1:30PM - 1:45PM,,,,7,N,US,59613,,2019,Grays Harbor
-118.3432455,46.05553619,90596,Jefferson Park,Open,"802 Sprague Walla Walla, WA 99362",,Walla Walla,WA,99362,5095274527,,Angela,Potts,5095274527,City of Walla Walla Parks and Recreation,2019-06-17T04:00:00.000Z,2019-08-16T04:00:00.000Z,"M, T, W, TH, F",,,11:30AM - 12:00PM,,,,,7,N,US,28465,,2019,Walla Walla
-118.319877,46.06767,90597,Pioneer Park,Open,"Alder & Division Streets Walla Walla, WA 99362",,Walla Walla,WA,99362,5095274527,,Angela,Potts,5095274527,City of Walla Walla Parks and Recreation,2019-06-17T04:00:00.000Z,2019-08-16T04:00:00.000Z,"M, T, W, TH, F",,,12:00PM - 12:30PM,,,,,7,N,US,30185,,2019,Walla Walla
-118.3499325,46.067607,90598,Washington Park,Open,"9th Ave. & Cherry St. Walla Walla, WA 99362",,Walla Walla,WA,99362,5095274527,,Angela,Potts,5095274527,City of Walla Walla Parks and Recreation,2019-06-17T04:00:00.000Z,2019-08-16T04:00:00.000Z,"M, T, W, TH, F",,,11:45AM - 12:15PM,,,,,7,N,US,31778,,2019,Walla Walla
-120.1400429,47.884365,90599,Morning Star Housing Site,Open,"345 Madeline Road Manson, WA 98831",,Manson,WA,98831,5096873140,,Eric,Sivertson,5096873140,Manson School District,2019-06-17T04:00:00.000Z,2019-08-23T04:00:00.000Z,"M, T, W, TH, F",,9:05AM - 9:25AM,1:05PM - 1:35PM,,,,,7,N,US,45600,,2019,Chelan
-118.3300478,46.06652311,90601,YMCA,Open,"340 S. Park Walla Walla, WA 99362",,Walla Walla,WA,99362,5095274527,,Angela,Potts,5095274527,City of Walla Walla Parks and Recreation,2019-06-17T04:00:00.000Z,2019-08-23T04:00:00.000Z,"M, T, W, TH, F",,,12:00PM - 12:30PM,,,,,7,N,US,32081,,2019,Walla Walla
-123.8301071,46.97681453,90602,Finch Park,Open,"608 West Sumner Aberdeen, WA 98520",,Aberdeen,WA,98520,3605382256,,Jaime,Matisons,3605382256,Aberdeen School District,2019-06-17T04:00:00.000Z,2019-08-23T04:00:00.000Z,"M, T, W, TH, F",,,11:30AM - 12:00PM,1:30PM - 1:45PM,,,,7,N,US,143000,,2019,Grays Harbor
-120.1438109,47.89729517,90603,Blue Cabins,Open,"25 Chandler Road Manson, WA 98831",,Manson,WA,98831,5096873140,,Eric,Sivertson,5096873140,Manson School District,2019-06-17T04:00:00.000Z,2019-08-23T04:00:00.000Z,"M, T, W, TH, F",,8:15AM - 8:35AM,11:50AM - 12:20PM,,,,,7,N,US,25926,,2019,Chelan
-122.1494599,48.05471683,90604,Allen Creek Elementary,Open,"6505 60th Dr. N.E. Marysville, WA 98270",,Marysville,WA,98270,3609650094,,Mike,Sullivan,3609650094,Marysville School District,2019-07-08T04:00:00.000Z,2019-08-09T04:00:00.000Z,"M, T, W, TH, F",,9:30AM - 9:45AM,12:15PM - 12:45PM,,,,,7,N,US,89876,,2019,Snohomish
-123.832332,46.97151513,90605,Harbor High School,Open,"300 North Williams Aberdeen, WA 98520",,Aberdeen,WA,98520,3605382256,,Jaime,Matisons,3605382256,Aberdeen School District,2019-06-17T04:00:00.000Z,2019-07-03T04:00:00.000Z,"M, T, W, TH, F",,7:45AM - 8:10AM,11:00AM - 12:00PM,,,,,7,N,US,58480,,2019,Grays Harbor
-123.4100595,47.00361951,90606,Elma Middle School,Open,"805 W. Main St. Elma, WA 98541",,Elma,WA,98541,3604821005,,Bill,Christiansen,3604821005,Elma School District,2019-06-17T04:00:00.000Z,2019-08-08T04:00:00.000Z,"M, T, W, TH, F",,,12:00PM - 12:30PM,,,,,7,N,US,27296,,2019,Grays Harbor
-123.8956217,47.45919547,90607,Lake Quinault Elementary,Open,"6130 us hwy 101 Amanda Park, WA 98526",,Amanda Park,WA,98526,3602882414,44,Carol,Priebe,3602882414,Lake Quinault School District,2019-06-18T04:00:00.000Z,2019-07-25T04:00:00.000Z,"M, T, W, TH",,8:30AM - 9:00AM,11:25AM - 12:00PM,,,,,7,N,US,28767,,2019,Grays Harbor
-117.0549234,47.70764549,90608,East Farms Elementary,Open,"E 26203 Rowan Newman Lake, WA 99025",,Newman Lake,WA,99025,5092415018,,Jennifer,Witting,5092415018,East Valley School District - Spokane,2019-06-17T04:00:00.000Z,2019-08-01T04:00:00.000Z,"M, T, W, TH",,8:45AM - 9:15AM,11:30AM - 12:00PM,,,,,7,N,US,42792,,2019,Spokane
-119.751703,46.2113745,90616,Prosser Heights Elementary,Open,"2008 Miller Avenue Prosser, WA 99350",,Prosser,WA,99350,5097862848,,Darlene,Morrow,5097862848,Prosser School District,2019-06-19T04:00:00.000Z,2019-07-19T04:00:00.000Z,"M, T, W, TH, F",,7:30AM - 8:30AM,11:30AM - 12:30PM,,,,,7,N,US,112656,,2019,Benton
-120.1541544,47.89016431,90617,Manson Elementary,Open,"950 Totem Pole Rd. (PO Box A) Manson, WA 98831",PO Box A,Manson,WA,98831,5096873140,,Eric,Sivertson,5096873140,Manson School District,2019-06-17T04:00:00.000Z,2019-08-23T04:00:00.000Z,"M, T, W, TH, F",,7:45AM - 8:00AM,11:30AM - 11:45PM,,,,,7,N,US,45121,,2019,Chelan
-122.7478454,45.90356533,90618,Woodland Middle School,Open,"755 Park Street Woodland, WA 98674",,Woodland,WA,98674,,,Laura,Perry,,Woodland School District,2019-06-17T04:00:00.000Z,2019-08-16T04:00:00.000Z,"M, T, W, TH, F",,8:30AM - 9:00AM,11:30AM - 12:30PM,,,,,7,N,US,48663,,2019,Cowlitz
-119.5398552,47.31741908,90619,Columbia Ridge Elementary,Open,"60 H Street SE Ephrata, WA 98823",,Ephrata,WA,98823,5097544401,,Amy,Grizzel,5097544401,Ephrata School District,2019-06-24T04:00:00.000Z,2019-08-02T04:00:00.000Z,"M, T, W, TH, F",,7:45AM - 8:45AM,11:30AM - 12:15PM,,,,,7,N,US,42309,,2019,Grant
-119.5529122,47.32480006,90620,Grant Elementary,Open,"451 3rd NW Ephrata, WA 98823",,Ephrata,WA,98823,5097544401,,Amy,Grizzel,5097544401,Ephrata School District,2019-06-24T04:00:00.000Z,2019-08-02T04:00:00.000Z,"M, T, W, TH, F",,7:45AM - 8:45AM,11:00AM - 12:15PM,,,,,7,N,US,43628,,2019,Grant
-122.9122276,46.13510471,90623,Wallace Elementary,Open,"410 Elm St Kelso, WA 98626",,Kelso,WA,98626,3605011808,,Vivien,Basom,3605011808,Kelso School District,2019-06-24T04:00:00.000Z,2019-07-26T04:00:00.000Z,"M, T, W, TH, F",,8:15AM - 9:00AM,11:45AM - 12:30PM,,,,,7,N,US,31739,,2019,Cowlitz
-119.1433633,46.24446661,90624,Mark Twain Elementary,Open,"1801Road 40 Pasco, WA 99301",,Pasco,WA,99301,5095462836,,Kristen,Blair,5095462836,Pasco School District,2019-06-17T04:00:00.000Z,2019-08-16T04:00:00.000Z,"M, T, W, TH, F",,8:30AM - 9:00AM,11:30AM - 12:00PM,,,,,7,N,US,143835,,2019,Franklin
-119.1136441,46.25593524,90628,New Horizons High School,Open,"2020 W. Argent St. Pasco, WA 99301",,Pasco,WA,99301,5095462836,,Kristen,Blair,5095462836,Pasco School District,2019-06-19T04:00:00.000Z,2019-07-03T04:00:00.000Z,"M, T, W, TH, F",,7:30AM - 8:00AM,11:30AM - 12:00PM,,,,,7,N,US,108146,,2019,Franklin
-117.7124457,48.28101896,90629,Gess Elementary,Open,"E. 405 Lincoln (P.O. Box 7) Chewelah, WA 99109",P.O. Box 7,Chewelah,WA,99109,5096856800,1004,Mara,Schneider,5096856800,Chewelah School District,2019-06-17T04:00:00.000Z,2019-07-10T04:00:00.000Z,"M, T, W, TH, F",,8:30AM - 9:00AM,12:00PM - 12:30PM,,,,,7,N,US,27745,,2019,Stevens
-122.9819241,46.72596545,90630,Centralia Middle,Open,"901 Johnson Road Centralia, WA 98531",,Centralia,WA,98531,3603307626,,Michael,Young,3603307626,Centralia School District,2019-07-08T04:00:00.000Z,2019-08-02T04:00:00.000Z,"M, T, W, TH, F",,8:40AM - 9:10AM,,,,,,7,N,US,81115,,2019,Lewis
-122.9819241,46.72596545,90631,Centralia Middle,Open,"901 Johnson Road Centralia, WA 98531",,Centralia,WA,98531,3603307626,,Michael,Young,3603307626,Centralia School District,2019-07-08T04:00:00.000Z,2019-08-02T04:00:00.000Z,"M, T, W, TH, F",,,11:50AM - 12:25PM,,,,,7,N,US,81115,,2019,Lewis
-122.9590827,46.7216804,90632,Edison Elementary,Open,"607 H Street Centralia, WA 98531",,Centralia,WA,98531,3603307626,,Michael,Young,3603307626,Centralia School District,2019-07-15T04:00:00.000Z,2019-07-26T04:00:00.000Z,"M, T, W, TH, F",,8:00AM - 8:30AM,,,,,,7,N,US,35446,,2019,Lewis
-122.9590827,46.7216804,90633,Edison Elementary,Open,"607 H Street Centralia, WA 98531",,Centralia,WA,98531,3603307626,,Michael,Young,3603307626,Centralia School District,2019-07-15T04:00:00.000Z,2019-07-26T04:00:00.000Z,"M, T, W, TH, F",,,11:45AM - 12:15PM,,,,,7,N,US,35446,,2019,Lewis
-122.4395001,48.86255347,90635,Irene Reither Elementary (formerly Primary),Open,"954 E. Hemmi Rd. Everson, WA 98247",,Everson,WA,98247,3603182360,2360,Maria,Doyle,3603182360,Meridian School District,2019-07-29T04:00:00.000Z,2019-08-16T04:00:00.000Z,"M, T, W, TH, F",,7:30AM - 8:00AM,,10:00AM - 10:15AM,,,,7,N,US,28397,,2019,Whatcom
-122.4929514,48.85518346,90636,Meridian High,Open,"194 West Laurel Road Bellingham, WA 98226",,Bellingham,WA,98226,3603182360,2360,Maria,Doyle,3603182360,Meridian School District,2019-06-24T04:00:00.000Z,2019-07-26T04:00:00.000Z,"M, T, W, TH, F",,,,10:15AM - 10:30AM,,,,7,N,US,29379,,2019,Whatcom
-119.9903913,46.21485447,90639,Artz-Fox Elementary,Open,"805 Washington Street Mabton, WA 98935",,Mabton,WA,98935,5098944767,,Sharon,Ott,5098944767,Mabton School District,2019-06-24T04:00:00.000Z,2019-07-23T04:00:00.000Z,"M, T, W, TH, F",,8:00AM - 8:25AM,11:00AM - 12:00PM,,,,,7,N,US,25645,,2019,Yakima
-119.9129625,46.25480749,90641,McClure Elementary School,Open,"811 West 2nd Street Grandview, WA 98930",,Grandview,WA,98930,5098828532,,Marcia,Wagner,5098828532,Grandview School District,2019-06-19T04:00:00.000Z,2019-07-19T04:00:00.000Z,"M, T, W, TH, F",,7:30AM - 8:00AM,10:45AM - 12:30PM,,,,,7,N,US,91163,,2019,Yakima
-122.6677712,47.56476408,90644,West Sound Technical Skills Center,Open,"101 National Ave. North Bremerton, WA 98312",,Bremerton,WA,98312,3604734716,,Lynn,Johnson,3604734716,Bremerton School District,2019-06-24T04:00:00.000Z,2019-07-12T04:00:00.000Z,"M, T, W, TH, F",,7:45AM - 8:00AM,11:30AM - 12:00PM,,,,,7,N,US,39804,,2019,Kitsap
-123.8179719,46.97942766,90645,Aberdeen (Weatherwax) High School,Open,"410 North G Street Aberdeen, WA 98520",,Aberdeen,WA,98520,3605382256,,Jaime,Matisons,3605382256,Aberdeen School District,2019-06-17T04:00:00.000Z,2019-07-24T04:00:00.000Z,"M, T, W, TH, F",,7:45AM - 8:10AM,11:00AM - 12:00PM,,,,,7,N,US,57223,,2019,Grays Harbor
-118.3251701,46.06429547,90646,Sharpstein Elementary School,Open,"410 Howard Street Walla Walla, WA 99362",,Walla Walla,WA,99362,5095274527,,Angela,Potts,5095274527,City of Walla Walla Parks and Recreation,2019-06-24T04:00:00.000Z,2019-08-01T04:00:00.000Z,"M, T, W, TH",,8:15AM - 8:45AM,11:00AM - 11:30AM,,,,,7,N,US,30821,,2019,Walla Walla
-122.6677428,47.57499797,90648,Crown Hill Elementary,Open,"1500 Rocky Point Road Bremerton, WA 98312",,Bremerton,WA,98312,3604734716,,Lynn,Johnson,3604734716,Bremerton School District,2019-06-24T04:00:00.000Z,2019-08-16T04:00:00.000Z,"M, T, W, TH, F",,7:30AM - 8:00AM,12:00PM - 12:30PM,,,,,7,N,US,57963,,2019,Kitsap
-118.319854,46.06973981,90649,Wildwood Park,Open,"21 S. Division Walla Walla, WA 99362",,Walla Walla,WA,99362,5095274527,,Angela,Potts,5095274527,City of Walla Walla Parks and Recreation,2019-06-17T04:00:00.000Z,2019-08-23T04:00:00.000Z,"M, T, W, TH, F",,8:15AM - 8:45AM,,,,,,7,N,US,31942,,2019,Walla Walla
-118.319854,46.06973981,90650,Wildwood Park,Open,"21 S. Division Walla Walla, WA 99362",,Walla Walla,WA,99362,5095274527,,Angela,Potts,5095274527,City of Walla Walla Parks and Recreation,2019-06-17T04:00:00.000Z,2019-08-23T04:00:00.000Z,"M, T, W, TH, F",,,11:30AM - 12:00PM,,,,,7,N,US,31942,,2019,Walla Walla
-118.3406621,46.05452112,90651,Garrison Middle School,Open,"906 Chase Walla Walla, WA 99362",,Walla Walla,WA,99362,5095274527,,Angela,Potts,5095274527,City of Walla Walla Parks and Recreation,2019-06-24T04:00:00.000Z,2019-06-28T04:00:00.000Z,"M, T, W, TH, F",,,11:00AM - 11:30AM,,,,,7,N,US,27710,,2019,Walla Walla
-118.3095896,46.0649883,90656,Pioneer Middle School,Open,"450 Bridge St. Walla Walla, WA 99362",,Walla Walla,WA,99362,5095274527,,Angela,Potts,5095274527,City of Walla Walla Parks and Recreation,2019-06-17T04:00:00.000Z,2019-08-01T04:00:00.000Z,"M, T, W, TH",,,12:45PM - 1:15PM,,,,,7,N,US,68357,,2019,Walla Walla
-118.3192437,46.29734203,90657,Prescott Schools,Open,"207 S. A Street Prescott, WA 99348",,Prescott,WA,99348,5095274527,,Angela,Potts,5095274527,City of Walla Walla Parks and Recreation,2019-06-17T04:00:00.000Z,2019-06-28T04:00:00.000Z,"M, T, W, TH, F",,,11:25AM - 11:55AM,,,,,7,N,US,30255,,2019,Walla Walla
-123.0781137,47.12154554,90658,Tu Ha' Buts Learning Center,Open,"70 SE Squaxin Lane Shelton, WA 98584",,Shelton,WA,98584,3604261390,,Bert,Miller,3604261390,Squaxin Island Tribe,2019-06-24T04:00:00.000Z,2019-08-02T04:00:00.000Z,"M, T, W, TH, F",,8:00AM - 8:30AM,11:30AM - 12:30PM,,,,,7,N,US,60493,,2019,Mason
-117.713583,48.280932,90659,Chewelah City Park,Open,"3rd & Lincoln Chewelah, WA 99109",,Chewelah,WA,99109,5096856800,1004,Mara,Schneider,5096856800,Chewelah School District,2019-06-17T04:00:00.000Z,2019-08-23T04:00:00.000Z,"M, T, W, TH, F",,,12:30PM - 1:00PM,,,,,7,N,US,142505,,2019,Stevens
-117.3042453,47.64956676,90662,Edge Cliff Park,Open,"800 S. Park Rd SpokaneValley, WA 99212",,SpokaneValley,WA,99212,5092415018,,Jennifer,Witting,5092415018,East Valley School District - Spokane,2019-06-17T04:00:00.000Z,2019-08-01T04:00:00.000Z,"M, T, W, TH",,,11:30AM - 12:00PM,,,,,7,N,US,35440,,2019,Spokane
-117.2518284,47.67175284,90663,Valley Mission Park,Open,"11405 E. Mission Avenue Spokane, WA 99206",,Spokane,WA,99206,5092415018,,Jennifer,Witting,5092415018,East Valley School District - Spokane,2019-06-17T04:00:00.000Z,2019-08-01T04:00:00.000Z,"M, T, W, TH",,8:45AM - 9:15AM,11:45AM - 12:15PM,,,,,7,N,US,48143,,2019,Spokane
-117.2248093,47.67993544,90664,YMCA,Open,"2421 N. Discovery Place Spokane,, WA 99216",,"Spokane,",WA,99216,5092415018,,Jennifer,Witting,5092415018,East Valley School District - Spokane,2019-06-17T04:00:00.000Z,2019-08-01T04:00:00.000Z,"M, T, W, TH",,8:30AM - 9:00AM,11:45AM - 12:15PM,,,,,7,N,US,40003,,2019,Spokane
-117.1942631,47.7005095,90665,East Valley High School,Open,"E 15711 Wellesley Spokane, WA 99216",,Spokane,WA,99216,5092415018,,Jennifer,Witting,5092415018,East Valley School District - Spokane,2019-06-17T04:00:00.000Z,2019-08-01T04:00:00.000Z,"M, T, W, TH",,8:00AM - 8:30AM,11:30AM - 12:00PM,,,,,7,N,US,35406,,2019,Spokane
-122.1689609,48.0580955,90666,Liberty Elementary,Open,"1919 10th St Marysville, WA 98270",,Marysville,WA,98270,3609650094,,Mike,Sullivan,3609650094,Marysville School District,2019-07-08T04:00:00.000Z,2019-08-09T04:00:00.000Z,"M, T, W, TH, F",,9:30AM - 9:45AM,12:15PM - 12:45PM,,,,,7,N,US,28895,,2019,Snohomish
-122.6339759,48.30176748,90667,Olympic View Elementary,Open,"380 NE Regatta Dr Oak Harbor, WA 98277",,Oak Harbor,WA,98277,3602795004,,Melanie,Willis,3602795004,Oak Harbor School District,2019-06-26T04:00:00.000Z,2019-08-23T04:00:00.000Z,"M, T, W, TH, F",,8:00AM - 8:45AM,11:00AM - 11:45AM,,,,,7,N,US,115843,,2019,Island
-122.596935,48.30716114,90668,Crescent Harbor Elementary,Open,"330 E Crescent Harbor Rd Oak Harbor, WA 98277",,Oak Harbor,WA,98277,3602795004,,Melanie,Willis,3602795004,Oak Harbor School District,2019-06-26T04:00:00.000Z,2019-08-23T04:00:00.000Z,"M, T, W, TH, F",,,11:00AM - 11:45AM,,,,,7,N,US,26854,,2019,Island
-122.160693,48.08570453,90670,Cascade Elementary,Open,"5200 100th N.E. Marysville, WA 98270",,Marysville,WA,98270,3609650094,,Mike,Sullivan,3609650094,Marysville School District,2019-07-08T04:00:00.000Z,2019-08-09T04:00:00.000Z,"M, T, W, TH, F",,9:30AM - 9:45AM,12:15PM - 12:45PM,,,,,7,N,US,26361,,2019,Snohomish
-122.1560307,48.0921695,90671,Marysville Pilchuck High School,Open,"5611 108th St. N.E. Marysville, WA 98270",,Marysville,WA,98270,3609650094,,Mike,Sullivan,3609650094,Marysville School District,2019-06-24T04:00:00.000Z,2019-07-02T04:00:00.000Z,"M, T, W, TH, F",,7:00AM - 7:30AM,11:00AM - 11:30AM,,,,,7,N,US,115547,,2019,Snohomish
-119.2001723,46.28128406,90675,Maya Angelou Elementary,Open,"6001 Road 84 Pasco, WA 99301",,Pasco,WA,99301,5095462836,,Kristen,Blair,5095462836,Pasco School District,2019-06-17T04:00:00.000Z,2019-08-16T04:00:00.000Z,"M, T, W, TH, F",,8:30AM - 9:00AM,11:30AM - 12:00PM,,,,,7,N,US,82670,,2019,Franklin
-117.2234891,47.63506988,90676,Terrace View Park,Open,"13500 E. 24th Spokane, WA 99216",,Spokane,WA,99216,5092415018,,Jennifer,Witting,5092415018,East Valley School District - Spokane,2019-06-17T04:00:00.000Z,2019-08-01T04:00:00.000Z,"M, T, W, TH",,9:00AM - 9:30AM,12:00PM - 12:30PM,,,,,7,N,US,39270,,2019,Spokane
-117.1103353,47.70029229,90677,Otis Orchards Elementary,Open,"E 22000 Wellesley Otis Orchards, WA 99027",,Otis Orchards,WA,99027,5092415018,,Jennifer,Witting,5092415018,East Valley School District - Spokane,2019-06-17T04:00:00.000Z,2019-08-01T04:00:00.000Z,"M, T, W, TH",,8:45AM - 9:15AM,11:30AM - 12:00PM,,,,,7,N,US,46156,,2019,Spokane
-122.6769591,48.3002921,90678,Hillcrest Elementary School,Open,"1500 N.W. 2nd Ave Oak Harbor, WA 98277",,Oak Harbor,WA,98277,3602795004,,Melanie,Willis,3602795004,Oak Harbor School District,2019-06-26T04:00:00.000Z,2019-08-23T04:00:00.000Z,"M, T, W, TH, F",,,12:00PM - 12:45PM,,,,,7,N,US,115123,,2019,Island
-119.4877774,46.26991112,90681,Kiona- Benton City Elementary School,Open,"913 Horne Drive Benton City, WA 99320",,Benton City,WA,99320,5095882037,,Jennifer,Long,5095882037,Kiona-Benton City School District,2019-06-17T04:00:00.000Z,2019-07-31T04:00:00.000Z,"M, T, W, TH, F",,,11:30AM - 12:00PM,,,,,7,N,US,28684,,2019,Benton
-118.3379714,46.05937247,90684,Lincoln Alternative High School,Open,"421 South Fourth Ave. Walla Walla, WA 99362",,Walla Walla,WA,99362,5095274527,,Angela,Potts,5095274527,City of Walla Walla Parks and Recreation,2019-06-18T04:00:00.000Z,2019-08-01T04:00:00.000Z,"T, W, TH",,,12:45PM - 1:15PM,,,,,7,N,US,28936,,2019,Walla Walla
-122.1722615,48.09990053,90685,Marshall Elementary School,Open,"4407 116th St. N.E. Marysville, WA 98270",,Marysville,WA,98270,3609650094,,Mike,Sullivan,3609650094,Marysville School District,2019-07-08T04:00:00.000Z,2019-08-09T04:00:00.000Z,"M, T, W, TH, F",,9:30AM - 9:45AM,12:15PM - 12:45PM,,,,,7,N,US,143843,,2019,Snohomish
-119.1025426,46.23778378,90686,Captain Gray Elementary School,Open,"1102 North 10th Ave Pasco, WA 99301",,Pasco,WA,99301,5095462836,,Kristen,Blair,5095462836,Pasco School District,2019-07-15T04:00:00.000Z,2019-07-25T04:00:00.000Z,"M, T, W, TH",,8:00AM - 8:30AM,11:30AM - 12:00PM,,,,,7,N,US,26319,,2019,Franklin
-119.8961493,46.7398016,90690,Mattawa Elementary School,Open,"400 N Boundary (PO Box 907) Mattawa, WA 99349",PO Box 907,Mattawa,WA,99349,5099324565,3020,Lisa,Hyndman,5099324565,Wahluke School District,2019-06-17T04:00:00.000Z,2019-08-26T04:00:00.000Z,"M, T, W, TH, F",,7:30AM - 8:30AM,11:30AM - 1:30PM,,,,,7,N,US,29234,,2019,Grant
-118.3101705,46.06766651,90691,Edison Elementary School,Open,"1315 E. Alder Walla Walla, WA 99362",,Walla Walla,WA,99362,5095274527,,Angela,Potts,5095274527,City of Walla Walla Parks and Recreation,2019-06-17T04:00:00.000Z,2019-08-16T04:00:00.000Z,"M, T, W, TH, F",,,11:30AM - 12:00PM,,,,,7,N,US,27242,,2019,Walla Walla
-117.7948994,47.93935195,90694,TANF/Ford Youth Center,Open,"5064 A. Seyler Way Ford, WA 99013",,Ford,WA,99013,5094586516,,Yvette,Buckley,5094586516,Spokane Tribe of Indians,2019-06-17T04:00:00.000Z,2019-08-20T04:00:00.000Z,"M, T, W, TH",,8:30AM - 9:00AM,12:30PM - 1:00PM,,,,,7,N,US,60342,,2019,Stevens
-117.9886666,47.88646171,90695,Wellpinit Boys & Girls Club,Open,"6201 Community Center Drive Wellpinit, WA 99040",,Wellpinit,WA,99040,5094586516,,Yvette,Buckley,5094586516,Spokane Tribe of Indians,2019-06-17T04:00:00.000Z,2019-08-20T04:00:00.000Z,"M, T, W, TH",,8:30AM - 9:00AM,12:00PM - 12:30PM,,,,,7,N,US,126566,,2019,Stevens
-118.231143,47.96007265,90696,TANF/West End Youth Center,Open,"6419 Selena Court Fruitland, WA 99129",,Fruitland,WA,99129,5094586516,,Yvette,Buckley,5094586516,Spokane Tribe of Indians,2019-06-17T04:00:00.000Z,2019-08-20T04:00:00.000Z,"M, T, W, TH",,8:30AM - 9:00AM,12:30PM - 1:00PM,,,,,7,N,US,83943,,2019,Stevens
-117.4011201,47.69230148,90697,Northtown Branch,Open,"544 East Providence Ave Spokane, WA 99207",,Spokane,WA,99207,5094890741,110,Tamara,Korth,5094890741,Boys & Girls Clubs of Spokane County,2019-06-17T04:00:00.000Z,2019-08-23T04:00:00.000Z,"M, T, W, TH, F",,,12:00PM - 1:00PM,4:00PM - 4:30PM,,,,7,N,US,29800,,2019,Spokane
-120.1561767,47.88460719,90698,Manson Bay Park,Open,"195 Wapato Way Manson, WA 98831",,Manson,WA,98831,5096873140,,Eric,Sivertson,5096873140,Manson School District,2019-06-17T04:00:00.000Z,2019-08-23T04:00:00.000Z,"M, T, W, TH, F",,9:30AM - 9:50AM,1:45PM - 2:15PM,,,,,7,N,US,45120,,2019,Chelan
-118.3168305,46.04580553,90699,Walla Walla High School,Open,"800 Abbott Rd. Walla Walla, WA 99362",,Walla Walla,WA,99362,5095274527,,Angela,Potts,5095274527,City of Walla Walla Parks and Recreation,2019-06-17T04:00:00.000Z,2019-08-23T04:00:00.000Z,"M, T, W, TH, F",,,11:30AM - 12:00PM,,,,,7,N,US,31736,,2019,Walla Walla
-119.1605221,46.81749434,90701,McFarland Middle School,Open,"790 South 10th Avenue Othello, WA 99344",,Othello,WA,99344,5094882659,2030,Janette,Root,5094882659,Othello School District,2019-06-24T04:00:00.000Z,2019-07-26T04:00:00.000Z,"M, T, W, TH, F",,7:30AM - 8:00AM,11:30AM - 12:30PM,,,,,7,N,US,82682,,2019,Adams
-120.4381497,46.4299936,90702,The Campbell Farm,Open,"2527 Campbell Road Wapato, WA 98951",,Wapato,WA,98951,5098776413,,Carman,Pimms,5098776413,The Campbell Farm,2019-06-17T04:00:00.000Z,2019-08-15T04:00:00.000Z,"M, T, W, TH",,8:00AM - 8:30AM,11:30AM - 12:00PM,,,,,7,N,US,47803,,2019,Yakima
-117.2374543,47.682819,90703,Parkside at Mirabeau Apartments,Open,"2820 N. Cherry st. Spokane, WA 99216",,Spokane,WA,99216,5092415018,,Jennifer,Witting,5092415018,East Valley School District - Spokane,2019-06-17T04:00:00.000Z,2019-08-01T04:00:00.000Z,"M, T, W, TH",,8:30AM - 9:00AM,11:30AM - 12:00PM,,,,,7,N,US,46252,,2019,Spokane
-120.549114,47.005632,90705,Kiwanis Park,Open,"North Main Street and 14th Avenue Ellensburg, WA 98926",,Ellensburg,WA,98926,5099255990,,Elise,Warren,5099255990,FISH Community Food Bank,2019-06-17T04:00:00.000Z,2019-08-23T04:00:00.000Z,"M, T, W, TH, F",,,11:30AM - 12:00PM,,,,,7,N,US,82357,,2019,Kittitas
-122.3539793,48.84450719,90707,Timber Ridge - Site #3,Open,"5604 Mission Road Bellingham, WA 98226",,Bellingham,WA,98226,3605920141,,Dean,Ollinger,3605920141,Nooksack Indian Tribe,2019-06-24T04:00:00.000Z,2019-08-23T04:00:00.000Z,"M, T, W, TH, F",,9:00AM - 9:30AM,12:00PM - 1:00PM,,,,,7,N,US,47913,,2019,Whatcom
-121.9639889,48.08602753,90708,Granite Falls Middle School,Open,"405 North Alder Avenue Granite Falls, WA 98252",,Granite Falls,WA,98252,3602834310,,Viki,Perrault,3602834310,Granite Falls School District,2019-06-21T04:00:00.000Z,2019-08-23T04:00:00.000Z,"M, T, W, TH, F",,,12:00PM - 1:00PM,,,,,7,N,US,27862,,2019,Snohomish
-122.1822119,48.05771389,90710,Beach Street Boys and Girls Club,Open,"1010 Beach Avenue Marysville, WA 98270",,Marysville,WA,98270,3609650094,,Mike,Sullivan,3609650094,Marysville School District,2019-07-08T04:00:00.000Z,2019-08-09T04:00:00.000Z,"M, T, W, TH, F",,8:30AM - 9:00AM,11:30AM - 12:00PM,,,,,7,N,US,25786,,2019,Snohomish
-122.1624306,48.11816705,90713,Shoultes Elementary,Open,"13525 51st Ave. N.E. Marysville, WA 98271",,Marysville,WA,98271,3609650094,,Mike,Sullivan,3609650094,Marysville School District,2019-07-08T04:00:00.000Z,2019-08-09T04:00:00.000Z,"M, T, W, TH, F",,9:30AM - 9:45AM,12:15PM - 12:45PM,,,,,7,N,US,30858,,2019,Snohomish
-122.9405739,46.49280339,90714,Winlock Miller Elementary School,Open,"405 NW Benton Ave. Winlock, WA 98596",,Winlock,WA,98596,3607853582,1406,Erika,Lopez,3607853582,Winlock School District,2019-06-17T04:00:00.000Z,2019-07-19T04:00:00.000Z,"M, T, W, TH, F",,8:00AM - 8:30AM,11:30AM - 12:00PM,,,,,7,N,US,48621,,2019,Lewis
-120.5286263,46.98753119,90715,Mountain View Park,Open,"1200 E. Seattle Ellensburg, WA 98926",,Ellensburg,WA,98926,5099255990,,Elise,Warren,5099255990,FISH Community Food Bank,2019-06-17T04:00:00.000Z,2019-08-23T04:00:00.000Z,"M, T, W, TH, F",,,12:30PM - 1:00PM,,,,,7,N,US,45638,,2019,Kittitas
-119.1545415,46.81885237,90716,Wahitis Elementary School,Open,"905 South 14th Avenue Othello, WA 99344",,Othello,WA,99344,5094882659,2030,Janette,Root,5094882659,Othello School District,2019-07-01T04:00:00.000Z,2019-07-26T04:00:00.000Z,"M, T, W, TH, F",,7:30AM - 8:30AM,11:30AM - 12:30PM,,,,,7,N,US,145236,,2019,Adams
-122.4501201,48.75776349,90717,Bellingham Club,Open,"1715 Kentucky Street Bellingham, WA 98229",,Bellingham,WA,98229,3607383808,,Kim,Grams,3607383808,Boys & Girls Clubs of Whatcom County,2019-06-24T04:00:00.000Z,2019-08-23T04:00:00.000Z,"M, T, W, TH, F",,8:30AM - 9:00AM,12:00PM - 12:30PM,,,,,7,N,US,34097,,2019,Whatcom
-120.4190723,46.98509428,90721,Kittitas Park,Open,"211 N Pierce St Kittitas, WA 98934",,Kittitas,WA,98934,5099255990,,Elise,Warren,5099255990,FISH Community Food Bank,2019-06-17T04:00:00.000Z,2019-08-23T04:00:00.000Z,"M, T, W, TH, F",,,12:30PM - 1:00PM,,,,,7,N,US,143603,,2019,Kittitas
-122.132072,48.07162046,90722,Cedar Grove Apartments,Open,"7401 84th Street NE Marysville, WA 98270",,Marysville,WA,98270,3609650094,,Mike,Sullivan,3609650094,Marysville School District,2019-07-08T04:00:00.000Z,2019-08-09T04:00:00.000Z,"T, TH, F",,,12:00PM - 12:30PM,,,,,7,N,US,26398,,2019,Snohomish
-122.6201221,47.58021582,90723,Bremerton YMCA,Open,"2261 Homer R. Jones Road Bremerton, WA 98310",,Bremerton,WA,98310,3604734716,,Lynn,Johnson,3604734716,Bremerton School District,2019-06-19T04:00:00.000Z,2019-08-16T04:00:00.000Z,"M, T, W, TH, F",,,12:00PM - 12:30PM,3:00PM - 3:15PM,,,,7,N,US,57551,,2019,Kitsap
-122.6411098,47.5665585,90724,Kiwanas Park,Open,"1701 5th Street Bremerton, WA 98312",,Bremerton,WA,98312,3604734716,,Lynn,Johnson,3604734716,Bremerton School District,2019-07-08T04:00:00.000Z,2019-08-09T04:00:00.000Z,"M, T, W, TH, F",,,12:00PM - 12:30PM,,,,,7,N,US,143604,,2019,Kitsap
-123.1111125,48.08334153,90725,Boys & Girls Clubs CCK,Open,"400 W. Fir Street Sequim, WA 98382",,Sequim,WA,98382,3606838095,,David,Miller,3606838095,Boys & Girls Clubs of the Olympic Peninsula,2019-06-20T04:00:00.000Z,2019-08-29T04:00:00.000Z,"M, T, W, TH, F",,8:30AM - 10:00AM,,,,,,7,N,US,34290,,2019,Clallam
-123.1111125,48.08334153,90726,Boys & Girls Clubs CCK,Open,"400 W. Fir Street Sequim, WA 98382",,Sequim,WA,98382,3606838095,,David,Miller,3606838095,Boys & Girls Clubs of the Olympic Peninsula,2019-06-20T04:00:00.000Z,2019-08-29T04:00:00.000Z,"M, T, W, TH, F",,,12:00PM - 1:00PM,,,,,7,N,US,34290,,2019,Clallam
-123.1111125,48.08334153,90727,Boys & Girls Clubs CCK,Open,"400 W. Fir Street Sequim, WA 98382",,Sequim,WA,98382,3606838095,,David,Miller,3606838095,Boys & Girls Clubs of the Olympic Peninsula,2019-08-24T04:00:00.000Z,2019-08-24T04:00:00.000Z,SA,,,10:00AM - 1:00PM,,,,,7,N,US,34290,,2019,Clallam
-123.0860199,48.08049265,90728,Carrie Blake Park,Open,"202 N. Blake Ave Sequim, WA 98382",,Sequim,WA,98382,3606838095,,David,Miller,3606838095,Boys & Girls Clubs of the Olympic Peninsula,2019-06-20T04:00:00.000Z,2019-08-29T04:00:00.000Z,"M, T, W, TH, F",,,12:00PM - 1:00PM,,,,,7,N,US,34623,,2019,Clallam
-123.0806451,48.07270524,90729,Elk Creek Apartments,Open,"90 S. Rhodefer Sequim, WA 98382",,Sequim,WA,98382,3606838095,,David,Miller,3606838095,Boys & Girls Clubs of the Olympic Peninsula,2019-06-20T04:00:00.000Z,2019-08-29T04:00:00.000Z,"M, T, W, TH, F",,,12:00PM - 1:00PM,,,,,7,N,US,35485,,2019,Clallam
-120.4925772,46.37611509,90731,Adamsview Park,Open,"103 Adams View Dr Wapato, WA 98951",,Wapato,WA,98951,5098776413,,Carman,Pimms,5098776413,The Campbell Farm,2019-06-17T04:00:00.000Z,2019-08-15T04:00:00.000Z,"M, T, W, TH",,,1:30PM - 2:15PM,,,,,7,N,US,40860,,2019,Yakima
-122.7727087,48.11515293,90732,Mountain View Commons,Open,"1919 Blaine Street Port Townsend, WA 98368",,Port Townsend,WA,98368,3603855811,270,Jessie,Wedmore,3603855811,Clallam County YMCA,2019-06-24T04:00:00.000Z,2019-08-16T04:00:00.000Z,"M, T, W, TH, F",,9:00AM - 9:30AM,,,,12:00PM - 12:30PM,,7,N,US,37489,,2019,Jefferson
-122.6113513,48.51750052,69767,Anacortes Club,Open,"City Hall Basement, 904 6th Street Anacortes, WA 98221",,Anacortes,WA,98221,3604193723,2,Sarah,Arquitt,3604193723,Boys & Girls Clubs of Skagit County,2019-06-24T04:00:00.000Z,2019-08-30T04:00:00.000Z,"M, T, W, TH, F",,,11:30AM - 12:05PM,2:30PM - 3:00PM,,,LA,5,N,US,57290,,2019,Skagit
-120.5019308,46.61131987,69768,Bethel AME Church,Open,"515 6th Street Yakima, WA 98901",,Yakima,WA,98901,5095737145,,Cassie,Davidson,5095737145,Yakima School District,2019-06-17T04:00:00.000Z,2019-08-09T04:00:00.000Z,"M, T, W, TH, F",,8:30AM - 9:00PM,12:00PM - 12:30PM,,,,BL,5,N,US,25869,,2019,Yakima
-122.3216145,48.47328516,69769,Burlington Park,Open,"1011 Greenleaf Burlington, WA 98233",,Burlington,WA,98233,3604193723,2,Sarah,Arquitt,3604193723,Boys & Girls Clubs of Skagit County,2019-06-24T04:00:00.000Z,2019-08-23T04:00:00.000Z,"M, T, W, TH, F",,,11:30AM - 12:05PM,2:30PM - 3:00PM,,,LA,5,N,US,57603,,2019,Skagit
-120.529038,46.60896147,69770,Cascade Apartments,Open,"615 North 15th Avenue Yakima, WA 98902",,Yakima,WA,98902,5095737145,,Cassie,Davidson,5095737145,Yakima School District,2019-06-17T04:00:00.000Z,2019-08-09T04:00:00.000Z,"M, T, W, TH, F",,,10:30AM - 10:45AM,,,,L,5,N,US,26359,,2019,Yakima
-120.5173215,46.60704,69772,Cherry Park,Open,"Cherry Avenue and North 4th Avenue Yakima, WA 98902",,Yakima,WA,98902,5095737145,,Cassie,Davidson,5095737145,Yakima School District,2019-06-17T04:00:00.000Z,2019-08-09T04:00:00.000Z,"M, T, W, TH, F",,,10:45AM - 11:00AM,,,,L,5,N,US,85388,,2019,Yakima
-121.7591777,48.53145724,69774,Concrete Club,Open,"7838 South Superior Avenue Concrete, WA 98237",,Concrete,WA,98237,3604193723,2,Sarah,Arquitt,3604193723,Boys & Girls Clubs of Skagit County,2019-06-19T04:00:00.000Z,2019-06-21T04:00:00.000Z,"M, T, W, TH, F",,9:00AM - 9:35AM,12:00PM - 12:35PM,,,,BL,5,N,US,136365,,2019,Skagit
-121.7591777,48.53145724,69775,Concrete Club,Open,"7838 South Superior Avenue Concrete, WA 98237",,Concrete,WA,98237,3604193723,2,Sarah,Arquitt,3604193723,Boys & Girls Clubs of Skagit County,2019-08-19T04:00:00.000Z,2019-08-30T04:00:00.000Z,"M, T, W, TH, F",,9:00AM - 9:35AM,12:00PM - 12:35PM,,,,BL,5,N,US,136365,,2019,Skagit
-123.1101177,47.21455048,69781,Evergreen Elementary School,Open,"900 West Franklin Street Shelton, WA 98584",,Shelton,WA,98584,3604262533,16067,Kathryn,Ward,3604262533,Shelton School District,2019-07-08T04:00:00.000Z,2019-08-02T04:00:00.000Z,"M, T, W, TH, F",,8:30AM - 9:00AM,12:00PM - 12:30PM,,,,BL,5,N,US,35576,,2019,Mason
-120.4887439,46.60366153,69782,Fair Avenue Apartments,Open,"1022 East Chestnut Yakima, WA 98901",,Yakima,WA,98901,5095737145,,Cassie,Davidson,5095737145,Yakima School District,2019-06-17T04:00:00.000Z,2019-08-09T04:00:00.000Z,"M, T, W, TH, F",,,12:30PM - 12:45PM,,,,L,5,N,US,27416,,2019,Yakima
-120.534343,46.59271527,69785,Franklin Middle,Open,"410 South 19th Avenue Yakima, WA 98902",,Yakima,WA,98902,5095737145,,Cassie,Davidson,5095737145,Yakima School District,2019-06-17T04:00:00.000Z,2019-07-12T04:00:00.000Z,"M, T, W, TH, F",,7:30AM - 8:00AM,10:30AM - 11:00AM,,,,BL,5,N,US,27622,,2019,Yakima
-117.4112292,47.65588234,69786,Frontier Behavioral Health (Spokane Mental Health),Open,"131 S. Division Spokane, WA 99202",,Spokane,WA,99202,5093547237,,Brooke,Becker,5093547237,Spokane School District,2019-06-18T04:00:00.000Z,2019-08-15T04:00:00.000Z,"T, W, TH",,8:45AM - 9:15AM,11:45AM - 1:00PM,,,,BL,5,N,US,27655,,2019,Spokane
-120.492714,46.58805897,69792,Henry Beauchamp Community Center,Open,"1211 S. 7th. Street Yakima, WA 98901",,Yakima,WA,98901,5095737145,,Cassie,Davidson,5095737145,Yakima School District,2019-06-17T04:00:00.000Z,2019-08-09T04:00:00.000Z,"M, T, W, TH, F",,9:00AM - 9:30AM,12:00PM - 12:30PM,,,,BL,5,N,US,86448,,2019,Yakima
-122.2237019,48.51409555,69812,Sedro Woolley Club,Open,"915 McGarigle Road Sedro-Woolley, WA 98284",,Sedro-Woolley,WA,98284,3604193723,2,Sarah,Arquitt,3604193723,Boys & Girls Clubs of Skagit County,2019-06-17T04:00:00.000Z,2019-06-28T04:00:00.000Z,"M, T, W, TH, F",,,12:00PM - 12:35PM,2:30PM - 3:00PM,,,LA,5,N,US,60086,,2019,Skagit
-122.2237019,48.51409555,69813,Sedro Woolley Club,Open,"915 McGarigle Road Sedro-Woolley, WA 98284",,Sedro-Woolley,WA,98284,3604193723,2,Sarah,Arquitt,3604193723,Boys & Girls Clubs of Skagit County,2019-07-01T04:00:00.000Z,2019-08-23T04:00:00.000Z,"M, T, W, TH, F",,,,2:30PM - 3:00PM,,4:45PM - 5:20PM,SA,5,N,US,60086,,2019,Skagit
-122.2237019,48.51409555,69814,Sedro Woolley Club,Open,"915 McGarigle Road Sedro-Woolley, WA 98284",,Sedro-Woolley,WA,98284,3604193723,2,Sarah,Arquitt,3604193723,Boys & Girls Clubs of Skagit County,2019-08-26T04:00:00.000Z,2019-08-30T04:00:00.000Z,"M, T, W, TH, F",,,12:00PM - 12:35PM,2:30PM - 3:00PM,,,LA,5,N,US,60086,,2019,Skagit
-123.7258042,46.68554083,79996,9th Street Elementary Campus,Open,"1016 Commercial St Raymond, WA 98577",,Raymond,WA,98577,3609425246,2150,Billie,Hagain,3609425246,Raymond School District,2019-06-17T04:00:00.000Z,2019-08-16T04:00:00.000Z,"M, T, W, TH, F",,,11:00AM - 12:00PM,,,,L,6,N,US,25395,,2019,Pacific
-123.7906589,46.66214558,79997,South Bend Elementary,Open,"500 E 1st St South Bend, WA 98586",,South Bend,WA,98586,3609425246,2150,Billie,Hagain,3609425246,Raymond School District,2019-06-17T04:00:00.000Z,2019-08-09T04:00:00.000Z,"M, T, W, TH, F",,,11:00AM - 12:00PM,,,,L,6,N,US,30927,,2019,Pacific
-123.742533,46.69369466,79998,Riverdale Park,Open,"Park Ave Raymond, WA 98577",,Raymond,WA,98577,3609425246,2150,Billie,Hagain,3609425246,Raymond School District,2019-06-17T04:00:00.000Z,2019-08-16T04:00:00.000Z,"M, T, W, TH, F",,,11:00AM - 12:00PM,,,,L,6,N,US,30500,,2019,Pacific
-120.4906134,46.59813149,80002,Washington Middle,Open,"510 S. 9th. St. Yakima, WA 98901",,Yakima,WA,98901,5095737145,,Cassie,Davidson,5095737145,Yakima School District,2019-06-17T04:00:00.000Z,2019-07-12T04:00:00.000Z,"M, T, W, TH, F",,7:30AM - 8:00AM,11:45AM - 12:15PM,,,,BL,6,N,US,31776,,2019,Yakima
-117.4688904,47.95038845,80003,Deer Park Middle School,Open,"347 S. Colville Ave. (P.O. Box 882) Deer Park, WA 99006",P.O. Box 882,Deer Park,WA,99006,5094645545,,Dru,Gibson,5094645545,Deer Park School District,2019-06-17T04:00:00.000Z,2019-07-18T04:00:00.000Z,"M, T, W, TH",,8:00AM - 8:30AM,11:30AM - 12:00PM,,,,BL,6,N,US,27004,,2019,Spokane
-117.4739447,47.95223871,80004,Deer Park Pool,Open,"200 E. B Street Deer Park, WA 99006",,Deer Park,WA,99006,5094645545,,Dru,Gibson,5094645545,Deer Park School District,2019-06-17T04:00:00.000Z,2019-08-23T04:00:00.000Z,"M, T, W, TH, F",,,12:30PM - 1:00PM,,,,L,6,N,US,27006,,2019,Spokane
-117.4525027,47.95077647,80005,Deer Park Elementary,Open,"1500 E. D Street (PO Box 609) Deer Park, WA 99006",PO Box 609,Deer Park,WA,99006,5094645545,,Dru,Gibson,5094645545,Deer Park School District,2019-06-17T04:00:00.000Z,2019-08-22T04:00:00.000Z,"M, T, W, TH",,8:00AM - 8:30AM,11:30AM - 12:00PM,,,,BL,6,N,US,27003,,2019,Spokane
-117.455162,47.9458083,80007,Deer Park High School,Open,"800 S. Weber Rd. (P.O. Box 550) Deer Park, WA 99006",P.O. Box 550,Deer Park,WA,99006,5094645545,,Dru,Gibson,5094645545,Deer Park School District,2019-06-17T04:00:00.000Z,2019-07-19T04:00:00.000Z,"M, T, W, TH, F",,8:00AM - 8:30AM,11:30AM - 12:00PM,,,,BL,6,N,US,139255,,2019,Spokane
-120.5053144,46.6108764,80010,YPAL/ GREAT Programs,Open,"602 North 4th Street Yakima, WA 98901",,Yakima,WA,98901,5095737145,,Cassie,Davidson,5095737145,Yakima School District,2019-06-17T04:00:00.000Z,2019-08-09T04:00:00.000Z,"M, T, W, TH",,,,2:00PM - 2:15PM,,,A,6,N,US,32164,,2019,Yakima
-120.5053144,46.6108764,80011,YPAL/ GREAT Programs,Open,"602 North 4th Street Yakima, WA 98901",,Yakima,WA,98901,5095737145,,Cassie,Davidson,5095737145,Yakima School District,2019-06-17T04:00:00.000Z,2019-08-09T04:00:00.000Z,"M, T, W, TH, F",,,11:45AM - 12:15PM,,,,L,6,N,US,32164,,2019,Yakima
-118.6893427,47.33073713,80012,P.C. Jantz Elementary School,Open,"311 S. 1st Street Odessa, WA 99159",,Odessa,WA,99159,5099822266,,Nancy,Glines,5099822266,Odessa School District,2019-06-17T04:00:00.000Z,2019-08-08T04:00:00.000Z,"M, T, W, TH",,8:15AM - 9:30AM,11:30AM - 12:15PM,,,,BL,6,N,US,29980,,2019,Lincoln
-123.6652699,46.67590834,80013,Willapa Valley Elementary School,Open,"845 Willapa Fourth St Raymond, WA 98577",,Raymond,WA,98577,3609425246,2150,Billie,Hagain,3609425246,Raymond School District,2019-06-17T04:00:00.000Z,2019-08-16T04:00:00.000Z,"M, T, W, TH, F",,,11:00AM - 12:00PM,,,,L,6,N,US,31948,,2019,Pacific
-120.5001066,46.6041282,80014,YMCA,Open,"5 North Naches Avenue Yakima, WA 98901",,Yakima,WA,98901,5095737145,,Cassie,Davidson,5095737145,Yakima School District,2019-06-17T04:00:00.000Z,2019-08-09T04:00:00.000Z,"M, T, W, TH, F",,,12:30PM - 1:00PM,4:00PM - 4:30PM,,,LA,6,N,US,32084,,2019,Yakima
-120.4776209,46.58966939,80015,Yakima Online School,Open,"1120 S. 18th Street Yakima, WA 98902",,Yakima,WA,98902,5095737145,,Cassie,Davidson,5095737145,Yakima School District,2019-06-17T04:00:00.000Z,2019-07-03T04:00:00.000Z,"M, T, W, TH, F",,7:00AM - 7:25AM,10:30AM - 10:40AM,,,,BL,6,N,US,32062,,2019,Yakima
-120.5199305,46.61144958,80016,Nueva Apartments,Open,"810 North 6th Avenue Yakima, WA 98902",,Yakima,WA,98902,5095737145,,Cassie,Davidson,5095737145,Yakima School District,2019-06-17T04:00:00.000Z,2019-08-09T04:00:00.000Z,"M, T, W, TH, F",,,11:15AM - 11:30AM,,,,L,6,N,US,29828,,2019,Yakima
-120.527784,46.609434,80017,McGinnis Park,Open,"14th Avneue & Swan Avenue Yakima, WA 98902",,Yakima,WA,98902,5095737145,,Cassie,Davidson,5095737145,Yakima School District,2019-06-17T04:00:00.000Z,2019-08-09T04:00:00.000Z,"M, T, W, TH, F",,,11:00AM - 11:15AM,,,,L,6,N,US,29313,,2019,Yakima
-120.4852517,46.59963751,80018,Kiwanis Park,Open,"1501 East Maple Street Yakima, WA 98901",,Yakima,WA,98901,5095737145,,Cassie,Davidson,5095737145,Yakima School District,2019-06-17T04:00:00.000Z,2019-08-09T04:00:00.000Z,"M, T, W, TH, F",,,1:00PM - 1:15PM,,,,L,6,N,US,28695,,2019,Yakima
-122.4821506,47.24916485,80019,Franklin Park,Open,"1201 S Puget Sound Ave. Tacoma, WA 98405",,Tacoma,WA,98405,2533051022,,Renee,Ward,2533051022,Metro Parks Tacoma,2019-06-24T04:00:00.000Z,2019-08-30T04:00:00.000Z,"M, T, W, TH, F",,,12:00PM - 1:00PM,,,,L,6,N,US,43333,,2019,Pierce
-122.408518,47.23068821,80020,Portland Avenue Park,Open,"3515 Portland Ave (Portland Ave Park) Tacoma, WA 98404",Portland Ave Park,Tacoma,WA,98404,2533051022,,Renee,Ward,2533051022,Metro Parks Tacoma,2019-06-24T04:00:00.000Z,2019-08-30T04:00:00.000Z,"M, T, W, TH, F",,,12:00PM - 1:00PM,,,,L,6,N,US,46501,,2019,Pierce
-122.4836415,47.21226656,80021,South Park,Open,"4851 S Tacoma Way (South Park) Tacoma, WA 98404",South Park,Tacoma,WA,98404,2533051022,,Renee,Ward,2533051022,Metro Parks Tacoma,2019-06-24T04:00:00.000Z,2019-08-30T04:00:00.000Z,"M, T, W, TH, F",,,12:00PM - 1:00PM,,,,L,6,N,US,47365,,2019,Pierce
-122.550804,47.24661152,80022,Titlow Park,Open,"8425 6th Avenue Tacoma, WA 98465",,Tacoma,WA,98465,2533051022,,Renee,Ward,2533051022,Metro Parks Tacoma,2019-06-24T04:00:00.000Z,2019-08-30T04:00:00.000Z,"M, T, W, TH, F",,,12:00PM - 1:00PM,,,,L,6,N,US,47928,,2019,Pierce
-122.4208416,47.21776158,80023,Verlo Playfield,Open,"4321 McKinley Ave. (Verlo Playfield) Tacoma, WA 98404",Verlo Playfield,Tacoma,WA,98404,2533051022,,Renee,Ward,2533051022,Metro Parks Tacoma,2019-06-24T04:00:00.000Z,2019-08-30T04:00:00.000Z,"M, T, W, TH, F",,,12:00PM - 1:00PM,,,,L,6,N,US,48169,,2019,Pierce
-122.4525269,47.19561673,80024,Wapato Park,Open,"6500 South Sheridan Avenue Tacoma, WA 98408",,Tacoma,WA,98408,2533051022,,Renee,Ward,2533051022,Metro Parks Tacoma,2019-06-24T04:00:00.000Z,2019-08-30T04:00:00.000Z,"M, T, W, TH, F",,,12:00PM - 1:00PM,,,,L,6,N,US,48311,,2019,Pierce
-122.4525269,47.19561673,80025,Wapato Park,Open,"6500 South Sheridan Avenue Tacoma, WA 98408",,Tacoma,WA,98408,2533051022,,Renee,Ward,2533051022,Metro Parks Tacoma,2019-08-05T04:00:00.000Z,2019-08-30T04:00:00.000Z,"M, T, W, TH, F",,,,2:00PM - 2:30PM,,,A,6,N,US,48311,,2019,Pierce
-122.4501918,47.25841528,80026,Wright Park,Open,"501 South I Street Tacoma, WA 98405",,Tacoma,WA,98405,2533051022,,Renee,Ward,2533051022,Metro Parks Tacoma,2019-06-24T04:00:00.000Z,2019-08-30T04:00:00.000Z,"M, T, W, TH, F",,,12:00PM - 1:00PM,,,,L,6,N,US,48698,,2019,Pierce
-122.4882458,47.19746825,80027,STAR Center/ SERA Playground,Open,"3873 S. 66th St Tacoma, WA 98409",,Tacoma,WA,98409,2533051022,,Renee,Ward,2533051022,Metro Parks Tacoma,2019-06-24T04:00:00.000Z,2019-08-30T04:00:00.000Z,"M, T, W, TH, F",,,12:00PM - 1:00PM,,,,L,6,N,US,47537,,2019,Pierce
-120.4934583,46.5995704,80028,ML King Park,Open,"South 8th Street and Beech Yakima, WA 98901",,Yakima,WA,98901,5095737145,,Cassie,Davidson,5095737145,Yakima School District,2019-06-17T04:00:00.000Z,2019-08-09T04:00:00.000Z,"M, T, W, TH, F",,,1:30PM - 2:00PM,,,,L,6,N,US,29464,,2019,Yakima
-117.4604235,47.95207328,80029,Spokane County Library,Open,"208 S Forest Ave Deer Park, WA 99006",,Deer Park,WA,99006,5098938372,,Amber,Williams,5098938372,Spokane County Library District,2019-06-13T04:00:00.000Z,2019-08-28T04:00:00.000Z,"M, T, W, TH, F",,,,3:00PM - 4:00PM,,,A,6,N,US,31043,,2019,Spokane
-120.5508314,46.6089375,80030,Robertson Elementary (back parking lot),Open,"Powerhouse Road between Lincoln & (Englewood) Yakima, WA 98902",Englewood,Yakima,WA,98902,5095737145,,Cassie,Davidson,5095737145,Yakima School District,2019-06-17T04:00:00.000Z,2019-08-09T04:00:00.000Z,"M, T, W, TH, F",,,12:30PM - 12:45PM,,,,L,6,N,US,140838,,2019,Yakima
-120.5304705,46.603413,80031,Milroy Park,Open,"16th and Lincoln avenue Yakima, WA 98902",,Yakima,WA,98902,5095737145,,Cassie,Davidson,5095737145,Yakima School District,2019-06-17T04:00:00.000Z,2019-08-09T04:00:00.000Z,"M, T, W, TH, F",,,12:00PM - 12:15PM,,,,L,6,N,US,87278,,2019,Yakima
-120.514761,46.574379,80032,Gardner Park,Open,"Corner of Cornell and Pierce (behind Ridgeview Elementary) Union Gap, WA 98903",behind Ridgeview Elementary,Union Gap,WA,98903,5095737145,,Cassie,Davidson,5095737145,Yakima School District,2019-06-17T04:00:00.000Z,2019-08-09T04:00:00.000Z,"M, T, W, TH, F",,,12:30PM - 12:45PM,,,,L,6,N,US,97243,,2019,Yakima
-120.4863203,46.58140652,80033,Viola Apartments,Open,"1121 East Viola Avenue Yakima, WA 98901",,Yakima,WA,98901,5095737145,,Cassie,Davidson,5095737145,Yakima School District,2019-06-17T04:00:00.000Z,2019-08-09T04:00:00.000Z,"M, T, W, TH, F",,,1:00PM - 1:30PM,,,,L,6,N,US,141376,,2019,Yakima
-122.5942589,48.84456865,90739,Ferndale Club,Open,"2015 Cherry St Ferndale, WA 98248",,Ferndale,WA,98248,3607383808,,Kim,Grams,3607383808,Boys & Girls Clubs of Whatcom County,2019-06-24T04:00:00.000Z,2019-08-23T04:00:00.000Z,"M, T, W, TH, F",,8:30AM - 9:00AM,12:00PM - 12:30PM,,,,,7,N,US,35657,,2019,Whatcom
-123.4887737,48.1236514,90742,Evergreen Court Apartments,Open,"2202 W. 16th Street Port Angeles, WA 98363",,Port Angeles,WA,98363,3606838095,,David,Miller,3606838095,Boys & Girls Clubs of the Olympic Peninsula,2019-06-24T04:00:00.000Z,2019-08-29T04:00:00.000Z,"M, T, W, TH, F",,,12:00PM - 1:00PM,,,,,7,N,US,43026,,2019,Clallam
-123.4634919,48.1251104,90743,Shane Park,Open,"613 South G St. Port Angeles, WA 98363",,Port Angeles,WA,98363,3606838095,,David,Miller,3606838095,Boys & Girls Clubs of the Olympic Peninsula,2019-06-24T04:00:00.000Z,2019-08-29T04:00:00.000Z,"M, T, W, TH, F",,,12:00PM - 1:00PM,,,,,7,N,US,47155,,2019,Clallam
-123.4388124,48.10806251,90744,Jefferson Elementary,Open,"218 East 12th Street Port Angeles, WA 98362",,Port Angeles,WA,98362,3606838095,,David,Miller,3606838095,Boys & Girls Clubs of the Olympic Peninsula,2019-06-24T04:00:00.000Z,2019-08-29T04:00:00.000Z,"M, T, W, TH, F",,,12:00PM - 1:00PM,,,,,7,N,US,44320,,2019,Clallam
-123.3864036,48.10189105,90745,Roosevelt Elementary,Open,"106 Monroe Road Port Angeles, WA 98362",,Port Angeles,WA,98362,3606838095,,David,Miller,3606838095,Boys & Girls Clubs of the Olympic Peninsula,2019-07-09T04:00:00.000Z,2019-08-01T04:00:00.000Z,"M, T, W, TH",,,11:00AM - 11:30AM,,,,,7,N,US,112819,,2019,Clallam
-119.2608551,47.10397751,90746,Columbia Basin Technical Skills Center,Open,"900 E. Yonezawa Moses Lake, WA 98837",,Moses Lake,WA,98837,5097649694,,Jenn,Olson,5097649694,Boys & Girls Club of the Columbia Basin,2019-06-13T04:00:00.000Z,2019-07-01T04:00:00.000Z,"M, T, W, TH, F",,9:30AM - 10:30AM,11:30AM - 12:30PM,,,,,7,N,US,34950,,2019,Grant
-122.7783039,48.01349184,90747,Chimacum Elementary,Open,"91 West valley Rd Chimacum, WA 98325",,Chimacum,WA,98325,3603855811,270,Jessie,Wedmore,3603855811,Clallam County YMCA,2019-06-24T04:00:00.000Z,2019-08-16T04:00:00.000Z,"M, T, W, TH, F",,9:00AM - 9:30AM,12:00PM - 12:30PM,,,,,7,N,US,57814,,2019,Jefferson
-118.8755802,46.66356264,90749,Connell Elementary,Open,"1001 West Clark Street Connell, WA 99326",,Connell,WA,99326,5098450843,,Sharon,Robertson,5098450843,North Franklin School District,2019-06-25T04:00:00.000Z,2019-08-01T04:00:00.000Z,"T, W, TH",,,,7:45AM - 8:15AM,,,,7,N,US,26768,,2019,Franklin
-119.152876,46.5947818,90750,Basin City Elementary,Open,"303 Bailie Blvd. Mesa, WA 99343",,Mesa,WA,99343,5098450843,,Sharon,Robertson,5098450843,North Franklin School District,2019-06-25T04:00:00.000Z,2019-08-01T04:00:00.000Z,"T, W, TH",,,,7:45AM - 8:15AM,,,,7,N,US,142106,,2019,Franklin
-119.1581723,46.28356939,90752,Franklin Elementary,Open,"6010 Rd 52 Pasco, WA 99301",,Pasco,WA,99301,5095462836,,Kristen,Blair,5095462836,Pasco School District,2019-07-08T04:00:00.000Z,2019-07-25T04:00:00.000Z,"M, T, W, TH",,8:00AM - 8:30AM,11:30AM - 12:00PM,,,,,7,N,US,27619,,2019,Franklin
-118.9687868,47.96636318,90753,Lake Roosevelt Elementary,Open,"503 Crest Dr Coulee Dam, WA 99116",,Coulee Dam,WA,99116,5096331442,312,Nancy,Kuiper,5096331442,Grand Coulee Dam School District,2019-06-24T04:00:00.000Z,2019-07-25T04:00:00.000Z,"M, T, W, TH",,8:30AM - 9:00AM,12:00PM - 12:30PM,,,,,7,N,US,36842,,2019,Okanogan
-122.197614,48.06326667,90754,Quil Ceda Tulalip Elementary,Open,"2415 - 74th St. NE Marysville, WA 98271",,Marysville,WA,98271,3609650094,,Mike,Sullivan,3609650094,Marysville School District,2019-07-08T04:00:00.000Z,2019-08-02T04:00:00.000Z,"M, T, W, TH, F",,9:30AM - 9:45AM,12:15PM - 12:45PM,,,,,7,N,US,30339,,2019,Snohomish
-122.7401256,48.99466088,90755,Blaine Club,Open,"635 8th Street Blaine, WA 98230",,Blaine,WA,98230,3607383808,,Kim,Grams,3607383808,Boys & Girls Clubs of Whatcom County,2019-06-24T04:00:00.000Z,2019-08-23T04:00:00.000Z,"M, T, W, TH, F",,8:30AM - 9:00AM,12:00PM - 12:30PM,,,,,7,N,US,34209,,2019,Whatcom
-117.4065839,47.7185915,90756,Spokane Youth Center 2,Open,"232 East Lyons Ave Spokane, WA 99208",,Spokane,WA,99208,5094586516,,Yvette,Buckley,5094586516,Spokane Tribe of Indians,2019-06-17T04:00:00.000Z,2019-08-28T04:00:00.000Z,"M, T, W, TH",,8:30AM - 9:00AM,12:30PM - 1:00PM,,,,,7,N,US,83789,,2019,Spokane
-120.4125391,46.44279761,90757,Apas Goudy Community Center,Open,"518 Larena lane Wapato, WA 98951",,Wapato,WA,98951,5098776413,,Carman,Pimms,5098776413,The Campbell Farm,2019-06-17T04:00:00.000Z,2019-08-15T04:00:00.000Z,"M, T, W, TH",,9:00AM - 9:30AM,12:15PM - 1:00PM,,,,,7,N,US,142023,,2019,Yakima
-123.4208332,48.11107439,90758,Dream Park,Open,"298-300 S. Race Street Port Angeles, WA 98362",,Port Angeles,WA,98362,3606838095,,David,Miller,3606838095,Boys & Girls Clubs of the Olympic Peninsula,2019-06-24T04:00:00.000Z,2019-08-29T04:00:00.000Z,"M, T, W, TH, F",,,12:00PM - 1:00PM,,,,,7,N,US,35316,,2019,Clallam
-118.387011,46.0481757,90759,Davis Elementary School,Open,"31 SE Ash Street College Place, WA 99324",,College Place,WA,99324,5095274527,,Angela,Potts,5095274527,City of Walla Walla Parks and Recreation,2019-06-17T04:00:00.000Z,2019-08-23T04:00:00.000Z,"M, T, W, TH, F",,8:00AM - 8:30AM,12:30PM - 1:00PM,,,,,7,N,US,110509,,2019,Walla Walla
-118.2790989,46.08006025,90760,Walla Walla Community College SEA-TECH Skills Center,Open,"525 Campus Loop Dr. Walla Walla, WA 99362",,Walla Walla,WA,99362,5095274527,,Angela,Potts,5095274527,City of Walla Walla Parks and Recreation,2019-06-17T04:00:00.000Z,2019-07-02T04:00:00.000Z,"M, T, W, TH, F",,,11:00AM - 11:30AM,,,,,7,N,US,31735,,2019,Walla Walla
-119.0803316,46.24003636,90762,Curie STEM Elementary,Open,"715 N. California Pasco, WA 99301",,Pasco,WA,99301,5095462836,,Kristen,Blair,5095462836,Pasco School District,2019-06-18T04:00:00.000Z,2019-07-12T04:00:00.000Z,"M, T, W, TH, F",,,10:45AM - 11:15PM,,,,,7,N,US,26910,,2019,Franklin
-119.0803316,46.24003636,90763,Curie STEM Elementary,Open,"715 N. California Pasco, WA 99301",,Pasco,WA,99301,5095462836,,Kristen,Blair,5095462836,Pasco School District,2019-07-15T04:00:00.000Z,2019-07-25T04:00:00.000Z,"M, T, W, TH",,8:00AM - 8:30AM,11:30AM - 12:00PM,,,,,7,N,US,26910,,2019,Franklin
-122.6558847,48.29888025,90764,Boys & Girls Club of Oak Harbor,Open,"98 NE Barron Dr Oak Harbor, WA 98277",,Oak Harbor,WA,98277,3602795004,,Melanie,Willis,3602795004,Oak Harbor School District,2019-06-26T04:00:00.000Z,2019-08-23T04:00:00.000Z,"M, T, W, TH, F",,,12:15PM - 1:00PM,,,,,7,N,US,26011,,2019,Island
-122.6299688,48.2917001,90765,Victory Terrace Community Center,Open,"2205 Egret Drive Oak Harbor, WA 98277",,Oak Harbor,WA,98277,3602795004,,Melanie,Willis,3602795004,Oak Harbor School District,2019-06-26T04:00:00.000Z,2019-08-23T04:00:00.000Z,"M, T, W, TH, F",,,11:15AM - 12:00PM,,,,,7,N,US,31665,,2019,Island
-117.7154134,48.2808378,90766,HomeLink Alternative,Open,"W 106 LINCOLN (PO BOX 47) CHEWELAH, WA 99109",PO BOX 47,CHEWELAH,WA,99109,5096856800,1004,Mara,Schneider,5096856800,Chewelah School District,2019-06-18T04:00:00.000Z,2019-07-25T04:00:00.000Z,"T, W, TH",,,11:30AM - 12:00PM,,,,,7,N,US,143380,,2019,Stevens
-121.9869522,47.20335604,90768,Enumclaw Library,Open,"1700 1st Street Enumclaw, WA 98022",,Enumclaw,WA,98022,3608027715,,Tracy,Holyan,3608027715,Enumclaw School District,2019-06-24T04:00:00.000Z,2019-08-23T04:00:00.000Z,"M, T, W, TH, F",,9:30AM - 10:00AM,11:45AM - 12:45PM,,,,,7,N,US,35544,,2019,King
-122.9028011,47.69696844,90769,Brinnon School,Open,"46 School House Rd Brinnon, WA 98320",,Brinnon,WA,98320,3603855811,270,Jessie,Wedmore,3603855811,Clallam County YMCA,2019-06-24T04:00:00.000Z,2019-08-15T04:00:00.000Z,"M, T, W, TH",,9:00AM - 9:30AM,11:30AM - 12:00PM,,,,,7,N,US,34391,,2019,Jefferson
-118.3887034,46.03087741,90770,College Place High School,Open,"1755 S. College Avenue College Place, WA 99324",,College Place,WA,99324,5095274527,,Angela,Potts,5095274527,City of Walla Walla Parks and Recreation,2019-06-24T04:00:00.000Z,2019-07-31T04:00:00.000Z,"M, T, W, TH",,,12:20PM - 12:50PM,,,,,7,N,US,26696,,2019,Walla Walla
-122.66483,48.29357952,90772,Their Place Children's Center,Open,"531 SW 6th Ave Oak Harbor, WA 98277",,Oak Harbor,WA,98277,3602795004,,Melanie,Willis,3602795004,Oak Harbor School District,2019-06-26T04:00:00.000Z,2019-08-23T04:00:00.000Z,"M, T, W, TH, F",,,11:15AM - 12:00PM,,,,,7,N,US,31401,,2019,Island
-119.9093223,46.2548639,90773,Westside Community Park Pavillion,Open,"601 West 2nd Street Grandview, WA 98930",,Grandview,WA,98930,5098828532,,Marcia,Wagner,5098828532,Grandview School District,2019-06-17T04:00:00.000Z,2019-08-02T04:00:00.000Z,"M, T, W, TH, F",,9:00AM - 10:00AM,12:00PM - 12:50PM,,,,,7,N,US,31888,,2019,Yakima
-122.6777098,47.56541366,90774,The Summit at Bay Vista,Open,"4650 Bay Vista Blvd Bremerton, WA 98312",,Bremerton,WA,98312,3604734716,,Lynn,Johnson,3604734716,Bremerton School District,2019-06-19T04:00:00.000Z,2019-08-16T04:00:00.000Z,"M, T, W, TH, F",,,11:30AM - 12:00PM,1:00PM - 1:15PM,,,,7,N,US,39344,,2019,Kitsap
-122.7716856,48.03338898,90776,Jefferson County Library,Open,"620 Cedar Ave. Port Hadlock, WA 98339",,Port Hadlock,WA,98339,3603855811,270,Jessie,Wedmore,3603855811,Clallam County YMCA,2019-07-08T04:00:00.000Z,2019-08-08T04:00:00.000Z,"M, T, W, TH",,,12:30PM - 1:00PM,,,,,7,N,US,82245,,2019,Jefferson
-122.7601788,48.11692086,90777,Pt Townsend Community Center,Open,"620 Tyler Street Port Townsend, WA 98368",,Port Townsend,WA,98368,3603855811,270,Jessie,Wedmore,3603855811,Clallam County YMCA,2019-07-09T04:00:00.000Z,2019-08-09T04:00:00.000Z,"T, W, TH, F",,,12:30PM - 1:00PM,,,,,7,N,US,83324,,2019,Jefferson
-122.9956927,46.71374053,90779,Cook's Hill Community Church,Open,"2400 Cooks Hill Road Centralia, WA 98531",,Centralia,WA,98531,3603307626,,Michael,Young,3603307626,Centralia School District,2019-07-08T04:00:00.000Z,2019-08-02T04:00:00.000Z,"M, T, W, TH, F",,,,,,5:30PM - 6:00PM,,7,N,US,85567,,2019,Lewis
-119.9050428,46.24849864,90783,ABC Daycare,Open,"620 Grandridge Rd Grandview, WA 98930",,Grandview,WA,98930,5098828532,,Marcia,Wagner,5098828532,Grandview School District,2019-06-17T04:00:00.000Z,2019-08-02T04:00:00.000Z,"M, T, W, TH, F",,8:00AM - 8:30AM,12:15PM - 12:45PM,,,,,7,N,US,89835,,2019,Yakima
-122.6474304,48.28774019,90784,Flintstone Park,Open,"SE Bayshore Drive Oak Harbor, WA 98277",,Oak Harbor,WA,98277,3602795004,,Melanie,Willis,3602795004,Oak Harbor School District,2019-06-26T04:00:00.000Z,2019-08-23T04:00:00.000Z,"M, T, W, TH, F",,,11:30AM - 12:15PM,,,,,7,N,US,94981,,2019,Island
-117.065123,46.40365446,90786,Clarkston Boys & Girls Club,Open,"1414 Highland Avenue Clarkston, WA 99403",,Clarkston,WA,99403,2087462301,202,Andrea,Neumayer,2087462301,Boys & Girls Clubs of the Lewis Clark Valley,2019-06-10T04:00:00.000Z,2019-08-15T04:00:00.000Z,"M, T, W, TH, F",,,12:00PM - 1:00PM,4:00PM - 4:30PM,,,,7,N,US,110305,,2019,Asotin
-120.5595813,46.99415056,90787,West Ellensburg Park,Open,"902 W 3rd Ave Ellensburg, WA 98926",,Ellensburg,WA,98926,5099255990,,Elise,Warren,5099255990,FISH Community Food Bank,2019-06-17T04:00:00.000Z,2019-08-23T04:00:00.000Z,"M, T, W, TH, F",,,11:00AM - 11:30PM,,,,,7,N,US,116799,,2019,Kittitas
-123.1139136,48.07234448,90788,Sea Breeze Apartments,Open,"525 McCurdy Road Sequim, WA 98382",,Sequim,WA,98382,3606838095,,David,Miller,3606838095,Boys & Girls Clubs of the Olympic Peninsula,2019-06-20T04:00:00.000Z,2019-08-29T04:00:00.000Z,"M, T, W, TH, F",,,12:00PM - 1:00PM,,,,,7,N,US,144674,,2019,Clallam
-122.4610104,47.16644773,90791,Silver Ridge Apts.,Open,"100th Street Court South Tacoma, WA 98444",,Tacoma,WA,98444,2533835048,3,Kevin,Glackin-Coley,2533835048,St. Leos Parish,2019-06-24T04:00:00.000Z,2019-08-30T04:00:00.000Z,"M, T, W, TH, F",,,1:45PM - 2:15PM,,,,,7,N,US,112999,,2019,Pierce
-119.9093216,46.26172663,90792,Vista Grand Park,Open,"402 Opal Street Grandview, WA 98930",,Grandview,WA,98930,5098828532,,Marcia,Wagner,5098828532,Grandview School District,2019-06-17T04:00:00.000Z,2019-08-02T04:00:00.000Z,"M, T, W, TH, F",,9:35AM - 10:00AM,1:10PM - 1:40PM,,,,,7,N,US,116737,,2019,Yakima
-122.8867042,46.98305855,90793,Deschutes Cove Apartments,Open,"7201 Henderson Blvd SE # B Olympia, WA 98501",,Olympia,WA,98501,3606281002,,Morgan,Lord,3606281002,Thurston County Food Bank,2019-06-24T04:00:00.000Z,2019-08-30T04:00:00.000Z,"M, T, W, TH, F",,,12:00PM - 12:15PM,,,,,7,N,US,110541,,2019,Thurston
-122.6796873,47.5529523,90794,Pendergast Regional Park,Open,"1199 Union Ave. W Bremerton, WA 98312",,Bremerton,WA,98312,3604734716,,Lynn,Johnson,3604734716,Bremerton School District,2019-06-19T04:00:00.000Z,2019-08-16T04:00:00.000Z,"M, T, W, TH, F",,,11:45AM - 12:15PM,,,,,7,N,US,119263,,2019,Kitsap
-118.3355118,46.07490945,90796,Memorial Park Site,Open,"505 E. Rees Ave. Walla Walla, WA 99362",,Walla Walla,WA,99362,5095274527,,Angela,Potts,5095274527,City of Walla Walla Parks and Recreation,2019-06-17T04:00:00.000Z,2019-08-16T04:00:00.000Z,"M, T, W, TH, F",,,11:15AM - 11:45AM,,,,,7,N,US,143914,,2019,Walla Walla
-120.4190153,46.98713377,90797,Kittitas Elementary School,Open,"501 North Pierce Kittitas, WA 98934",,Kittitas,WA,98934,5099255990,,Elise,Warren,5099255990,FISH Community Food Bank,2019-06-24T04:00:00.000Z,2019-07-25T04:00:00.000Z,"M, T, W, TH",,,11:00AM - 12:00PM,,,,,7,N,US,143602,,2019,Kittitas
-117.3843014,47.77591896,90798,Lisa Stiles-Gyllenhammer Branch (ONW),Open,"13120 N. Pittsburg Spokane, WA 99208",,Spokane,WA,99208,5094890741,110,Tamara,Korth,5094890741,Boys & Girls Clubs of Spokane County,2019-07-08T04:00:00.000Z,2019-08-30T04:00:00.000Z,"M, T, W, TH, F",,,11:30AM - 1:00PM,4:00PM - 4:30PM,,,,7,N,US,143734,,2019,Spokane
-119.8956379,46.25356497,90799,Eastside Park,Open,"East 3rd Street Grandview, WA 98930",,Grandview,WA,98930,5098828532,,Marcia,Wagner,5098828532,Grandview School District,2019-06-17T04:00:00.000Z,2019-08-02T04:00:00.000Z,"M, T, W, TH, F",,9:05AM - 9:25AM,1:10PM - 1:40PM,,,,,7,N,US,142860,,2019,Yakima
-122.5227015,47.12134333,90800,The Crossing Apartments,Open,"6503 150th SW St Lakewood, WA 98439",,Lakewood,WA,98439,2533835048,3,Kevin,Glackin-Coley,2533835048,St. Leos Parish,2019-06-24T04:00:00.000Z,2019-08-30T04:00:00.000Z,"M, T, W, TH, F",,,12:30PM - 1:00PM,,,,,7,N,US,145007,,2019,Pierce
-119.2958358,46.2953931,90801,Jason Lee School Age,Open,"1750 McMurray Richland, WA 99352",,Richland,WA,99352,5095439980,409,Rachel,Lockard-Duvall,5095439980,Boys & Girls Clubs of Benton and Franklin Counties,2019-07-01T04:00:00.000Z,2019-07-05T04:00:00.000Z,"M, T, W, TH, F",,,,3:00PM - 3:30PM,,,,7,N,US,143481,,2019,Benton
-119.2958358,46.2953931,90802,Jason Lee School Age,Open,"1750 McMurray Richland, WA 99352",,Richland,WA,99352,5095439980,409,Rachel,Lockard-Duvall,5095439980,Boys & Girls Clubs of Benton and Franklin Counties,2019-07-22T04:00:00.000Z,2019-08-23T04:00:00.000Z,"M, T, W, TH, F",,,,3:00PM - 3:30PM,,,,7,N,US,143481,,2019,Benton
-117.6026025,48.11504342,113947,Wilderness Camp,Open,"3846 N. Deer Lake Rd. Loon Lake, WA 99148",,Loon Lake,WA,99148,,,Mark,Morton,,The Salvation Army - Camp Gifford,2019-06-24T04:00:00.000Z,2019-08-02T04:00:00.000Z,"M, T, W, TH, F",,8:00AM - 8:45AM,12:30PM - 1:15PM,,,5:30PM - 6:15PM,,8,N,US,48547,,2019,Stevens
-121.4945537,45.73949449,113948,Henkle Middle School,Open,"480 N.W. Loop Rd. White Salmon, WA 98672",,White Salmon,WA,98672,5094931500,,Kristyn,Bryan,5094931500,White Salmon Valley School District,2019-07-01T04:00:00.000Z,2019-07-25T04:00:00.000Z,"M, T, W, TH",,8:00AM - 8:30AM,12:00PM - 12:30PM,,,,,8,N,US,28097,,2019,Klickitat
-117.4266302,47.66634942,113958,Central YMCA Children's Center,Open,"930 North Monroe Street Spokane, WA 99201",,Spokane,WA,99201,5098797823,,Connie,Reynolds,5098797823,YMCA of the Inland North West,2019-06-17T04:00:00.000Z,2019-08-28T04:00:00.000Z,"M, T, W, TH, F",,,,,,5:30PM - 6:30PM,,8,N,US,145993,,2019,Spokane
-122.0979999,48.02725775,113959,Sunnycrest Elementary,Open,"3411 99th Avenue NE Lake Stevens, WA 98258",,Lake Stevens,WA,98258,4253351561,,Mollie,Langum,4253351561,Lake Stevens School District,2019-06-26T04:00:00.000Z,2019-08-09T04:00:00.000Z,"M, T, W, TH, F",,,12:00PM - 12:30PM,,,,,8,N,US,83913,,2019,Snohomish
-120.3085231,47.40696836,113960,Lincoln Elementary,Open,"1224 Methow Street Wenatchee, WA 98801",,Wenatchee,WA,98801,5096629345,,Chris,Lutgen,5096629345,Wenatchee School District,2019-06-24T04:00:00.000Z,2019-07-25T04:00:00.000Z,"M, T, W, TH",,7:30AM - 8:15AM,11:45AM - 12:30PM,,,,,8,N,US,146754,,2019,Chelan
-122.5697625,45.63183951,113961,Marrion Elementary,Open,"10119 N. E. 14th Street Vancouver, WA 98664",,Vancouver,WA,98664,3606044021,,Jennifer,Misfeldt,3606044021,Evergreen School District - Clark,2019-07-08T04:00:00.000Z,2019-07-26T04:00:00.000Z,"M, T, W, TH, F",,8:30AM - 9:00AM,11:00AM - 12:00PM,,,,,8,N,US,45171,,2019,Clark
-122.5697625,45.63183951,113962,Marrion Elementary,Open,"10119 N. E. 14th Street Vancouver, WA 98664",,Vancouver,WA,98664,3606044021,,Jennifer,Misfeldt,3606044021,Evergreen School District - Clark,2019-08-05T04:00:00.000Z,2019-08-16T04:00:00.000Z,"M, T, W, TH, F",,8:30AM - 9:00AM,11:00AM - 12:00PM,,,,,8,N,US,45171,,2019,Clark
-122.5316027,45.67524403,113963,Sifton Elementary,Open,"7301 N. E. 137th Avenue Vancouver, WA 98682",,Vancouver,WA,98682,3606044021,,Jennifer,Misfeldt,3606044021,Evergreen School District - Clark,2019-06-17T04:00:00.000Z,2019-07-12T04:00:00.000Z,"M, T, W, TH",,8:30AM - 9:00AM,12:00PM - 12:30PM,,,,,8,N,US,47216,,2019,Clark
-122.5822504,45.69029452,113964,Sunset Elementary,Open,"9001 NE 95th Street Vancouver, WA 98662",,Vancouver,WA,98662,3606044021,,Jennifer,Misfeldt,3606044021,Evergreen School District - Clark,2019-07-15T04:00:00.000Z,2019-07-23T04:00:00.000Z,"M, T, W, TH, F",,9:00AM - 9:30AM,11:30AM - 12:00PM,,,,,8,N,US,147507,,2019,Clark
-122.2923335,47.2806286,113965,Lakeland Elementary,Open,"35827 32nd Ave S Auburn, WA 98001",,Auburn,WA,98001,2539455570,,Alisha,Peretti,2539455570,Federal Way School District,2019-08-19T04:00:00.000Z,2019-08-21T04:00:00.000Z,"M, T, W",,,11:30AM - 11:45AM,,,,,8,N,US,36849,,2019,King
-122.2828718,47.35969048,113967,Star Lake Elementary,Open,"4014 S. 270th Street Kent, WA 98032",,Kent,WA,98032,2539455570,,Alisha,Peretti,2539455570,Federal Way School District,2019-08-19T04:00:00.000Z,2019-08-21T04:00:00.000Z,"M, T, W",,,11:30AM - 11:45AM,,,,,8,N,US,39083,,2019,King
-122.6136128,47.58243498,113968,Mountain View Middle School,Open,"2400 Perry Ave. Bremerton, WA 98310",,Bremerton,WA,98310,3604734716,,Lynn,Johnson,3604734716,Bremerton School District,2019-06-24T04:00:00.000Z,2019-07-18T04:00:00.000Z,"M, T, W, TH",,,12:00PM - 12:30PM,10:30AM - 10:45AM,,,,8,N,US,59251,,2019,Kitsap
-122.3177896,47.33535542,113972,Sacajewea Middle School,Open,"1101 South Dash Point Road Federal Way, WA 98003",,Federal Way,WA,98003,2539455570,,Alisha,Peretti,2539455570,Federal Way School District,2019-06-26T04:00:00.000Z,2019-07-25T04:00:00.000Z,"M, T, W, TH",,8:45AM - 9:05AM,12:00PM - 12:20PM,,,,,8,N,US,147331,,2019,King
-122.3570105,47.29755472,113973,Saghalie Middle School,Open,"33914 19th Avenue S.W. Federal Way, WA 98023",,Federal Way,WA,98023,2539455570,,Alisha,Peretti,2539455570,Federal Way School District,2019-07-09T04:00:00.000Z,2019-08-01T04:00:00.000Z,"M, T, W, TH",,8:30AM - 8:50AM,11:00AM - 11:15PM,,,,,8,N,US,38613,,2019,King
-122.3009309,47.35537066,113976,Mark Twain Elementary,Open,"2450 South Star Lake Rd Federal Way, WA 98003",,Federal Way,WA,98003,2539455570,,Alisha,Peretti,2539455570,Federal Way School District,2019-08-19T04:00:00.000Z,2019-08-21T04:00:00.000Z,"M, T, W",,,11:00AM - 11:15AM,,,,,8,N,US,91138,,2019,King
-122.3253506,47.32055047,113977,Mirror Lake Elementary School,Open,"625 S 314th St Federal Way, WA 98003",,Federal Way,WA,98003,2539455570,,Alisha,Peretti,2539455570,Federal Way School District,2019-08-19T04:00:00.000Z,2019-08-21T04:00:00.000Z,"M, T, W",,,11:00AM - 11:15AM,,,,,8,N,US,37395,,2019,King
-122.2813035,47.35122342,113982,Valhalla Elementary School,Open,"27847 42nd Ave S Auburn, WA 98001",,Auburn,WA,98001,2539455570,,Alisha,Peretti,2539455570,Federal Way School District,2019-08-19T04:00:00.000Z,2019-08-21T04:00:00.000Z,"M, T, W",,,11:00AM - 11:15AM,,,,,8,N,US,48133,,2019,King
-122.3419331,47.28692121,113983,Enterprise Elementary School,Open,"35101 5th Ave SW Federal Way, WA 98023",,Federal Way,WA,98023,2539455570,,Alisha,Peretti,2539455570,Federal Way School District,2019-06-26T04:00:00.000Z,2019-07-25T04:00:00.000Z,"M, T, W, TH",,7:50AM - 8:20AM,11:15AM - 11:40PM,,,,,8,N,US,81643,,2019,King
-122.3419331,47.28692121,113984,Enterprise Elementary School,Open,"35101 5th Ave SW Federal Way, WA 98023",,Federal Way,WA,98023,2539455570,,Alisha,Peretti,2539455570,Federal Way School District,2019-08-19T04:00:00.000Z,2019-08-21T04:00:00.000Z,"M, T, W",,,11:00AM - 11:15PM,,,,,8,N,US,81643,,2019,King
-122.4300351,47.15525638,113985,Tahoma View Apartments,Open,"11208 1st Ave Ct. E. Tacoma, WA 98445",,Tacoma,WA,98445,2532984602,4602,Katie,Watland,2532984602,Franklin Pierce School District,2019-06-24T04:00:00.000Z,2019-08-16T04:00:00.000Z,"M, W, F",,,12:00PM - 1:00PM,,,,,8,N,US,88629,,2019,Pierce
-122.2605669,47.33313137,113986,Meredith Hill Elementary,Open,"5830 South 300th Street Auburn, WA 98001",,Auburn,WA,98001,2539455570,,Alisha,Peretti,2539455570,Federal Way School District,2019-08-19T04:00:00.000Z,2019-08-21T04:00:00.000Z,"M, T, W",,,11:00AM - 11:15PM,,,,,8,N,US,146895,,2019,King
-122.3525389,47.3095955,113987,Silver Lake,Open,"1310 SW 325th Pl Federal Way, WA 98023",,Federal Way,WA,98023,2539455570,,Alisha,Peretti,2539455570,Federal Way School District,2019-08-19T04:00:00.000Z,2019-08-21T04:00:00.000Z,"M, T, W",,,11:00AM - 11:15AM,,,,,8,N,US,38831,,2019,King
-122.9013719,46.99350654,113989,Falls Pointe Apartments,Open,"411 W Lee Tumwater, WA 98501",,Tumwater,WA,98501,3606281002,,Morgan,Lord,3606281002,Thurston County Food Bank,2019-06-24T04:00:00.000Z,2019-08-30T04:00:00.000Z,"M, T, W, TH, F",,,11:30AM - 11:45AM,,,,,8,N,US,146316,,2019,Thurston
-122.2975515,47.319282,113990,Truman High School,Open,"31455 28th Ave S Federal Way, WA 98003",,Federal Way,WA,98003,2539455570,,Alisha,Peretti,2539455570,Federal Way School District,2019-06-24T04:00:00.000Z,2019-07-03T04:00:00.000Z,"M, T, W, TH, F",,9:00AM - 9:30AM,,,,,,8,N,US,119980,,2019,King
-121.4866562,45.73044028,113994,Whitson Elementary School,Open,"450 N Main Street White Salmon, WA 98672",,White Salmon,WA,98672,5094931500,,Kristyn,Bryan,5094931500,White Salmon Valley School District,2019-07-01T04:00:00.000Z,2019-07-25T04:00:00.000Z,"M, T, W, TH",,8:00AM - 8:30AM,11:45AM - 12:15PM,,,,,8,N,US,31929,,2019,Klickitat
-118.1986941,48.30225658,113995,Inchelium School,Open,"2 Hornet Avenue (P.O. Box 285) Inchelium, WA 99138",P.O. Box 285,Inchelium,WA,99138,5097226181,305,Nicole,Wells,5097226181,Inchelium School District,2019-06-17T04:00:00.000Z,2019-08-23T04:00:00.000Z,"M, T, W, TH, F",,8:30AM - 9:00AM,11:30AM - 12:30PM,,,,,8,N,US,146586,,2019,Ferry
-122.6677428,47.57499797,113996,YMCA @ Crownhill Elementary,Open,"1500 Rocky Point Road Bremerton, WA 98312",,Bremerton,WA,98312,3606278137,,Jessie,Banning,3606278137,YMCA of Pierce and Kitsap Counties,2019-08-19T04:00:00.000Z,2019-08-23T04:00:00.000Z,"M, T, W, TH, F",,,11:30AM - 1:30PM,3:00PM - 5:00PM,,,,8,N,US,147844,,2019,Kitsap
-122.6393922,47.61325159,113997,YMCA @ Pinecrest Elementary,Open,"5530 Pine Road NE Bremerton, WA 98311",,Bremerton,WA,98311,3606278137,,Jessie,Banning,3606278137,YMCA of Pierce and Kitsap Counties,2019-06-24T04:00:00.000Z,2019-08-23T04:00:00.000Z,"M, T, W, TH, F",,,11:30AM - 1:30PM,3:00PM - 5:00PM,,,,8,N,US,147850,,2019,Kitsap
-122.5071531,47.27101155,113998,Gonyea Branch,Open,"5136 N. 26th Street Tacoma, WA 98407",,Tacoma,WA,98407,,,Sierra,Raynor,,Boys & Girls Clubs of South Puget Sound,2019-06-24T04:00:00.000Z,2019-08-16T04:00:00.000Z,"M, T, W, TH, F",,9:00AM - 9:30AM,12:00PM - 1:00PM,,,,,8,N,US,27812,,2019,Pierce
-122.4587177,47.24489556,113999,Al Davies Branch,Open,"1620 17th St. Tacoma, WA 98405",,Tacoma,WA,98405,,,Sierra,Raynor,,Boys & Girls Clubs of South Puget Sound,2019-06-24T04:00:00.000Z,2019-08-16T04:00:00.000Z,"M, T, W, TH, F",,9:00AM - 9:30AM,12:00PM - 1:00PM,,,,,8,N,US,25466,,2019,Pierce
-122.4065512,47.20634409,114000,Milard Family Eastside Branch,Open,"1721 E. 56th St. Tacoma, WA 98404",,Tacoma,WA,98404,,,Sierra,Raynor,,Boys & Girls Clubs of South Puget Sound,2019-06-24T04:00:00.000Z,2019-08-16T04:00:00.000Z,"M, T, W, TH, F",,9:00AM - 9:30AM,12:00PM - 1:00PM,,,,,8,N,US,146916,,2019,Pierce
-122.4883226,47.19741153,114001,Donald G. Topping Regional Hope Center,Open,"3875 66th Street Tacoma, WA 98409",,Tacoma,WA,98409,,,Sierra,Raynor,,Boys & Girls Clubs of South Puget Sound,2019-06-24T04:00:00.000Z,2019-08-16T04:00:00.000Z,"M, T, W, TH, F",,9:00AM - 9:30AM,12:00PM - 1:00PM,,,,,8,N,US,42682,,2019,Pierce
-122.4968119,47.1614157,114002,Lakewood Branch,Open,"10402 Kline St SW Lakewood, WA 98499",,Lakewood,WA,98499,,,Sierra,Raynor,,Boys & Girls Clubs of South Puget Sound,2019-06-24T04:00:00.000Z,2019-08-16T04:00:00.000Z,"M, T, W, TH, F",,9:00AM - 9:30AM,12:00PM - 1:00PM,,,,,8,N,US,28788,,2019,Pierce
-122.2937307,47.27170053,114005,Rainier View,Open,"3015 S. 368th St Federal Way, WA 98003",,Federal Way,WA,98003,2539455570,,Alisha,Peretti,2539455570,Federal Way School District,2019-08-19T04:00:00.000Z,2019-08-21T04:00:00.000Z,"M, T, W",,,11:00AM - 11:15AM,,,,,8,N,US,147235,,2019,King
-122.2926122,47.7203846,114006,Lake City Court,Open,"12536 33rd Ave NE Seattle, WA 98125",,Seattle,WA,98125,2065386567,,Darcy,Buendia,2065386567,Hunger Intervention Program,2019-06-28T04:00:00.000Z,2019-08-27T04:00:00.000Z,"M, T, W, TH, F",,,12:00PM - 1:30PM,,,,,8,N,US,36830,,2019,King
-120.4190723,46.98509428,114007,Gazebo Park,Open,"211 N Pierce St Kittitas, WA 98934",,Kittitas,WA,98934,5099255990,,Elise,Warren,5099255990,FISH Community Food Bank,2019-06-17T04:00:00.000Z,2019-08-23T04:00:00.000Z,"M, T, W, TH, F",,,12:30PM - 1:00PM,,,,,8,N,US,146394,,2019,Kittitas
-122.6295018,47.59071581,114015,Bremerton Teen Center,Open,"3102 Wheaton Way Bremerton, WA 98310",,Bremerton,WA,98310,,,Sierra,Raynor,,Boys & Girls Clubs of South Puget Sound,2019-06-24T04:00:00.000Z,2019-08-16T04:00:00.000Z,"M, T, W, TH, F",,9:00AM - 9:30AM,12:00PM - 1:00PM,,,,,8,N,US,26115,,2019,Kitsap
-122.628384,47.56656149,114017,Bremerton Library ? Downtown Branch,Open,"612 5th Street Bremerton, WA 98312",,Bremerton,WA,98312,3604734716,,Lynn,Johnson,3604734716,Bremerton School District,2019-06-25T04:00:00.000Z,2019-08-16T04:00:00.000Z,"T, W",,,11:30AM - 12:00PM,,,,,8,N,US,145896,,2019,Kitsap
-122.3205517,47.71027812,114018,Cedarvale Village,Open,"11050 8th Ave. NE Seattle, WA 98125",,Seattle,WA,98125,2065386567,,Darcy,Buendia,2065386567,Hunger Intervention Program,2019-06-28T04:00:00.000Z,2019-08-27T04:00:00.000Z,"M, T, W, TH, F",,,12:00PM - 1:00PM,,,,,8,N,US,34688,,2019,King
-120.1437311,47.37474655,114023,Rock Island Community Park,Open,"5 Garden Avenue Rock Island, WA 98815",,Rock Island,WA,98815,5094231748,,Linda,Belton,5094231748,Small Miracles,2019-06-24T04:00:00.000Z,2019-08-08T04:00:00.000Z,"M, T, W, TH",,,12:00PM - 12:30PM,,,,,8,N,US,59965,,2019,Douglas
-120.2560721,47.39856452,114024,Clovis Middle School,Open,"1855 4th Street SE East Wenatchee, WA 98802",,East Wenatchee,WA,98802,5094231748,,Linda,Belton,5094231748,Small Miracles,2019-06-24T04:00:00.000Z,2019-08-08T04:00:00.000Z,"M, T, W, TH",,,12:00PM - 12:30PM,,,,,8,N,US,26661,,2019,Douglas
-120.2640023,47.40398953,114025,Grant School,Open,"1430 N. 1st East Wenatchee, WA 98802",,East Wenatchee,WA,98802,5094231748,,Linda,Belton,5094231748,Small Miracles,2019-06-24T04:00:00.000Z,2019-08-08T04:00:00.000Z,"M, T, W, TH",,,12:00PM - 12:30PM,2:00PM - 2:30PM,,,,8,N,US,27868,,2019,Douglas
-120.2692365,47.416743,114026,Kenroy Park,Open,"North James and 8th Street East Wenatchee, WA 98802",,East Wenatchee,WA,98802,5094231748,,Linda,Belton,5094231748,Small Miracles,2019-06-24T04:00:00.000Z,2019-08-08T04:00:00.000Z,"M, T, W, TH",,,12:00PM - 12:30PM,,,,,8,N,US,28618,,2019,Douglas
-120.2923124,47.42727361,114027,Lee Elementary,Open,"1455 N. Baker Ave. East Wenatchee, WA 98802",,East Wenatchee,WA,98802,5094231748,,Linda,Belton,5094231748,Small Miracles,2019-06-24T04:00:00.000Z,2019-08-08T04:00:00.000Z,"M, T, W, TH",,,12:00PM - 12:30PM,,,,,8,N,US,82455,,2019,Douglas
