long,lat,objectID,siteName,siteStatus,siteAddress,siteAddress2,siteCity,siteState,siteZip,sitePhone,ext,contactFirstName,contactLastName,contactPhone,sponsoringOrganization,startDate,endDate,daysofOperation,comments,breakfastTime,lunchTime,snackTimeAM,snackTimePM,dinnerSupperTime,mealTypesServed,cycleNumber,recordStatus,country,fnsid,created,season,county
-88.805592,43.453755,42709,Crystal Lake Park - West Shelter,Open,"Hwy 33 at Crystal Lake Rd Beaver Dam, WI 53916",,Beaver Dam,WI,53916,9208874600,,Joan,Hohenstein,,Beaver Dam Unified Schools,2019-06-10T04:00:00.000Z,2019-08-22T04:00:00.000Z,"M,T,W,TH",,,11:30 AM to 11:55 AM,,,,L,1,N,US,130665,,2019,Dodge
-88.85557507,43.44427491,42711,Lakecrest Drive,Open,"Lakecrest Drive Beaver Dam, WI 53916",,Beaver Dam,WI,53916,,,Stephanie,Young,,Beaver Dam Unified Schools,2019-06-10T04:00:00.000Z,2019-08-22T04:00:00.000Z,"M,T,W,TH",,,11:00 AM to 11:30 AM,,,,L,1,N,US,130720,,2019,Dodge
-87.36080083,44.84181436,42723,Thunderhill Estates,Open,"417 14th Place Sturgeon Bay, WI 54235",,Sturgeon Bay,WI,54235,,,Nicole,LeMieux,,Door County YMCA,2019-06-10T04:00:00.000Z,2019-08-23T04:00:00.000Z,"M,T,W,TH,F",,,11:50 AM to 12:20 PM,,,,L,1,N,US,130819,,2019,Door
-91.24737439,43.799976,42831,Hamilton ELC,Open,"1111 South 7th Street La Crosse, WI 54601",,La Crosse,WI,54601,6087895050,,Shannon,Daily,,LaCrosse School District,2019-09-23T04:00:00.000Z,2019-10-04T04:00:00.000Z,"M,T,W,TH,F",,7:30 AM to 8:00 AM,11:00 AM to 11:45 AM,,,,"B,L",1,N,US,130694,,2019,La Crosse
-91.24737439,43.799976,42832,Hamilton ELC,Open,"1111 South 7th Street La Crosse, WI 54601",,La Crosse,WI,54601,6087895050,,Shannon,Daily,,LaCrosse School District,2019-03-18T04:00:00.000Z,2019-03-29T04:00:00.000Z,"M,T,W,TH,F",,7:30 AM to 8:00 AM,11:00 AM to 11:45 AM,,,,"B,L",1,N,US,130694,,2019,La Crosse
-91.24737439,43.799976,42833,Hamilton ELC,Open,"1111 South 7th Street La Crosse, WI 54601",,La Crosse,WI,54601,6087895050,,Shannon,Daily,,LaCrosse School District,2019-06-06T04:00:00.000Z,2019-08-28T04:00:00.000Z,"M,T,W,TH,F",,7:30 AM to 8:00 AM,11:45 AM to 12:30 PM,,,,"B,L",1,N,US,130694,,2019,La Crosse
-91.24737439,43.799976,42834,Hamilton ELC,Open,"1111 South 7th Street La Crosse, WI 54601",,La Crosse,WI,54601,6087895050,,Shannon,Daily,,LaCrosse School District,2019-12-09T05:00:00.000Z,2019-12-20T05:00:00.000Z,"M,T,W,TH,F",,7:30 AM to 8:00 AM,11:00 AM to 11:45 AM,,,,"B,L",1,N,US,130694,,2019,La Crosse
-91.24113959,43.84658608,42841,Northside Elementary,Open,"1611 Kane Street La Crosse, WI 54601",,La Crosse,WI,54601,6087896706,,,,,LaCrosse School District,2019-06-06T04:00:00.000Z,2019-07-12T04:00:00.000Z,"M,T,W,TH,F",,,11:30 AM to 12:30 PM,,,,L,1,N,US,5929,,2019,La Crosse
-91.24113959,43.84658608,42842,Northside Elementary,Open,"1611 Kane Street La Crosse, WI 54601",,La Crosse,WI,54601,6087896706,,,,,LaCrosse School District,2019-12-09T05:00:00.000Z,2019-12-20T05:00:00.000Z,"M,T,W,TH,F",,7:45 AM to 8:10 AM,11:00 AM to 1:00 PM,,,,"B,L",1,N,US,5929,,2019,La Crosse
-91.24113959,43.84658608,42843,Northside Elementary,Open,"1611 Kane Street La Crosse, WI 54601",,La Crosse,WI,54601,6087896706,,,,,LaCrosse School District,2019-09-23T04:00:00.000Z,2019-10-04T04:00:00.000Z,"M,T,W,TH,F",,7:45 AM to 8:10 AM,11:15 AM to 1:00 PM,,,,"B,L",1,N,US,5929,,2019,La Crosse
-91.24113959,43.84658608,42844,Northside Elementary,Open,"1611 Kane Street La Crosse, WI 54601",,La Crosse,WI,54601,6087896706,,,,,LaCrosse School District,2019-07-08T04:00:00.000Z,2019-08-28T04:00:00.000Z,"M,T,W,TH,F",,7:30 AM to 8:30 AM,11:15 AM to 12:30 PM,,,,"B,L",1,N,US,5929,,2019,La Crosse
-91.21443166,43.77281401,42845,Hintgen Elementary,Open,"3505 South 28th Street La Crosse, WI 54601",,La Crosse,WI,54601,6087896805,,,,,LaCrosse School District,2019-06-06T04:00:00.000Z,2019-08-16T04:00:00.000Z,"M,T,W,TH,F",,7:30 AM to 8:30 AM,11:15 AM to 12:30 PM,,,,"B,L",1,N,US,71295,,2019,La Crosse
-91.21977546,43.793388,42846,Central,Open,"1801 Losey Blvd La Crosse, WI 54601",,La Crosse,WI,54601,,,Jeannette,Wuensch,,LaCrosse School District,2019-06-06T04:00:00.000Z,2019-08-16T04:00:00.000Z,"M,T,W,TH,F",,7:30 AM to 8:30 AM,11:30 AM to 12:30 PM,,,,"B,L",1,N,US,130655,,2019,La Crosse
-91.24534025,43.84391222,42847,Logan Middle,Open,"1450 Avon Street La Crosse, WI 54601",,La Crosse,WI,54601,,,,,,LaCrosse School District,2019-06-06T04:00:00.000Z,2019-08-16T04:00:00.000Z,"M,T,W,TH,F",,7:30 AM to 8:30 AM,11:30 AM to 12:30 PM,,,,"B,L",1,N,US,5382,,2019,La Crosse
-88.19472091,44.49999092,42912,Oneida Nation High School,Open,"N7210 Seminary Road Oneida, WI 54155",,Oneida,WI,54155,,,Jesse,Padron,,Oneida Nation School System,2019-06-10T04:00:00.000Z,2019-08-15T04:00:00.000Z,"M,T,W,TH,F",,8:00 AM to 9:00 AM,12:00 PM to 1:00 PM,,,,"B,L",1,N,US,130761,,2019,Outagamie
-91.08322701,45.47333284,42955,Ladysmith High School,Open,"1700 Edgewood Avenue East Ladysmith, WI 54848",,Ladysmith,WI,54848,7155325531,,Julie,Olson,,School District of Ladysmith,2019-06-10T04:00:00.000Z,2019-06-28T04:00:00.000Z,"M,T,W,TH,F",,7:45 AM to 8:30 AM,11:15 AM to 12:30 PM,,,,"B,L",1,N,US,5201,,2019,Rusk
-91.08322701,45.47333284,42956,Ladysmith High School,Open,"1700 Edgewood Avenue East Ladysmith, WI 54848",,Ladysmith,WI,54848,7155325531,,Julie,Olson,,School District of Ladysmith,2019-08-27T04:00:00.000Z,2019-08-29T04:00:00.000Z,"T,W,TH",,7:45 AM to 8:30 AM,11:30 AM to 1:00 PM,,,,"B,L",1,N,US,5201,,2019,Rusk
-89.99283158,43.53973149,42966,Pineview Elementary,Open,"1121 8th Street Reedsburg, WI 53959",,Reedsburg,WI,53959,6087688938,,Carolyn,Meyer,,Reedsburg School District,2019-06-21T04:00:00.000Z,2019-08-16T04:00:00.000Z,F,,8:00 AM to 8:30 AM,11:30 AM to 12:00 PM,,,,"B,L",1,N,US,130774,,2019,Sauk
-92.13827956,45.3975572,55688,Turtle Lake School,Open,"205 Oak Street Turtle Lake, WI 54889",,Turtle Lake,WI,54889,7159864470,,Melanie,Davis,,Turtle Lake School District,2019-06-03T04:00:00.000Z,2019-06-21T04:00:00.000Z,"M,T,W,TH,F",,7:50 AM to 8:30 AM,11:30 AM to 12:30 PM,,,,"B,L",3,N,US,15200,,2019,Barron
-92.13827956,45.3975572,55689,Turtle Lake School,Open,"205 Oak Street Turtle Lake, WI 54889",,Turtle Lake,WI,54889,7159864470,,Melanie,Davis,,Turtle Lake School District,2019-08-28T04:00:00.000Z,2019-08-30T04:00:00.000Z,"W,TH,F",,7:45 AM to 8:20 AM,10:45 AM to 12:20 PM,,,,"B,L",3,N,US,15200,,2019,Barron
-92.3779726,45.78668961,55690,School District of Siren,Open,"24022 4th Avenue Siren, WI 54872",,Siren,WI,54872,7153497392,,Tiffany,Battisti,,Siren School District,2019-06-10T04:00:00.000Z,2019-06-28T04:00:00.000Z,"M,T,W,TH,F",,8:00 AM to 8:45 AM,11:30 AM to 12:15 PM,,,,"B,L",3,N,US,15113,,2019,Burnett
-91.12011372,45.22237892,55691,Lake Holcombe School,Open,"27331 262nd Avenue Holcombe, WI 54745",,Holcombe,WI,54745,7155954241,,Amanda,Gudis,,Lake Holcombe School District,2019-06-10T04:00:00.000Z,2019-06-27T04:00:00.000Z,"M,T,W,TH",,8:00 AM to 8:30 AM,11:30 AM to 12:00 PM,,,,"B,L",3,N,US,82392,,2019,Chippewa
-91.12011372,45.22237892,55692,Lake Holcombe School,Open,"27331 262nd Avenue Holcombe, WI 54745",,Holcombe,WI,54745,7155954241,,Amanda,Gudis,,Lake Holcombe School District,2019-06-21T04:00:00.000Z,2019-06-21T04:00:00.000Z,F,,8:00 AM to 8:30 AM,,,,,B,3,N,US,82392,,2019,Chippewa
-90.95743369,43.26554117,55693,Seneca Area School District,Open,"202 Main Street Seneca, WI 54654",,Seneca,WI,54654,6087343411,,Michelle,Updike,,Seneca School District,2019-08-12T04:00:00.000Z,2019-08-16T04:00:00.000Z,"M,T,W,TH,F",,,11:30 AM to 1:00 PM,,,,L,3,N,US,133222,,2019,Crawford
-90.95743369,43.26554117,55694,Seneca Area School District,Open,"202 Main Street Seneca, WI 54654",,Seneca,WI,54654,6087343411,,Michelle,Updike,,Seneca School District,2019-07-10T04:00:00.000Z,2019-07-31T04:00:00.000Z,"T,W,TH",,,11:30 AM to 1:00 PM,,,,L,3,N,US,133222,,2019,Crawford
-90.95743369,43.26554117,55695,Seneca Area School District,Open,"202 Main Street Seneca, WI 54654",,Seneca,WI,54654,6087343411,,Michelle,Updike,,Seneca School District,2019-08-26T04:00:00.000Z,2019-08-29T04:00:00.000Z,"M,T,W,TH",,,11:30 AM to 1:00 PM,,,,L,3,N,US,133222,,2019,Crawford
-90.95743369,43.26554117,55696,Seneca Area School District,Open,"202 Main Street Seneca, WI 54654",,Seneca,WI,54654,6087343411,,Michelle,Updike,,Seneca School District,2019-06-11T04:00:00.000Z,2019-06-27T04:00:00.000Z,"M,T,W,TH,F",,,11:30 AM to 1:00 PM,,,,L,3,N,US,133222,,2019,Crawford
-89.50660004,43.09836715,55697,Middleton High School,Open,"2100 Bristol Street Middleton, WI 53562",,Middleton,WI,53562,6088299792,,Denitza,Neville,,Middleton-Cross Plains School District,2019-06-17T04:00:00.000Z,2019-08-08T04:00:00.000Z,"M,T,W,TH",,7:30 AM to 9:00 AM,11:00 AM to 1:00 PM,,,,"B,L",3,N,US,78934,,2019,Dane
-88.55259784,43.502598,55698,Mayville Middle School,Open,"445 North Henninger Street Mayville, WI 53050",,Mayville,WI,53050,9203877960,,Nikki,Williams,,Mayville School District,2019-06-17T04:00:00.000Z,2019-08-23T04:00:00.000Z,"M,T,W,TH,F",,7:00 AM to 8:30 AM,11:00 AM to 12:30 PM,,,,"B,L",3,N,US,132999,,2019,Dodge
-88.6481682,45.44107035,55699,Wabeno Elementry,Open,"4346 Mill Lane Wabeno, WI 54566",,Wabeno,WI,54566,7154732592,,Thomas,Swearingen,,Wabeno School District,2019-06-17T04:00:00.000Z,2019-07-12T04:00:00.000Z,"M,T,W,TH,F",,8:00 AM to 8:45 AM,10:45 AM to 11:30 AM,,,,"B,L",3,N,US,133354,,2019,Forest
-90.83967371,44.45144004,55700,Lincoln Elementary,Open,"207 East Pear Street Merrillan, WI 54754",,Merrillan,WI,54754,7153332911,,Deb,Barton,,Alma Center School District,2019-08-05T04:00:00.000Z,2019-08-16T04:00:00.000Z,"M,T,W,TH,F",,,10:45 AM to 11:15 AM,,,,L,3,N,US,132964,,2019,Jackson
-90.22221076,43.66313948,55702,Wonewoc-Center School District,Open,"101 School Road Wonewoc, WI 53968",,Wonewoc,WI,53968,6084643165,,Melissa,Gehri,,Wonewoc Center School District,2019-06-17T04:00:00.000Z,2019-08-21T04:00:00.000Z,"M,T,W,TH",,7:30 AM to 8:30 AM,11:30 AM to 12:30 PM,,,,"B,L",3,N,US,15278,,2019,Juneau
-87.85581032,42.61234564,55703,Bullen Middle School,Open,"2804 39th Avenue Kenosha, WI 53144",,Kenosha,WI,53144,2623594460,,Lillie,Brown,,Kenosha Common School District,2019-06-24T04:00:00.000Z,2019-07-26T04:00:00.000Z,"M,T,W,TH,F",,7:30 AM to 8:05 AM,,,,,B,3,N,US,3529,,2019,Kenosha
-89.8801335,42.56894249,55704,School District of Black Hawk,Open,"202 West Center Street South Wayne, WI 53587",,South Wayne,WI,53587,6084395400,,Rhonda,Lincicum,,Black Hawk School District,2019-06-10T04:00:00.000Z,2019-06-28T04:00:00.000Z,"M,T,W,TH",,7:45 AM to 8:30 AM,11:15 AM to 12:30 PM,,,,"B,L",3,N,US,133219,,2019,Lafayette
-89.60578119,44.95602153,55708,Hawthorn Hills,Open,"1600 Kickbusch Street Wausau, WI 54403",,Wausau,WI,54403,7152610045,,Lisa,Schillinger,,Wausau School District,2019-06-11T04:00:00.000Z,2019-07-18T04:00:00.000Z,"M,T,W,TH",,7:45 AM to 8:15 AM,11:15 AM to 12:15 PM,,,,"B,L",3,N,US,19263,,2019,Marathon
-89.64170147,44.98086948,55709,Thomas Jefferson,Open,"500 West Randollph Street Wausau, WI 54401",,Wausau,WI,54401,7152610179,,Jennie,Rennie,,Wausau School District,2019-06-11T04:00:00.000Z,2019-07-18T04:00:00.000Z,"M,T,W,TH",,7:45 AM to 8:15 AM,11:15 AM to 12:15 PM,,,,"B,L",3,N,US,133311,,2019,Marathon
-89.62534113,44.96886,55710,Franklin Elementary,Open,"1509 North 5th Street Wausau, WI 54403",,Wausau,WI,54403,,,Kay,Rosso,,Wausau School District,2019-06-11T04:00:00.000Z,2019-07-18T04:00:00.000Z,"M,T,W,TH",,7:45 AM to 8:15 AM,11:15 AM to 12:15 PM,,,,"B,L",3,N,US,132750,,2019,Marathon
-89.61050264,44.98231036,55711,Horace Mann Middle School,Open,"3101 North 13th Street Wausau, WI 54403",,Wausau,WI,54403,7152610727,,Cathy,Higar,,Wausau School District,2019-06-11T04:00:00.000Z,2019-07-18T04:00:00.000Z,"M,T,W,TH",,7:30 AM to 8:45 AM,10:30 AM to 12:15 PM,,,,"B,L",3,N,US,132844,,2019,Marathon
-89.64373081,44.954388,55712,Lincoln Elementary School,Open,"720 South 6th Avenue Wausau, WI 54401",,Wausau,WI,54401,7152610201,,Kathy,Guenther,,Wausau School District,2019-06-11T04:00:00.000Z,2019-07-18T04:00:00.000Z,"M,T,W,TH",,7:45 AM to 8:15 AM,11:15 AM to 12:15 PM,,,,"B,L",3,N,US,107736,,2019,Marathon
-89.65174003,44.95924245,55713,John Muir Middle School,Open,"1400 Stewart Avenue Wausau, WI 54401",,Wausau,WI,54401,7152610100,,Rene,Ison,,Wausau School District,2019-06-11T04:00:00.000Z,2019-07-18T04:00:00.000Z,"M,T,W,TH",,7:30 AM to 8:45 AM,11:30 AM to 12:15 PM,,,,"B,L",3,N,US,19591,,2019,Marathon
-87.5932888,45.08608756,55715,Red Arrow Park,Open,"318 East Bay Shore Street Marinette, WI 54143",,Marinette,WI,54143,7157325223,,Adrianne,Lacy,,Marinette School District,2019-08-09T04:00:00.000Z,2019-08-09T04:00:00.000Z,F,,,11:30 AM to 1:00 PM,,,,L,3,N,US,133161,,2019,Marinette
-87.63257202,45.08914333,55716,Marinette Civic Center,Open,"2000 Alice Lane Marinette, WI 54143",,Marinette,WI,54143,,,Adrianne,Lacy,,Marinette School District,2019-06-10T04:00:00.000Z,2019-08-23T04:00:00.000Z,"M,T,W,TH,F",,,11:30 AM to 12:30 PM,,,,L,3,N,US,132989,,2019,Marinette
-87.63257202,45.08914333,55717,Marinette Rec Center,Open,"2000 Alice Lane Marinette, WI 54143",,Marinette,WI,54143,,,Adrianne,Lacy,,Marinette School District,2019-06-10T04:00:00.000Z,2019-08-23T04:00:00.000Z,"M,T,W,TH,F",,7:30 AM to 8:45 AM,11:30 AM to 12:30 PM,,,,"B,L",3,N,US,132991,,2019,Marinette
-87.6003141,45.08906035,55718,Salvation Army,Open,"80 West Russell Street Marinette, WI 54143",,Marinette,WI,54143,,,Amy,Mailand,,Marinette School District,2019-06-10T04:00:00.000Z,2019-08-23T04:00:00.000Z,"M,T,W,TH,F",,,11:30 AM to 12:30 PM,,,,L,3,N,US,133207,,2019,Marinette
-87.64746507,45.10067594,55719,Duer Gym,Open,"402 Williams Street Marinette, WI 54143",,Marinette,WI,54143,7157325223,,Adrianne,Lacy,,Marinette School District,2019-06-10T04:00:00.000Z,2019-08-08T04:00:00.000Z,"M,T,W,TH",,9:00 AM to 9:20 AM,11:30 AM to 12:15 PM,,,,"B,L",3,N,US,14655,,2019,Marinette
-87.62959391,45.08205618,55720,Marinette High School,Open,"2139 Pierce Avenue Marinette, WI 54143",,Marinette,WI,54143,7157351404,,Amy,Mailand,,Marinette School District,2019-06-10T04:00:00.000Z,2019-08-23T04:00:00.000Z,"M,T,W,TH,F",,7:30 AM to 8:45 AM,11:00 AM to 12:45 PM,,,,"B,L",3,N,US,132990,,2019,Marinette
-87.96151095,45.39023325,55721,School District of Wausaukee,Open,"N11941 US Highway 141 Wausaukee, WI 54177",,Wausaukee,WI,54177,7158565151,,Julie,Behnke,,Wausaukee School District,2019-06-10T04:00:00.000Z,2019-06-28T04:00:00.000Z,"M,T,W,TH,F",,8:00 AM to 8:30 AM,11:30 AM to 12:00 PM,,,,"B,L",3,N,US,30744,,2019,Marinette
-92.63194837,45.40477647,55722,SCF High School,Open,"740 Maple Drive Saint Croix Falls, WI 54024",,Saint Croix Falls,WI,54024,7154839823,,Lynette,Larson,,St. Croix Falls School District,2019-08-27T04:00:00.000Z,2019-08-29T04:00:00.000Z,"T,W,TH",,7:30 AM to 8:00 AM,10:50 AM to 1:30 PM,,,,"B,L",3,N,US,30737,,2019,Polk
-92.63194837,45.40477647,55723,SCF High School,Open,"740 Maple Drive Saint Croix Falls, WI 54024",,Saint Croix Falls,WI,54024,7154839823,,Lynette,Larson,,St. Croix Falls School District,2019-06-10T04:00:00.000Z,2019-06-28T04:00:00.000Z,"M,T,W,TH,F",,7:30 AM to 8:30 AM,11:45 AM to 12:30 PM,,,,"B,L",3,N,US,30737,,2019,Polk
-92.63576233,45.41202853,55724,SCF Elementary school,Open,"651 East Louisiana Street Saint Croix Falls, WI 54024",,Saint Croix Falls,WI,54024,7154832507,,Lynette,Larson,,St. Croix Falls School District,2019-08-27T04:00:00.000Z,2019-08-29T04:00:00.000Z,"T,W,TH",,7:30 AM to 8:15 AM,11:15 AM to 12:25 PM,,,,"B,L",3,N,US,105194,,2019,Polk
-92.63576233,45.41202853,55725,SCF Elementary school,Open,"651 East Louisiana Street Saint Croix Falls, WI 54024",,Saint Croix Falls,WI,54024,7154832507,,Lynette,Larson,,St. Croix Falls School District,2019-06-10T04:00:00.000Z,2019-06-28T04:00:00.000Z,"M,T,W,TH,F",,7:30 AM to 8:45 AM,11:45 AM to 12:30 PM,,,,"B,L",3,N,US,105194,,2019,Polk
-89.25610803,42.62996284,55726,Parkview Elementary School,Open,"106 West Church Street Orfordville, WI 53576",,Orfordville,WI,53576,6088792956,,Nancy,Carlson,,Parkview School District,2019-06-12T04:00:00.000Z,2019-07-12T04:00:00.000Z,"M,T,W,TH,F",,9:45 AM to 10:15 AM,,,,,B,3,N,US,112499,,2019,Rock
-89.25610803,42.62996284,55727,Parkview Elementary School,Open,"106 West Church Street Orfordville, WI 53576",,Orfordville,WI,53576,6088792956,,Nancy,Carlson,,Parkview School District,2019-07-29T04:00:00.000Z,2019-08-09T04:00:00.000Z,"M,T,W,TH,F",,9:45 AM to 10:15 AM,,,,,B,3,N,US,112499,,2019,Rock
-92.03258071,45.88692471,55728,Spooner High School,Open,"801 County Highway A Spooner, WI 54801",,Spooner,WI,54801,,,Doreen,Miller,,Spooner Area School District,2019-06-21T04:00:00.000Z,2019-06-21T04:00:00.000Z,F,,,12:00 PM to 12:30 PM,,4:30 PM to 5:00 PM,,"L,A",3,N,US,133256,,2019,Burnett
-88.26418143,43.01671052,55732,North High School,Open,"2222 Michigan Avenue Waukesha, WI 53188",,Waukesha,WI,53188,2629703510,,Michele,Andersen,,Waukesha School District,2019-06-17T04:00:00.000Z,2019-07-19T04:00:00.000Z,"M,T,W,TH,F",,7:00 AM to 7:30 AM,12:40 PM to 1:00 PM,,,,"B,L",3,N,US,87578,,2019,Waukesha
-88.20348406,43.03007088,55733,Horning Middle School,Open,"2000 Wolf Road Waukesha, WI 53186",,Waukesha,WI,53186,2629703310,,Linda,Mandoli,,Waukesha School District,2019-06-17T04:00:00.000Z,2019-07-19T04:00:00.000Z,"M,T,W,TH,F",,7:30 AM to 8:05 AM,11:40 AM to 12:10 PM,,,,"B,L",3,N,US,36386,,2019,Waukesha
-88.2172125,43.00978053,55735,Hadfield Elementary,Open,"733 Linden Street Waukesha, WI 53186",,Waukesha,WI,53186,,,Jessica,Escobedo Benitez,,Waukesha School District,2019-06-17T04:00:00.000Z,2019-07-19T04:00:00.000Z,"M,T,W,TH,F",,7:40 AM to 8:20 AM,12:00 PM to 12:30 PM,,,,"B,L",3,N,US,43750,,2019,Waukesha
-88.62905184,44.87167907,55736,Keshena Primary School,Open,"N522 State Highway 47/55 Keshena, WI 54135",,Keshena,WI,54135,7157993824,,Amy,Hill,,Menominee Indian School District,2019-06-17T04:00:00.000Z,2019-07-19T04:00:00.000Z,"M,T,W,TH,F",,7:30 AM to 8:15 AM,11:00 AM to 12:00 PM,,,,"B,L",3,N,US,132918,,2019,Menominee
-88.04516234,43.13873722,56959,Maple Tree School,Open,"6644 N. 107th St. Milwaukee, WI 53224",,Milwaukee,WI,53224,9208180796,,Abby,Lifto,,Door County YMCA,2019-06-03T07:00:00.000Z,2019-08-30T07:00:00.000Z,"M,T,W,TH,F",,,11:30 AM to 12:00 PM,,3:00 PM to 3:30 PM,,"L,A",4,N,US,134847,,2019,Milwaukee
-87.97024927,43.09630753,91014,YMCA Parklawn,Open,"4340 N 46th St Milwaukee, WI 53216",,Milwaukee,WI,53216,,,Lizandra,Rivera,,Milwaukee Center for Independence,2019-06-17T04:00:00.000Z,2019-08-02T04:00:00.000Z,"M,T,W,TH,F",,11:30 AM to 12:30 PM,4:00 PM to 5:00 PM,,,,"B,L",7,N,US,145445,,2019,Milwaukee
-88.01456655,44.51664994,114181,City Deck,Open,"301 N Washington St Green Bay, WI 54301",,Green Bay,WI,54301,9203912407,,Food Service Worker,,,Green Bay School District,2019-07-13T04:00:00.000Z,2019-07-13T04:00:00.000Z,SA,,,8:55 AM to 1:05 PM,,,,,8,N,US,146036,,2019,Brown
-87.29111067,44.88991677,114190,Sevastopol Town Park,Open,"4528 State Hwy 57 Sturgeon Bay, WI 54235",,Sturgeon Bay,WI,54235,,,Casey,Andrews,,Door County YMCA,2019-07-08T04:00:00.000Z,2019-07-25T04:00:00.000Z,"M,T,W,TH",,,11:00 AM to 12:00 PM,,,,,8,N,US,147360,,2019,Door
-92.35188567,45.30389068,114201,Lien Elementary,Open,"469 Minneapolis Ave. S Amery, WI 54001",,Amery,WI,54001,7152689771,,Stacy,Nelson,,Amery School District,2019-06-10T04:00:00.000Z,2019-08-09T04:00:00.000Z,"M,T,W,TH,F",,7:50 AM to 8:45 AM,11:00 AM to 12:30 PM,,,,,8,N,US,146747,,2019,Polk
-89.46259743,43.53829518,114229,Portage Public Library,Open,"253 W. Edgewater St Portage, WI 53901",,Portage,WI,53901,,,,,,Wisconsin Dells School District,2019-06-12T04:00:00.000Z,2019-08-29T04:00:00.000Z,"M,T,W,TH,F",,,11:15 AM to 11:45 AM,,,,,8,N,US,147207,,2019,Columbia
-87.26347549,44.90836671,109281,Sevastopol School,Open,"4450 WI - 57 Sturgeon Bay, WI 54235",,Sturgeon Bay,WI,54235,9207436268,,Casey,Andrews,,Door County YMCA,2019-07-08T04:00:00.000Z,2019-07-25T04:00:00.000Z,"M,T,W,TH",,,11:30 AM to 12:00 PM,,,,L,7,U,US,130795,,2019,Door
-88.07047931,44.4884593,122050,Parkview Middle School,Open,"955 Willard Drive Green Bay, WI 54304",,Green Bay,WI,54304,,,Betsy,Farah,,Ashwaubenon School District,2019-06-12T04:00:00.000Z,2019-08-13T04:00:00.000Z,"M,T,W,TH,F",,,11:45 AM to 12:05 PM,,,,,8,U,US,101098,,2019,Brown
-88.05757187,44.43842061,122052,De Pere Optimist Park,Open,"801 Cook Street De Pere, WI 54115",,De Pere,WI,54115,,,Deb,Pockl,,DePere Unified Schools,2019-06-17T04:00:00.000Z,2019-08-16T04:00:00.000Z,"M,T,W,TH,F",,,12:00 PM to 12:30 PM,,,,,8,U,US,71102,,2019,Brown
-88.84471206,43.46718515,122121,WaterWorks Park,Open,"Park on the Lake Beaver Dam, WI 53916",,Beaver Dam,WI,53916,,,Polly,Dake-Jones,,Beaver Dam Unified Schools,2019-06-10T04:00:00.000Z,2019-08-22T04:00:00.000Z,"M,T,W,TH",,,12:00 PM to 12:30 PM,,,,,8,U,US,130831,,2019,Dodge
-87.37573719,44.83358422,122129,Boys and Girls Club-Teen,Open,"55 S. 3rd Avenue Sturgeon Bay, WI 54235",,Sturgeon Bay,WI,54235,,,Julie,Davis,,Door County YMCA,2019-06-10T04:00:00.000Z,2019-08-23T04:00:00.000Z,"M,T,W,TH,F",,,11:00 AM to 12:15 PM,,3:15 PM to 4:00 PM,,,8,U,US,70970,,2019,Door
-87.36404243,44.84378418,122130,BayHill Apartments,Open,"613 N. 12th Ave. Sturgeon Bay, WI 54235",,Sturgeon Bay,WI,54235,,,,,,Door County YMCA,2019-06-10T04:00:00.000Z,2019-08-16T04:00:00.000Z,"M,T,W,TH,F",,,11:10 AM to 11:40 AM,,,,,8,U,US,70933,,2019,Door
-87.374214,44.842977,122131,Amity Field,Open,"North 7th and Florida St Sturgeon Bay, WI 54235",,Sturgeon Bay,WI,54235,,,,,,Door County YMCA,2019-06-10T04:00:00.000Z,2019-08-16T04:00:00.000Z,"M,T,W,TH,F",,,10:30 AM to 11:00 AM,,,,,8,U,US,70897,,2019,Door
-87.44416304,44.6076515,122133,Algoma Park & Rec,Open,"807 Clark Street Algoma, WI 54201",,Algoma,WI,54201,,,,,,Door County YMCA,2019-07-01T04:00:00.000Z,2019-08-08T04:00:00.000Z,"M,T,W,TH",,,12:00 PM to 12:30 PM,,,,,8,U,US,17334,,2019,Kewaunee
-87.36080083,44.84181436,122136,Thunder Hill Estates,Open,"417 14th Place Sturgeon Bay, WI 54235",,Sturgeon Bay,WI,54235,,,Nicole,LeMieux,,Door County YMCA,2019-06-10T04:00:00.000Z,2019-08-23T04:00:00.000Z,"M,T,W,TH,F",,,11:50 AM to 12:20 PM,,,,,8,U,US,71715,,2019,Door
-87.44397144,44.60210123,122137,St. Pauls Luthurn School,Open,"1115 Division Street Algoma, WI 54201",,Algoma,WI,54201,,,Bethany,Waldschmidt,,Door County YMCA,2019-06-10T04:00:00.000Z,2019-08-23T04:00:00.000Z,"M,T,W,TH,F",,,11:00 AM to 11:30 AM,,,,,8,U,US,101356,,2019,Kewaunee
-87.22719378,45.12682053,122138,Northern Door YMCA,Open,"3866 Gibraltar Rd Fish Creek, WI 54212",,Fish Creek,WI,54212,,,Tyler,Powell,,Door County YMCA,2019-06-17T04:00:00.000Z,2019-08-15T04:00:00.000Z,"M,T,W,TH",,,12:00 PM to 12:30 PM,,,,,8,U,US,130758,,2019,Door
-87.22770062,45.1276267,122139,Gibraltar School,Open,"3924 WI-42 Fish Creek, WI 54212",,Fish Creek,WI,54212,,,Tyler,Powell,,Door County YMCA,2019-06-17T04:00:00.000Z,2019-07-11T04:00:00.000Z,"M,T,W,TH",,,9:50 AM to 10:10 AM,,,,,8,U,US,130687,,2019,Door
-92.0679525,46.71169215,122163,"SS4 Superior Town Homes,Aspen,Rasp Court",Open,"A Aspen Courts Superior, WI 54880",,Superior,WI,54880,,,Kym,Nepper,,Superior School District,2019-06-10T04:00:00.000Z,2019-08-23T04:00:00.000Z,"M,T,W,TH,F",,,12:40 PM to 1:00 PM,,,,,8,U,US,130809,,2019,Douglas
-88.44271255,43.78094348,122199,Chegwin School,Open,"109 East Merrill Fond du Lac, WI 54935",,Fond du Lac,WI,54935,9209066790,,Tina,Sommerfeldt,,Fond du Lac School District,2019-07-09T04:00:00.000Z,2019-08-08T04:00:00.000Z,"T,W,TH",,,12:00 PM to 1:00 PM,,,,,8,U,US,3753,,2019,Fond du Lac
-88.44271255,43.78094348,122200,Chegwin School,Open,"109 East Merrill Fond du Lac, WI 54935",,Fond du Lac,WI,54935,9209066790,,Tina,Sommerfeldt,,Fond du Lac School District,2019-08-12T04:00:00.000Z,2019-08-22T04:00:00.000Z,"M,T,W,TH,F",,7:30 AM to 8:30 AM,11:00 AM to 12:00 PM,,,,,8,U,US,3753,,2019,Fond du Lac
-88.44271255,43.78094348,122201,Chegwin School,Open,"109 East Merrill Fond du Lac, WI 54935",,Fond du Lac,WI,54935,9209066790,,Tina,Sommerfeldt,,Fond du Lac School District,2019-06-10T04:00:00.000Z,2019-06-28T04:00:00.000Z,"M,T,W,TH,F",,7:30 AM to 8:30 AM,11:00 AM to 12:00 PM,,,,,8,U,US,3753,,2019,Fond du Lac
-89.89975323,43.71233106,122270,Lyndon Station Park,Open,"North Wisconsin Street Lyndon Station, WI 53944",,Lyndon Station,WI,53944,,,Veronica,Erickson,,Mauston School District,2019-06-10T04:00:00.000Z,2019-08-23T04:00:00.000Z,"M,T,W,TH,F",,,11:30 AM to 12:00 PM,,,,,8,U,US,5450,,2019,Juneau
-89.70123861,45.17934517,122337,T. B. Scott Free Library,Open,"106 W. First St. Merrill, WI 54452",,Merrill,WI,54452,,,Carolyn,Forde,,T.B. Scott Free Library,2019-07-01T04:00:00.000Z,2019-07-25T04:00:00.000Z,"M,T,W,TH",,,11:30 AM to 12:30 PM,,,,,8,U,US,141166,,2019,Lincoln
-87.66163374,44.10969458,122345,Wilson Junior High School,Open,"1201 North 11th Street Manitowoc, WI 54220",,Manitowoc,WI,54220,,,Rosanne,Bergene,,Manitowoc School District,2019-08-05T04:00:00.000Z,2019-08-16T04:00:00.000Z,"M,T,W,TH,F",,7:30 AM to 8:30 AM,11:30 AM to 12:30 PM,,,,,8,U,US,130846,,2019,Manitowoc
-87.63257202,45.08914333,122364,Marinette Civic Center,Open,"2000 Alice Ln Marinette, WI 54143",,Marinette,WI,54143,,,Adrianne,Lacy,,Marinette School District,2019-06-10T04:00:00.000Z,2019-08-23T04:00:00.000Z,"M,T,W,TH,F",,,11:30 AM to 12:30 PM,,,,,8,U,US,134855,,2019,Marinette
-87.62967078,45.08025758,122365,Marinette Rec Center,Open,"2501 Pierce Ave Marinette, WI 54143",,Marinette,WI,54143,,,Adrianne,Lacy,,Marinette School District,2019-06-10T04:00:00.000Z,2019-08-23T04:00:00.000Z,"M,T,W,TH,F",,7:30 AM to 8:45 AM,11:30 AM to 12:30 PM,,,,,8,U,US,134857,,2019,Marinette
-87.6003141,45.08906035,122366,Salvation Army,Open,"80 W Russell St Marinette, WI 54143",,Marinette,WI,54143,,,Amy,Mailand,,Marinette School District,2019-06-10T04:00:00.000Z,2019-08-23T04:00:00.000Z,"M,T,W,TH,F",,,11:30 AM to 12:30 PM,,,,,8,U,US,135404,,2019,Marinette
-87.90870385,43.07809458,122493,New Dawn Family Resource Center,Open,"3276 N Palmer Avenue Milwaukee, WI 53212",,Milwaukee,WI,53212,,,Latisha,Gyden,,HeartLove Place Inc,2019-06-19T04:00:00.000Z,2019-08-31T04:00:00.000Z,"M,T,W,TH,F,SA",,,11:30 AM to 12:30 PM,10:00 AM to 10:30 AM,,,,8,U,US,144133,,2019,Milwaukee
-87.92012369,43.00458205,122516,Kosciuszko Community Center,Open,"2201 S 7th St Milwaukee, WI 53215",,Milwaukee,WI,53215,4146454624,,Riley,Garcia,,Milwaukee Center for Independence,2019-06-17T04:00:00.000Z,2019-08-09T04:00:00.000Z,"M,T,W,TH,F",,8:30 AM to 9:00 AM,11:30 AM to 12:00 PM,,,,,8,U,US,143607,,2019,Milwaukee
-87.96363238,43.05443674,122519,Urban Ecology Center,Open,"1859 N 40th St Milwaukee, WI 53532",,Milwaukee,WI,53532,4143445460,,Terrance,Davis,,Milwaukee Center for Independence,2019-06-17T04:00:00.000Z,2019-08-23T04:00:00.000Z,"M,T,W,TH,F",,,11:30 AM to 1:00 PM,,3:15 PM to 3:45 PM,,,8,U,US,145186,,2019,Milwaukee
-87.97205233,43.06067549,122525,SOS Center,Open,"4620 W North Ave Milwaukee, WI 53208",,Milwaukee,WI,53208,4144499964,,Tiffany,Phillips,,Milwaukee Center for Independence,2019-06-17T04:00:00.000Z,2019-07-26T04:00:00.000Z,"M,T,W,TH,F",,9:00 AM to 9:30 AM,12:30 PM to 1:00 PM,,,,,8,U,US,144756,,2019,Milwaukee
-90.50728216,43.97911242,122596,Miller Elementary,Open,"813 Oak Avenue Tomah, WI 54660",,Tomah,WI,54660,,,Heidi,Kemp,,Tomah Area School District,2019-06-24T04:00:00.000Z,2019-08-01T04:00:00.000Z,"M,T,W,TH",,8:15 AM to 8:45 AM,11:00 AM to 12:00 PM,,,,,8,U,US,74170,,2019,Monroe
-90.51620811,43.97951541,122598,Winnebago Park,Open,"903 Brandon St Tomah, WI 54660",,Tomah,WI,54660,,,Vicky,Foss,,Tomah Area School District,2019-06-10T04:00:00.000Z,2019-08-09T04:00:00.000Z,"M,T,W,TH,F",,,11:00 AM to 11:35 AM,,,,,8,U,US,71795,,2019,Monroe
-89.40985367,45.64302428,122605,Central Intermediate,Open,"418 N. Pelham Rhinelander, WI 54501",,Rhinelander,WI,54501,,,Rene,Kecker,,Rhinelander School District,2019-06-12T04:00:00.000Z,2019-07-03T04:00:00.000Z,"M,T,W,TH,F",,8:00 AM to 8:15 AM,11:30 AM to 12:30 PM,,,,,8,U,US,134029,,2019,Oneida
-92.36758169,45.30302379,122622,Amery Public Library,Open,"225 Scholl St Amery, WI 54001",,Amery,WI,54001,,,Amy,Corbett,,Amery School District,2019-06-10T04:00:00.000Z,2019-08-05T04:00:00.000Z,M,,,11:00 AM to 12:00 PM,,,,,8,U,US,133709,,2019,Polk
-89.04189779,42.68153825,122702,Bond Park Pavillion,Open,"201 N Oakhill Ave Janesville, WI 53548",,Janesville,WI,53548,,,Barb,Cox,,Janesville School District,2019-06-17T04:00:00.000Z,2019-08-16T04:00:00.000Z,"M,T,W,TH,F",,,11:15 AM to 1:15 PM,,,,,8,U,US,130637,,2019,Rock
-89.02218086,42.52259852,122710,Summit Park (Beloit Parks Dept),Open,"1218 Henry Ave Beloit, WI 53511",,Beloit,WI,53511,,,Paula,Schutt,,The Salvation Army - Beloit,2019-06-10T04:00:00.000Z,2019-06-14T04:00:00.000Z,"M,T,W,TH,F",,,12:00 PM to 12:30 PM,,,,,8,U,US,135590,,2019,Rock
-89.04650522,42.502212,122711,Hackett School (Beloit Parks Dept),Open,"625 8th St Beloit, WI 53511",,Beloit,WI,53511,,,Paula,Schutt,,The Salvation Army - Beloit,2019-06-17T04:00:00.000Z,2019-08-16T04:00:00.000Z,"M,T,W,TH,F",,,2:15 PM to 2:45 PM,,,,,8,U,US,134504,,2019,Rock
-89.02186473,42.51872759,122712,Merrill School (Beloit Parks Dept),Open,"1635 Nelson Ave Beloit, WI 53511",,Beloit,WI,53511,,,Paula,Schutt,,The Salvation Army - Beloit,2019-06-17T04:00:00.000Z,2019-08-16T04:00:00.000Z,"M,T,W,TH,F",,,2:15 PM to 2:45 PM,,,,,8,U,US,134929,,2019,Rock
-88.67289267,42.62771742,122781,Chestnut Ridge Apartments,Open,"419 Autumn Dr. Delavan, WI 53115",,Delavan,WI,53115,2629494571,,Leroy,Heimbach,,Delavan-Darien School District,2019-06-10T04:00:00.000Z,2019-08-30T04:00:00.000Z,"M,T,W,TH,F",,9:00 AM to 9:30 AM,,,,,,8,U,US,142503,,2019,Walworth
-92.03258071,45.88692471,122800,Spooner High School,Open,"801 Cty Hwy A Spooner, WI 54801",,Spooner,WI,54801,,,Doreen,Miller,,Spooner Area School District,2019-06-21T04:00:00.000Z,2019-06-21T04:00:00.000Z,F,,,12:00 PM to 12:30 PM,,4:30 PM to 5:00 PM,,,8,U,US,135525,,2019,Burnett
-88.48565116,43.10071181,122809,Oconomowoc Memorial Hospital,Open,"791 Summit Ave Oconomowoc, WI 53066",,Oconomowoc,WI,53066,,,Andrew,Bergman,,ProHealth Care,2019-06-10T04:00:00.000Z,2019-08-30T04:00:00.000Z,"M,T,W,TH,F",,7:00 AM to 10:59 AM,11:00 AM to 6:30 PM,,,,,8,U,US,137368,,2019,Waukesha
-88.62371663,43.44632667,130273,Horicon Junior/Senior High,Open,"840 Gray Street Horicon, WI 53032",,Horicon,WI,53032,,,Kim,Waech,,Horicon School District,2019-08-19T04:00:00.000Z,2019-08-29T04:00:00.000Z,"M,T,W,TH",,7:30 AM to 8:30 AM,11:30 AM to 12:30 PM,,,,,9,U,US,130700,,2019,Dodge
-89.64264311,42.61072548,130276,YMCA of Green County,Open,"1307 2nd Street Monroe, WI 53566",,Monroe,WI,53566,6083252003,,Teri,Munz,,Monroe School District,2019-06-17T04:00:00.000Z,2019-07-26T04:00:00.000Z,"M,T,W,TH,F",,8:40 AM to 9:00 AM,,,,,,9,U,US,145443,,2019,Green
-89.62745876,42.59862966,130277,Abraham Lincoln Lincoln,Open,"2625 14th street Monroe, WI 53566",,Monroe,WI,53566,6083287172,,Jennifer,Neuenschwander,,Monroe School District,2019-06-17T04:00:00.000Z,2019-07-26T04:00:00.000Z,"M,T,W,TH,F",,8:00 AM to 8:30 AM,10:30 AM to 11:30 AM,,,,,9,U,US,141929,,2019,Green
-89.6398637,42.59965542,130278,Charter School,Open,"1220 16th Avenue Monroe, WI 53566",,Monroe,WI,53566,6085585904,,Eric,Ekum,,Monroe School District,2019-06-17T04:00:00.000Z,2019-07-26T04:00:00.000Z,"M,T,W,TH,F",,7:45 AM to 8:15 AM,,,,,,9,U,US,142486,,2019,Green
-88.2172125,43.00978053,130312,Hadfield Elementary,Open,"733 Linden St Waukesha, WI 53186",,Waukesha,WI,53186,2629701510,,Jessica,Escobedo Benitez,,Waukesha School District,2019-06-17T04:00:00.000Z,2019-07-19T04:00:00.000Z,"M,T,W,TH,F",,7:40 AM to 8:20 AM,12:00 PM to 12:30 PM,,,,,9,U,US,134505,,2019,Waukesha
-88.04862821,44.48415724,132763,Cormier Early Learning Center,Open,"2280 South Broadway Green Bay, WI 54304",,Green Bay,WI,54304,,,Elizabeth,Farah,,Ashwaubenon School District,2019-07-01T04:00:00.000Z,2019-07-11T04:00:00.000Z,"M,T,W,TH,F",,,10:25 AM to 10:45 AM,,,,,10,N,US,149949,,2019,Brown
-91.22643121,44.29648202,132768,Riverside Park,Open,"325 Park Road Blair, WI 54616",,Blair,WI,54616,,,Kimberly,Tenneson,,Blair-Taylor School District,2019-07-08T04:00:00.000Z,2019-07-26T04:00:00.000Z,"M,T,W,TH,F",,,10:30 AM to 12:00 PM,,,,,10,N,US,150539,,2019,Trempealeau
-87.94802005,44.49362319,143063,Edison Middle,Open,"442 Alpine Drive Green Bay, WI 54302",,Green Bay,WI,54302,9203912407,,Food Service Worker,,,Green Bay School District,2019-08-05T04:00:00.000Z,2019-08-09T04:00:00.000Z,"M,T,W,TH,F",,,11:25 AM to 12:05 PM,,,,,12,N,US,99613,,2019,Brown
-88.83200047,42.92559,143064,St. Pauls School,Open,"309 Bluff St Fort Atkinson, WI 53538",,Fort Atkinson,WI,53538,9205635349,,Eric,Weber,,Fort Atkinson Sch District,2019-07-22T04:00:00.000Z,2019-07-26T04:00:00.000Z,"M,T,W,TH,F",,,11:45 AM to 12:15 PM,9:30 AM to 10:00 AM,,,,12,N,US,152400,,2019,Jefferson
-88.75266549,42.82667429,141294,Whitewater High School,Open,"534 S. Elizabeth Street Whitewater, WI 53190",,Whitewater,WI,53190,2624728160,,Lisa,Griep,,Whitewater Unified School District,2019-06-17T04:00:00.000Z,2019-07-12T04:00:00.000Z,"M,T,W,TH,F",,,11:30 AM to 12:30 PM,,,,,11,U,US,7391,,2019,Walworth
-88.20623091,43.02895522,141302,Banting Elementary,Open,"2019 Butler Drive Waukesha, WI 53186",,Waukesha,WI,53186,2629701210,,Dawn,Pallin,,Waukesha School District,2019-06-17T04:00:00.000Z,2019-07-19T04:00:00.000Z,"M,T,W,TH,F",,7:40 AM to 8:20 AM,12:00 PM to 12:30 PM,,,,,11,U,US,34021,,2019,Waukesha
-88.26427078,43.01674953,141303,North High School,Open,"2222 Michigan Ave Waukesha, WI 53188",,Waukesha,WI,53188,2629703510,,Michele,Andersen,,Waukesha School District,2019-06-17T04:00:00.000Z,2019-07-19T04:00:00.000Z,"M,T,W,TH,F",,7:00 AM to 7:30 AM,12:40 PM to 1:00 PM,,,,,11,U,US,135125,,2019,Waukesha
-88.20347951,43.03007091,141304,Horning Middle School,Open,"2000 Wolf Rd Waukesha, WI 53186",,Waukesha,WI,53186,2629703310,,Linda,Mandoli,,Waukesha School District,2019-06-17T04:00:00.000Z,2019-07-19T04:00:00.000Z,"M,T,W,TH,F",,7:30 AM to 8:05 AM,11:40 AM to 12:30 PM,,,,,11,U,US,134597,,2019,Waukesha
-88.21178045,42.98986869,141305,Heyer Elementary,Open,"1209 Heyer Drive Waukesha, WI 53186",,Waukesha,WI,53186,2629701710,,Pamela,Gresser,,Waukesha School District,2019-06-17T04:00:00.000Z,2019-07-19T04:00:00.000Z,"M,T,W,TH,F",,7:40 AM to 8:20 AM,12:00 PM to 12:30 PM,,,,,11,U,US,86456,,2019,Waukesha
-88.24317286,43.01125153,141306,Waukesha Memorial Hospital,Open,"725 American Avenue Waukesha, WI 53188",,Waukesha,WI,53188,2629281000,,Andrew,Bergman,,ProHealth Care,2019-06-11T04:00:00.000Z,2019-08-30T04:00:00.000Z,"S,M,T,W,TH,F,SA",,7:00 AM to 10:59 AM,11:00 AM to 7:30 PM,,,,,11,U,US,116781,,2019,Waukesha
-88.7551009,44.63425348,141307,Clintonville High School,Open,"64 West Green Tree Road Clintonville, WI 54929",,Clintonville,WI,54929,7158237215,,Tina,Rindt,,Clintonville School District,2019-06-17T04:00:00.000Z,2019-07-25T04:00:00.000Z,"M,T,W,TH",,7:45 AM to 8:30 AM,11:05 AM to 12:00 PM,,,,,11,U,US,3843,,2019,Waupaca
-88.75693341,44.63352045,141308,Dellwood Learning Center,Open,"238 North Harriet Street Clintonville, WI 54929",,Clintonville,WI,54929,7158237215,,Shelly,Krueger,,Clintonville School District,2019-06-17T04:00:00.000Z,2019-07-25T04:00:00.000Z,"M,T,W,TH",,7:45 AM to 8:30 AM,11:05 AM to 11:40 AM,,,,,11,U,US,4088,,2019,Waupaca
-88.88909401,44.67795232,141309,Marion Elementray School,Open,"1001 North Main Street Marion, WI 54950",,Marion,WI,54950,7157542511,,Sandy,Bowers,,Marion School District,2019-06-10T04:00:00.000Z,2019-06-28T04:00:00.000Z,"M,T,W,TH,F",,8:00 AM to 8:20 AM,11:30 AM to 12:00 PM,,,,,11,U,US,5536,,2019,Waupaca
-88.73962108,44.38972758,141311,New London Public Library,Open,"406 S. Pearl St New London, WI 54961",,New London,WI,54961,9209828519,,Ann,Hunt,,New London School District,2019-07-08T04:00:00.000Z,2019-08-02T04:00:00.000Z,"M,T,W,TH,F",,,11:30 AM to 12:30 PM,,,,,11,U,US,5851,,2019,Waupaca
-88.92726736,44.32313501,141314,Weyauwega-Middle School,Open,"410 Ann Street Weyauwega, WI 54983",,Weyauwega,WI,54983,9208678921,,Cindy,Billington,,Weyauwega-Fremont School District,2019-06-10T04:00:00.000Z,2019-08-16T04:00:00.000Z,"M,T,W,TH,F",,7:00 AM to 8:15 AM,11:30 AM to 12:30 PM,,,,,11,U,US,141449,,2019,Waupaca
-89.49384675,44.21042492,141315,Tri-County Area School District,Open,"409 South West Street Plainfield, WI 54966",,Plainfield,WI,54966,7153356366,,Tammie,Weis,,Tri-County Area School District,2019-07-08T04:00:00.000Z,2019-07-26T04:00:00.000Z,"M,T,W,TH,F",,7:45 AM to 8:30 AM,11:00 AM to 11:45 AM,,,,,11,U,US,7075,,2019,Waushara
-89.29748278,43.98966237,141316,Parkside Middle School,Open,"300 16th Avenue Wautoma, WI 54982",,Wautoma,WI,54982,9207874577,,Tami,Stansbury,,Wautoma Area School District,2019-06-05T04:00:00.000Z,2019-06-28T04:00:00.000Z,"M,T,W,TH,F",,7:45 AM to 8:30 AM,11:30 AM to 12:45 PM,,,,,11,U,US,6088,,2019,Waushara
-89.2975488,44.07044738,141317,Wautoma High School,Open,"514 S. Cambridge Wautoma, WI 54982",,Wautoma,WI,54982,9207877112,,Tami,Stansbury,,Wautoma Area School District,2019-06-04T04:00:00.000Z,2019-07-03T04:00:00.000Z,"M,T,W,TH,F",,,12:15 PM to 12:45 PM,,,,,11,U,US,130832,,2019,Waushara
-88.44683901,44.21068848,141318,Menasha High School,Open,"420 Seventh Street Menasha, WI 54952",,Menasha,WI,54952,9209671804,,Michelle,Keberlein,,Menasha School District,2019-06-12T04:00:00.000Z,2019-07-18T04:00:00.000Z,"M,T,W,TH,F",,7:00 AM to 8:00 AM,11:00 AM to 12:00 PM,,,,,11,U,US,71414,,2019,Winnebago
-88.42669103,44.21533752,141319,Clovis Grove Elementary,Open,"974 Ninth Street Menasha, WI 54952",,Menasha,WI,54952,9209671963,,Michelle,Keberlein,,Menasha School District,2019-06-12T04:00:00.000Z,2019-07-18T04:00:00.000Z,"M,T,W,TH",,7:40 AM to 8:00 AM,11:30 AM to 1:00 PM,,,,,11,U,US,71061,,2019,Winnebago
-88.49517729,44.17343794,141320,Tullar Elementary School,Open,"925 Tullar Rd Neenah, WI 54956",,Neenah,WI,54956,9202797464,,Dawn,Sakis,,Neenah Joint School District,2019-06-10T04:00:00.000Z,2019-07-18T04:00:00.000Z,"M,T,W,TH",,,11:30 AM to 11:55 AM,,,,,11,U,US,135698,,2019,Winnebago
-88.45801701,44.18477303,141321,Neenah Public Library,Open,"240 E Wisconsin Ave Neenah, WI 54956",,Neenah,WI,54956,9208866315,,Gretchen,Raab,,Neenah Joint School District,2019-06-10T04:00:00.000Z,2019-07-18T04:00:00.000Z,"M,T,W,TH",,,11:35 AM to 12:30 PM,,,,,11,U,US,135021,,2019,Winnebago
-88.47806315,44.17217125,141322,Hoover,Open,"950 Hunt Ave Neenah, WI 54956",,Neenah,WI,54956,9207516960,,Jen,Siebers,,Neenah Joint School District,2019-06-10T04:00:00.000Z,2019-07-18T04:00:00.000Z,"M,T,W,TH",,,11:30 AM to 11:55 AM,,,,,11,U,US,134584,,2019,Winnebago
-88.46345026,44.146422,141323,Lakeview Elementary,Open,"1645 S Commercial St Neenah, WI 54956",,Neenah,WI,54956,9207516965,,Tereena,Basler,,Neenah Joint School District,2019-06-10T04:00:00.000Z,2019-07-18T04:00:00.000Z,"M,T,W,TH",,,11:30 AM to 11:55 AM,,,,,11,U,US,134747,,2019,Winnebago
-88.46237165,44.17382734,141324,Wilson Elementary,Open,"920 Higgins Avenue Neenah, WI 54956",,Neenah,WI,54956,9207516995,,Michelle,Schaefer,,Neenah Joint School District,2019-06-10T04:00:00.000Z,2019-07-18T04:00:00.000Z,"M,T,W,TH",,,11:30 AM to 11:55 AM,,,,,11,U,US,135855,,2019,Winnebago
-88.45402933,44.19023249,141325,Roosevelt Elementary,Open,"215 E Forest Avenue Neenah, WI 54956",,Neenah,WI,54956,9207516970,,Ronnette,Clohessy,,Neenah Joint School District,2019-06-10T04:00:00.000Z,2019-07-18T04:00:00.000Z,"M,T,W,TH",,,11:30 AM to 11:55 AM,,,,,11,U,US,135366,,2019,Winnebago
-88.55121181,44.04500746,141326,Oshkosh North High School,Open,"1100 W. Smith Ave. Oshkosh, WI 54901",,Oshkosh,WI,54901,9204247000,,Traci,Allenberg-Snodgrass,,Oshkosh Area School District,2019-06-11T04:00:00.000Z,2019-07-24T04:00:00.000Z,"M,T,W,TH,F",,7:30 AM to 8:30 AM,11:30 AM to 1:00 PM,,,,,11,U,US,71508,,2019,Winnebago
-88.54457867,44.00844752,141327,Jefferson Elementary School,Open,"244 W. 11th Ave. Oshkosh, WI 54902",,Oshkosh,WI,54902,9204244936,,"Courtney, Gail","Schelke, Karau",,Oshkosh Area School District,2019-06-17T04:00:00.000Z,2019-07-11T04:00:00.000Z,"M,T,W,TH",,7:45 AM to 8:25 AM,11:15 AM to 12:00 PM,,,,,11,U,US,5021,,2019,Winnebago
-88.53933137,44.04222601,141328,Oaklawn Elementary School,Open,"116 Violia St. Oshkosh, WI 54901",,Oshkosh,WI,54901,9204244936,,"Paulette, Claire","Michler, Pennell",,Oshkosh Area School District,2019-06-17T04:00:00.000Z,2019-07-11T04:00:00.000Z,"M,T,W,TH",,7:45 AM to 8:25 AM,11:15 AM to 12:00 PM,,,,,11,U,US,5975,,2019,Winnebago
-88.53119083,44.02215449,141329,Radford Center,Open,"501 E Parkway Oshkosh, WI 54901",,Oshkosh,WI,54901,9202331414,,Lindsay,Clark,,Boys & Girls Club of Oshkosh Inc,2019-06-10T04:00:00.000Z,2019-08-23T04:00:00.000Z,"M,T,W,TH,F",,8:15 AM to 9:00 AM,11:00 AM to 12:30 PM,,,,,11,U,US,71570,,2019,Winnebago
-90.15799632,44.66758551,141330,Madison Elementary School,Open,"510 N. Palmetto Ave Marshfield, WI 54449",,Marshfield,WI,54449,7153848181,,Patti,Rotar,,Marshfield School District,2019-06-10T04:00:00.000Z,2019-06-14T04:00:00.000Z,"T,W,TH,F",,,11:50 AM to 12:30 PM,,,,,11,U,US,130728,,2019,Wood
-90.17049598,44.68074326,141331,Grant Elementary School,Open,"425 W Upham Street Marshfield, WI 54449",,Marshfield,WI,54449,7153878464,,Deb,Cravillion,,Marshfield School District,2019-06-17T04:00:00.000Z,2019-07-26T04:00:00.000Z,"M,T,W,TH,F",,,10:40 AM to 12:20 PM,,,,,11,U,US,81941,,2019,Wood
-90.15392801,44.66971748,141332,Marshfield High School,Open,"1401 E. Becker Marshfield, WI 54449",,Marshfield,WI,54449,7153878464,,Vicki,Plank,,Marshfield School District,2019-06-17T04:00:00.000Z,2019-07-26T04:00:00.000Z,"M,T,W,TH,F",,7:00 AM to 8:00 AM,11:30 AM to 12:30 PM,,,,,11,U,US,130735,,2019,Wood
-89.90415942,44.30986771,141333,Humke Elementary,Open,"500 S. Section Street Nekoosa, WI 54457",,Nekoosa,WI,54457,7158868035,,Matthew,Andres,,Nekoosa School District,2019-07-08T04:00:00.000Z,2019-08-02T04:00:00.000Z,"M,T,W,TH,F",,,10:30 AM to 12:00 PM,,,,,11,U,US,130702,,2019,Wood
-89.86030942,44.34724095,141334,Port Edwards School,Open,"801 Second Street Port Edwards, WI 54469",,Port Edwards,WI,54469,7158879000,,Lisa,Moen,,Port Edwards School District,2019-06-10T04:00:00.000Z,2019-06-28T04:00:00.000Z,"M,T,W,TH,F",,7:30 AM to 8:00 AM,11:15 AM to 11:45 AM,,,,,11,U,US,6207,,2019,Wood
-89.85711891,44.37860447,141335,Wisconsin Rapids Area Middle School,Open,"1921 27th Ave S Wisconsin Rapids, WI 54495",,Wisconsin Rapids,WI,54495,7154246740,,Cindy,O'Loughlin,,Wisconsin Rapids School District,2019-08-28T04:00:00.000Z,2019-08-28T04:00:00.000Z,W,,,11:30 AM to 12:30 PM,,,,,11,U,US,138111,,2019,Wood
-89.84459255,44.39252508,141336,Mead Park,Open,"311 17th Ave S Wisconsin Rapids, WI 54495",,Wisconsin Rapids,WI,54495,7154246703,,Kay,Friday,,Wisconsin Rapids School District,2019-06-12T04:00:00.000Z,2019-08-23T04:00:00.000Z,"M,T,W,TH,F",,,11:30 AM to 12:30 PM,,,,,11,U,US,137142,,2019,Wood
-89.82127671,44.38830179,141339,McMillan Memorial Library,Open,"490 E Grand Ave Wisconsin Rapids, WI 54494",,Wisconsin Rapids,WI,54494,7154225136,,Jennie,Bahnaman,,Boys & Girls Club - Wisconsin Rapids,2019-06-25T04:00:00.000Z,2019-07-30T04:00:00.000Z,T,,,11:30 AM to 12:45 PM,,,,,11,U,US,5617,,2019,Wood
-88.83356017,44.97955235,141340,Menominee Tribal School,Open,"W6817 Church St. Neopit, WI 54150",,Neopit,WI,54150,7157562354,,Lori,Corn,,Menominee Indian Tribe of Wisconsin,2019-06-17T04:00:00.000Z,2019-07-19T04:00:00.000Z,"M,T,W,TH,F",,8:15 AM to 9:00 AM,11:25 AM to 12:30 PM,,,,,11,U,US,143917,,2019,Menominee
-89.81751382,43.93734164,140378,Adams Assembly of God - VBS,Open,"2202 State Road 13 Adams, WI 53910",,Adams,WI,53910,6083392613,,Ericka,,,Adams-Friendship School District,2019-07-22T04:00:00.000Z,2019-07-25T04:00:00.000Z,"M,T,W,TH",,,11:30 AM to 11:50 AM,9:00 AM to 9:15 AM,,,,11,U,US,114020,,2019,Adams
-89.82498943,43.97410368,140381,Adams County 4-H Horse & Pont Event,Open,"W. Lake Street Friendship, WI 53934",,Friendship,WI,53934,6085477830,,Renata,Prellwitz,,Adams-Friendship School District,2019-08-03T04:00:00.000Z,2019-08-10T04:00:00.000Z,SA,,8:30 AM to 9:30 AM,,,,,,11,U,US,145681,,2019,Adams
-89.81781963,43.96359533,140387,Mid-State Technical College,Open,"401 N. Main Street Adams, WI 53910",,Adams,WI,53910,7152041644,,CJ,Tangedal,,Adams-Friendship School District,2019-06-17T04:00:00.000Z,2019-06-28T04:00:00.000Z,"M,T,W,TH,F",,8:30 AM to 9:00 AM,12:00 PM to 12:30 PM,,,,,11,U,US,146910,,2019,Adams
-89.81620487,43.95884573,140392,Trinity Congregational Church/VBS,Open,"148 N. Grant Street Adams, WI 53910",,Adams,WI,53910,6083396717,,Ellen,,,Adams-Friendship School District,2019-08-06T04:00:00.000Z,2019-08-08T04:00:00.000Z,"T,W,TH",,,,,3:15 PM to 3:30 PM,,,11,U,US,147609,,2019,Adams
-89.701929,43.8870715,140395,Grand Marsh Elementary School,Open,"620 County Trunk E Grand Marsh, WI 53936",,Grand Marsh,WI,53936,6083396556,,Allie,Parks,,Adams-Friendship School District,2019-07-01T04:00:00.000Z,2019-08-23T04:00:00.000Z,"M,T,W,TH,F",,,10:40 AM to 11:00 AM,,,,,11,U,US,4587,,2019,Adams
-90.88601704,46.58886396,140398,Bretting Community Center,Open,"400 4th Avenue West Ashland, WI 54806",,Ashland,WI,54806,7156827059,,Sarah,Hudson,,Ashland School District,2019-06-17T04:00:00.000Z,2019-07-19T04:00:00.000Z,"M,T,W,TH,F",,,11:30 AM to 12:00 PM,,,,,11,U,US,100151,,2019,Ashland
-90.87782862,46.56699948,140399,Lake Superior Intermediate School,Open,"1101 BINSFIELD RD Ashland, WI 54806",,Ashland,WI,54806,7156827080,,Amanda,Tutor,,Ashland School District,2019-06-17T04:00:00.000Z,2019-07-19T04:00:00.000Z,"M,T,W,TH,F",,7:30 AM to 8:00 AM,12:00 PM to 12:45 PM,,,,,11,U,US,140007,,2019,Ashland
-90.65915414,46.5974589,140400,Bad River Community Center,Open,"301 Elm Street (Site 1) Odanah, WI 54861",Site 1,Odanah,WI,54861,7156827159,,,,,Bad River Band of Lake Superior Tribe,2019-06-10T04:00:00.000Z,2019-08-30T04:00:00.000Z,"M,T,W,TH,F",,7:30 AM to 8:30 AM,11:30 AM to 1:00 PM,,,,,11,U,US,14455,,2019,Ashland
-90.88237664,46.59306764,140402,Our Lady of the Lake Catholic School,Open,"215 Lake Shore Dr East Ashland, WI 54806",,Ashland,WI,54806,7156827622,,Shelley,Knabe,,Our Lady Lake Catholic School,2019-06-10T04:00:00.000Z,2019-08-23T04:00:00.000Z,"M,T,W,TH,F",,,11:00 AM to 11:45 AM,,2:00 PM to 2:15 PM,,,11,U,US,6036,,2019,Ashland
-92.03349183,45.41686549,140405,Almena Elementary School,Open,"230 Lulu Avenue Almena, WI 54805",,Almena,WI,54805,7153573263,,Nancy,Belleefeuille,,Barron Area School District,2019-06-11T04:00:00.000Z,2019-06-28T04:00:00.000Z,"M,T,W,TH,F",,8:00 AM to 8:30 AM,11:30 AM to 12:00 PM,,,,,11,U,US,2996,,2019,Barron
-91.73550557,45.40206149,140412,Cameron High school,Open,"750 S 1st ST Cameron, WI 54822",,Cameron,WI,54822,7154584560,,Susan,Wanink,,Cameron School District,2019-08-28T04:00:00.000Z,2019-08-30T04:00:00.000Z,"W,TH,F",,,11:40 AM to 1:03 PM,,,,,11,U,US,138919,,2019,Barron
-92.0314918,45.52828102,140416,Cumberland Middle School,Open,"980 8th Ave Cumberland, WI 54829",,Cumberland,WI,54829,7158225123,,Jim,Richie,,Cumberland School District,2019-07-15T04:00:00.000Z,2019-08-02T04:00:00.000Z,"M,T,W,TH,F",,8:00 AM to 8:45 AM,11:30 AM to 12:30 PM,,,,,11,U,US,71088,,2019,Barron
-92.0314918,45.52828102,140417,Cumberland High School,Open,"980 8th Avenue Cumberland, WI 54829",,Cumberland,WI,54829,7158225122,,Jim,Richie,,Cumberland School District,2019-06-10T04:00:00.000Z,2019-06-28T04:00:00.000Z,"M,T,W,TH,F",,7:45 AM to 8:30 AM,11:45 AM to 12:30 PM,,,,,11,U,US,4008,,2019,Barron
-92.02178279,45.5381053,140418,Cumberland Elementary School,Open,"1530 2nd Ave Cumberland, WI 54829",,Cumberland,WI,54829,7158225121,,Jim,Richie,,Cumberland School District,2019-06-10T04:00:00.000Z,2019-06-28T04:00:00.000Z,"M,T,W,TH,F",,8:00 AM to 9:00 AM,11:30 AM to 12:30 PM,,,,,11,U,US,71087,,2019,Barron
-91.98441689,45.23221248,140419,Prairie Farm School District,Open,"630 River Ave. S. Prairie Farm, WI 54762",,Prairie Farm,WI,54762,7154551861,,Jodi,Lambert,,Prairie Farm School District,2019-06-11T04:00:00.000Z,2019-06-28T04:00:00.000Z,"M,T,W,TH,F",,7:45 AM to 8:30 AM,11:45 AM to 12:30 PM,,,,,11,U,US,135274,,2019,Barron
-92.02153822,45.53404225,140425,Cumberland Public Library,Open,"1305 2nd Ave Cumberland, WI 54829",,Cumberland,WI,54829,7158222767,,Rob,Ankarlo,,Boys & Girls Clubs of Barron County,2019-06-10T04:00:00.000Z,2019-08-23T04:00:00.000Z,"M,T,W,TH,F",,9:30 AM to 1:00 PM,,,3:00 PM to 5:00 PM,,,11,U,US,4009,,2019,Barron
-91.73309006,45.50436955,140429,Rice Lake Public Library,Open,"2 E. Marshall Street Rice Lake, WI 54868",,Rice Lake,WI,54868,7152344861,,Claire,Parrish,,Boys & Girls Clubs of Barron County,2019-06-10T04:00:00.000Z,2019-08-23T04:00:00.000Z,"M,F",,,12:00 PM to 1:00 PM,,,,,11,U,US,130784,,2019,Barron
-90.89888914,46.67708446,140434,Washburn Elementary School,Open,"411 W 8th Street Washburn, WI 54891",,Washburn,WI,54891,7153736199,,Al,Krause,,Washburn School District,2019-06-17T04:00:00.000Z,2019-07-19T04:00:00.000Z,"M,T,W,TH,F",,7:30 AM to 8:20 AM,10:55 AM to 12:00 PM,,,,,11,U,US,39685,,2019,Bayfield
-90.79452883,46.88116751,140435,Hillside Housing Park,Open,"37105 Hillside Drive Bayfield, WI 54814",,Bayfield,WI,54814,7157793740,,Cole,Peacock,,Red Cliff Band of Lake Superior Chippewa,2019-06-10T04:00:00.000Z,2019-08-30T04:00:00.000Z,"M,T,W,TH,F",,,11:00 AM to 11:30 AM,,2:00 PM to 2:30 PM,,,11,U,US,4816,,2019,Bayfield
-90.79093889,46.85089583,140436,Red Cliff Food Distribution,Open,"88385 Pike Rd Hwy 13 Bayfield, WI 54814",,Bayfield,WI,54814,7157793740,,Barb,Schmitz,,Red Cliff Band of Lake Superior Chippewa,2019-06-10T04:00:00.000Z,2019-08-30T04:00:00.000Z,"M,T,W,TH,F",,,11:00 AM to 12:00 PM,,2:00 PM to 3:00 PM,,,11,U,US,6302,,2019,Bayfield
-90.78494241,46.87108281,140437,New Housing Park,Open,"New Housing Rd Bayfield, WI 54814",,Bayfield,WI,54814,7157793722,,Michael,Bonney,,Red Cliff Band of Lake Superior Chippewa,2019-06-10T04:00:00.000Z,2019-08-30T04:00:00.000Z,"M,T,W,TH,F",,,11:00 AM to 11:30 AM,,2:00 PM to 2:30 PM,,,11,U,US,71454,,2019,Bayfield
-90.80293104,46.87352217,140439,Birch Bark Trail,Open,"Birch Bark Trail Bayfield, WI 54814",,Bayfield,WI,54814,7157793740,,Darren,Soulier,,Red Cliff Band of Lake Superior Chippewa,2019-06-10T04:00:00.000Z,2019-08-30T04:00:00.000Z,"M,T,W,TH,F",,,11:00 AM to 11:30 AM,,2:00 PM to 2:30 PM,,,11,U,US,3344,,2019,Bayfield
-88.04515403,44.48700205,140440,Fort Howard Park-Ashwaubenon,Open,"2172 South Broadway Green Bay, WI 54304",,Green Bay,WI,54304,9204922331,,Rex,Mehberg,,Ashwaubenon School District,2019-06-12T04:00:00.000Z,2019-08-13T04:00:00.000Z,"M,T,W,TH,F",,,11:25 AM to 11:45 AM,,,,,11,U,US,103641,,2019,Brown
-88.03114132,44.5045186,140441,8th Street Park,Open,"508 Eighth Street Green Bay, WI 54304",,Green Bay,WI,54304,9203912565,,Food Service Worker,,,Green Bay School District,2019-06-12T04:00:00.000Z,2019-08-16T04:00:00.000Z,"M,T,W,TH,F",,,11:10 AM to 11:25 AM,,,,,11,U,US,145663,,2019,Brown
-87.99255055,44.52311667,140443,Bay View Park,Open,"1137 Vanderbraak St Green Bay, WI 54302",,Green Bay,WI,54302,9203912565,,Food Service Worker,,,Green Bay School District,2019-06-12T04:00:00.000Z,2019-08-16T04:00:00.000Z,"M,T,W,TH,F",,,11:30 AM to 11:50 AM,,,,,11,U,US,145777,,2019,Brown
-87.99430911,44.49525517,140447,East River Park,Open,"800 John St Green Bay, WI 54302",,Green Bay,WI,54302,9203912565,,Food Service Worker,,,Green Bay School District,2019-06-12T04:00:00.000Z,2019-08-16T04:00:00.000Z,"M,T,W,TH,F",,,12:05 PM to 12:25 PM,,,,,11,U,US,146230,,2019,Brown
-87.99253137,44.51808633,140448,Eastman Park,Open,"1240 Eastman Ave. Green Bay, WI 54302",,Green Bay,WI,54302,9203912565,,Food Service Worker,,,Green Bay School District,2019-06-12T04:00:00.000Z,2019-08-16T04:00:00.000Z,"M,T,W,TH,F",,,11:35 AM to 11:45 AM,,,,,11,U,US,146239,,2019,Brown
-87.98320869,44.49031358,140449,Eisenhower Park,Open,"1762 Amy St Green Bay, WI 54302",,Green Bay,WI,54302,9203912565,,Food Service Worker,,,Green Bay School District,2019-06-12T04:00:00.000Z,2019-08-16T04:00:00.000Z,"M,T,W,TH,F",,,11:15 AM to 11:40 AM,,,,,11,U,US,146260,,2019,Brown
-87.98434543,44.51609888,140450,Farlin Park,Open,"1510 Harold St. Green Bay, WI 54302",,Green Bay,WI,54302,9203912565,,Food Service Worker,,,Green Bay School District,2019-06-12T04:00:00.000Z,2019-08-16T04:00:00.000Z,"M,T,W,TH,F",,,12:20 PM to 12:50 PM,,,,,11,U,US,146320,,2019,Brown
-88.02164166,44.51994969,140454,Fort Howard Park,Open,"520 Dousman St. Green Bay, WI 54303",,Green Bay,WI,54303,9203912565,,Food Service Worker,,,Green Bay School District,2019-06-12T04:00:00.000Z,2019-08-16T04:00:00.000Z,"M,T,W,TH,F",,,11:00 AM to 11:20 AM,,,,,11,U,US,146362,,2019,Brown
-87.99600644,44.50543173,140455,Joannes Park,Open,"215 S. Baird St. Green Bay, WI 54301",,Green Bay,WI,54301,9203912565,,Food Service Worker,,,Green Bay School District,2019-06-12T04:00:00.000Z,2019-08-16T04:00:00.000Z,"M,T,W,TH,F",,,11:55 AM to 12:20 PM,,,,,11,U,US,146631,,2019,Brown
-88.05068458,44.53520291,140458,Perkins Park,Open,"600 N Fisk St Green Bay, WI 54303",,Green Bay,WI,54303,9203912565,,Food Service Worker,,,Green Bay School District,2019-06-12T04:00:00.000Z,2019-08-16T04:00:00.000Z,"M,T,W,TH,F",,,11:35 AM to 12:00 PM,,,,,11,U,US,147164,,2019,Brown
-88.02861806,44.51499002,140459,Seymour Park,Open,"330 S. Oakland Ave Green Bay, WI 54303",,Green Bay,WI,54303,9203912565,,Food Service Worker,,,Green Bay School District,2019-06-12T04:00:00.000Z,2019-08-16T04:00:00.000Z,"M,T,W,TH,F",,,12:15 PM to 12:35 PM,,,,,11,U,US,147362,,2019,Brown
-87.98576109,44.49664977,140461,St Philip Park,Open,"505 Irene St Green Bay, WI 54302",,Green Bay,WI,54302,9203912565,,Food Service Worker,,,Green Bay School District,2019-06-12T04:00:00.000Z,2019-08-16T04:00:00.000Z,"M,T,W,TH,F",,,11:35 AM to 11:50 AM,,,,,11,U,US,147453,,2019,Brown
-87.97500241,44.48333464,140463,VT Pride Park,Open,"2203 Imperial Ln Green Bay, WI 54302",,Green Bay,WI,54302,9203912565,,Food Service Worker,,,Green Bay School District,2019-06-12T04:00:00.000Z,2019-08-16T04:00:00.000Z,"M,T,W,TH,F",,,11:00 AM to 11:20 AM,,,,,11,U,US,147695,,2019,Brown
-88.00471282,44.51396389,140464,Whitney Park,Open,"800 Main St Green Bay, WI 54301",,Green Bay,WI,54301,9203912565,,Food Service Worker,,,Green Bay School District,2019-06-12T04:00:00.000Z,2019-08-16T04:00:00.000Z,"M,T,W,TH,F",,,11:15 AM to 11:30 AM,,,,,11,U,US,147790,,2019,Brown
-88.07012794,44.52511661,140465,Fireman's Park,Open,"1701 W Mason St Green Bay, WI 54304",,Green Bay,WI,54304,9204483165,,Food Service Worker,,,Green Bay School District,2019-06-12T04:00:00.000Z,2019-08-16T04:00:00.000Z,"M,T,W,TH,F",,,11:20 AM to 11:35 AM,,,,,11,U,US,146342,,2019,Brown
-87.9664303,44.50233352,140467,Preble High School,Open,"2222 Deckner Avenue Green Bay, WI 54302",,Green Bay,WI,54302,9203912407,,Food Service Worker,,,Green Bay School District,2019-06-17T04:00:00.000Z,2019-08-16T04:00:00.000Z,"M,T,W,TH,F",,8:05 AM to 9:05 AM,11:40 AM to 12:35 PM,,,,,11,U,US,112632,,2019,Brown
-88.03353875,44.52081773,140471,West High,Open,"966 Shawano Ave Green Bay, WI 54303",,Green Bay,WI,54303,9204922733,,Food Service Worker,,,Green Bay School District,2019-06-17T04:00:00.000Z,2019-08-16T04:00:00.000Z,"M,T,W,TH,F",,7:25 AM to 9:50 AM,11:25 AM to 12:20 PM,,,,,11,U,US,147748,,2019,Brown
-87.99383247,44.51251366,140472,Nicolet School,Open,"1309 Elm Street Green Bay, WI 54302",,Green Bay,WI,54302,9204482142,,Food Service Worker,,,Green Bay School District,2019-06-17T04:00:00.000Z,2019-07-19T04:00:00.000Z,"M,T,W,TH,F",,8:20 AM to 9:05 AM,11:35 AM to 12:35 PM,,,,,11,U,US,45881,,2019,Brown
-88.05410748,44.53030189,140473,Chappell School,Open,"205 N. Fisk Green Bay, WI 54303",,Green Bay,WI,54303,9204922630,,Food Service Worker,,,Green Bay School District,2019-06-17T04:00:00.000Z,2019-07-19T04:00:00.000Z,"M,T,W,TH,F",,8:05 AM to 8:55 AM,11:10 AM to 12:05 PM,,,,,11,U,US,146002,,2019,Brown
-88.03146655,44.51061927,140474,Tank Elementary,Open,"814 S Oakland Ave Green Bay, WI 54304",,Green Bay,WI,54304,9203912407,,Food Service Worker,,,Green Bay School District,2019-08-22T04:00:00.000Z,2019-08-23T04:00:00.000Z,"TH,F",,,11:55 AM to 12:35 PM,,,,,11,U,US,150660,,2019,Brown
-87.9319425,44.46277272,140475,McAuliffe School,Open,"2071 Emerald Dr Green Bay, WI 54311",,Green Bay,WI,54311,9203912436,,Food Service Worker,,,Green Bay School District,2019-06-17T04:00:00.000Z,2019-07-19T04:00:00.000Z,"M,T,W,TH,F",,8:25 AM to 9:05 AM,11:55 AM to 12:35 PM,,,,,11,U,US,146860,,2019,Brown
-87.99398068,44.51326,140476,Nicolet Park,Open,"600 N. Irwin Ave Green Bay, WI 54302",,Green Bay,WI,54302,9203912407,,Food Service Worker,,,Green Bay School District,2019-06-12T04:00:00.000Z,2019-08-16T04:00:00.000Z,"M,T,W,TH,F",,,12:45 PM to 1:05 PM,,,,,11,U,US,147035,,2019,Brown
-88.04336162,44.50703766,140477,Southwest Library,Open,"974 9th St Green Bay, WI 54304",,Green Bay,WI,54304,9203912407,,Food Service Worker,,,Green Bay School District,2019-06-12T04:00:00.000Z,2019-08-16T04:00:00.000Z,"M,T,W,TH,F",,,10:55 AM to 11:15 AM,,,,,11,U,US,147431,,2019,Brown
-87.99715518,44.50395048,140479,Washington Middle School,Open,"314 S. Baird St Green Bay, WI 54301",,Green Bay,WI,54301,9203912407,,Food Service Worker,,,Green Bay School District,2019-08-12T04:00:00.000Z,2019-08-13T04:00:00.000Z,"M,T",,7:55 AM to 8:35 AM,11:55 AM to 12:35 PM,,,,,11,U,US,147717,,2019,Brown
-88.11956686,44.52748241,140481,Ted Fritsch Park,Open,"700 LaCount Road Green Bay, WI 54313",,Green Bay,WI,54313,9203912407,,Food Service Worker,,,Green Bay School District,2019-06-12T04:00:00.000Z,2019-08-16T04:00:00.000Z,"M,T,W,TH,F",,,11:35 AM to 11:50 AM,,,,,11,U,US,147535,,2019,Brown
-88.09926296,44.519202,140483,Southwest High,Open,"1331 Packerland Dr Green Bay, WI 54304",,Green Bay,WI,54304,9203912407,,Food Service Worker,,,Green Bay School District,2019-06-17T04:00:00.000Z,2019-08-16T04:00:00.000Z,"M,T,W,TH,F",,8:10 AM to 9:05 AM,11:25 AM to 12:35 PM,,,,,11,U,US,147430,,2019,Brown
-88.03943051,44.53742064,140488,Mather Heights Park,Open,"1280 Richardson Green Bay, WI 54303",,Green Bay,WI,54303,9203912407,,Food Service Worker,,,Green Bay School District,2019-06-12T04:00:00.000Z,2019-08-16T04:00:00.000Z,"M,T,W,TH,F",,,11:20 AM to 11:40 AM,,,,,11,U,US,146856,,2019,Brown
-87.94802005,44.49362319,140492,Edison Middle School,Open,"442 Alpine Drive Green Bay, WI 54302",,Green Bay,WI,54302,9203912450,,Food Service Worker,,,Green Bay School District,2019-08-13T04:00:00.000Z,2019-08-15T04:00:00.000Z,"T,W,TH",,8:00 AM to 8:30 AM,11:55 AM to 12:35 PM,,,,,11,U,US,146256,,2019,Brown
-87.98249846,44.49012636,140493,Eisenhower School,Open,"1770 Amy St Green Bay, WI 54302",,Green Bay,WI,54302,9203912420,,Food Service Worker,,,Green Bay School District,2019-06-17T04:00:00.000Z,2019-07-19T04:00:00.000Z,"M,T,W,TH,F",,8:10 AM to 8:50 AM,11:25 AM to 12:05 PM,,,,,11,U,US,146261,,2019,Brown
-88.02164166,44.51994969,140494,Fort Howard School,Open,"520 Dousman St Green Bay, WI 54303",,Green Bay,WI,54303,9204482105,,Food Service Worker,,,Green Bay School District,2019-06-17T04:00:00.000Z,2019-07-19T04:00:00.000Z,"M,T,W,TH,F",,7:40 AM to 8:20 AM,10:55 AM to 11:35 AM,,,,,11,U,US,146363,,2019,Brown
-88.11607096,44.51549378,140495,King Elementary School,Open,"1601 Dancing Dunes Drive Green Bay, WI 54313",,Green Bay,WI,54313,9204922771,,Food Service Worker,,,Green Bay School District,2019-06-17T04:00:00.000Z,2019-07-19T04:00:00.000Z,"M,T,W,TH,F",,8:10 AM to 8:50 AM,11:25 AM to 12:05 PM,,,,,11,U,US,146686,,2019,Brown
-88.02239185,44.48338382,140496,Webster Elementary,Open,"2101 S Webster Ave Green Bay, WI 54301",,Green Bay,WI,54301,9204482143,,Food Service Worker,,,Green Bay School District,2019-06-17T04:00:00.000Z,2019-07-19T04:00:00.000Z,"M,T,W,TH,F",,8:10 AM to 8:50 AM,11:25 AM to 12:05 PM,,,,,11,U,US,147731,,2019,Brown
-87.99428923,44.4887531,140497,Head Start Learning Center,Open,"1150 Bellevue St Green Bay, WI 54302",,Green Bay,WI,54302,9204482226,,Food Service Worker,,,Green Bay School District,2019-08-15T04:00:00.000Z,2019-08-15T04:00:00.000Z,TH,,9:25 AM to 11:30 AM,11:35 AM to 6:05 PM,,,,,11,U,US,146508,,2019,Brown
-88.1094475,44.51586272,140501,Lombardi Middle School,Open,"1520 South Point Road Green Bay, WI 54313",,Green Bay,WI,54313,9204922625,,Food Service Worker,,,Green Bay School District,2019-06-12T04:00:00.000Z,2019-07-05T04:00:00.000Z,"M,T,W,TH,F",,,11:45 AM to 12:00 PM,,,,,11,U,US,146774,,2019,Brown
-87.95804253,44.47898457,140503,Wilder Park,Open,"1217 Edgewood Dr Green Bay, WI 54311",,Green Bay,WI,54311,9203912565,,Food Service Worker,,,Green Bay School District,2019-06-12T04:00:00.000Z,2019-08-16T04:00:00.000Z,"M,T,W,TH,F",,,11:00 AM to 11:15 AM,,,,,11,U,US,147793,,2019,Brown
-87.94802005,44.49362319,140504,Edison Park,Open,"442 Alpine Dr. green Bay, WI 54311",,green Bay,WI,54311,9203912565,,Food Service Worker,,,Green Bay School District,2019-06-12T04:00:00.000Z,2019-08-16T04:00:00.000Z,"M,T,W,TH,F",,,11:10 AM to 11:25 AM,,,,,11,U,US,146257,,2019,Brown
-87.98001598,44.53087916,140505,Bay Beach,Open,"1313 Bay Beach Rd Green Bay, WI 54311",,Green Bay,WI,54311,9203912565,,Food Service Worker,,,Green Bay School District,2019-08-13T04:00:00.000Z,2019-08-13T04:00:00.000Z,T,,,11:45 AM to 12:45 PM,,,,,11,U,US,145776,,2019,Brown
-88.05841094,44.54589444,140507,Deer Run Park,Open,"1757 Barlament Drive Green bay, WI 54313",,Green bay,WI,54313,9206627723,,Laura,Rowell,,Howard-Suamico School District,2019-06-10T04:00:00.000Z,2019-08-23T04:00:00.000Z,"M,T,W,TH,F",,,12:57 PM to 1:10 PM,,,,,11,U,US,130668,,2019,Brown
-88.07324952,44.559279,140508,Howard Elementary School,Open,"631 W. Idlewild Court Green Bay, WI 54303",,Green Bay,WI,54303,9206627723,,Laura,Rowell,,Howard-Suamico School District,2019-06-10T04:00:00.000Z,2019-07-19T04:00:00.000Z,"M,T,W,TH,F",,8:30 AM to 8:40 AM,11:10 AM to 11:25 AM,,,,,11,U,US,130701,,2019,Brown
-88.06133904,44.55429521,140509,Lehner Park,Open,"1830 Rosewood St Green Bay, WI 54303",,Green Bay,WI,54303,9206620772,,Laura,Rowell,,Howard-Suamico School District,2019-06-10T04:00:00.000Z,2019-08-23T04:00:00.000Z,"M,T,W,TH,F",,,1:20 PM to 1:30 PM,,,,,11,U,US,130722,,2019,Brown
-88.10015077,44.55983522,140510,Meadowbrook Park Upper,Open,"670 Hillcrest Hights Green Bay, WI 54313",,Green Bay,WI,54313,9206620772,,Laura,Rowell,,Howard-Suamico School District,2019-06-10T04:00:00.000Z,2019-08-23T04:00:00.000Z,"M,T,W,TH,F",,,11:47 AM to 1:10 PM,,,,,11,U,US,130739,,2019,Brown
-88.24283006,44.66207567,140513,Pulaski Community Middle School,Open,"911 S Saint Augustine Street Pulaski, WI 54162",,Pulaski,WI,54162,9208226065,,,,,Pulaski Community School District,2019-06-17T04:00:00.000Z,2019-08-23T04:00:00.000Z,"M,T,W,TH,F",,7:40 AM to 8:30 AM,11:00 AM to 1:15 PM,,,,,11,U,US,83329,,2019,Brown
-88.07836925,44.44510254,140514,West De Pere High School,Open,"665 Grant Street De Pere, WI 54115",,De Pere,WI,54115,9203385200,,Tracy,Baumgart,,West DePere School District,2019-06-10T04:00:00.000Z,2019-08-23T04:00:00.000Z,"M,T,W,TH,F",,,11:50 AM to 12:20 PM,,,,,11,U,US,130833,,2019,Brown
-91.67345007,44.570394,140515,MONDOVI CAFETERIA,Open,"337 NORTH JACKSON MONDOVI, WI 54755",,MONDOVI,WI,54755,7159263684,,Robin,Becker,,Mondovi School District,2019-06-10T04:00:00.000Z,2019-07-03T04:00:00.000Z,"M,T,W,TH,F",,7:30 AM to 9:30 AM,11:30 AM to 12:45 PM,,,,,11,U,US,130747,,2019,Buffalo
-92.67168064,45.77463843,140516,Grantsburg Middle School,Open,"500 E James Ave Grantsburg, WI 54840",,Grantsburg,WI,54840,7154632455,,Lara,Lerud,,Grantsburg School District,2019-06-12T04:00:00.000Z,2019-07-11T04:00:00.000Z,"M,T,W,TH,F",,10:00 AM to 10:50 AM,12:00 PM to 1:15 PM,,,,,11,U,US,4602,,2019,Burnett
-92.57481892,45.77215345,140517,Nelson Elementary,Open,"11486 State Road 70 Grantsburg, WI 54840",,Grantsburg,WI,54840,7156892421,,Monica,Sagle,,Grantsburg School District,2019-06-12T04:00:00.000Z,2019-07-11T04:00:00.000Z,"M,T,W,TH,F",,9:00 AM to 9:45 AM,,,,,,11,U,US,5832,,2019,Burnett
-92.67377145,45.77460353,140518,Grantsburg Elementary,Open,"475 E James Ave Grantsburg, WI 54840",,Grantsburg,WI,54840,7154632320,,Amanda,Hill,,Grantsburg School District,2019-06-12T04:00:00.000Z,2019-07-11T04:00:00.000Z,"M,T,W,TH,F",,9:30 AM to 10:50 AM,12:00 PM to 1:15 PM,,,,,11,U,US,4601,,2019,Burnett
-92.3779726,45.78668961,140519,School District of Siren,Open,"24022 Fourth Avenue North Siren, WI 54872",,Siren,WI,54872,7153497392,,Tiffany,Battisti,,Siren School District,2019-06-10T04:00:00.000Z,2019-06-28T04:00:00.000Z,"M,T,W,TH,F",,8:00 AM to 8:45 AM,11:30 AM to 12:15 PM,,,,,11,U,US,6573,,2019,Burnett
-92.36307736,45.87423548,140520,Webster Elementary School,Open,"7364 Alder Street East Webster, WI 54893",,Webster,WI,54893,7158668210,,Shonnah,McIntyre,,Webster School District,2019-06-10T04:00:00.000Z,2019-06-21T04:00:00.000Z,"M,T,W,TH,F",,7:45 AM to 9:00 AM,10:45 AM to 12:00 PM,,,,,11,U,US,7299,,2019,Burnett
-91.4128097,44.93420167,140523,Chippewa Falls High School,Open,"735 Terrill St Chippewa Falls, WI 54729",,Chippewa Falls,WI,54729,7157262406,,Jamie,Henslee,,Chippewa Falls School District,2019-06-17T04:00:00.000Z,2019-07-11T04:00:00.000Z,"M,T,W,TH",,7:30 AM to 8:45 AM,,,,,,11,U,US,3775,,2019,Chippewa
-91.4184534,44.93516558,140524,Chippewa Falls Middle School,Open,"750 Tropicana Blvd Chippewa Falls, WI 54729",,Chippewa Falls,WI,54729,7157262400,,Annette,Machalk,,Chippewa Falls School District,2019-06-17T04:00:00.000Z,2019-07-18T04:00:00.000Z,"M,T,W,TH",,7:30 AM to 8:00 AM,11:15 AM to 11:45 AM,,,,,11,U,US,3776,,2019,Chippewa
-91.38406987,44.92013241,140525,Southview,Open,"615 A Street Chippewa Falls, WI 54729",,Chippewa Falls,WI,54729,7157262798,,Kaylyn,Palomar,,Chippewa Falls School District,2019-06-17T04:00:00.000Z,2019-07-18T04:00:00.000Z,"M,T,W,TH",,7:30 AM to 8:15 AM,11:30 AM to 12:00 PM,,,,,11,U,US,130804,,2019,Chippewa
-91.1424015,45.1652845,140529,Cornell MS/HS,Open,"708 Bridge St Cornell, WI 54732",,Cornell,WI,54732,7158616947,,Paul,Schley,,Cornell School District,2019-08-27T04:00:00.000Z,2019-08-29T04:00:00.000Z,"T,W,TH",,8:35 AM to 9:35 AM,11:10 AM to 12:30 PM,,,,,11,U,US,3945,,2019,Chippewa
-90.32055975,44.91810148,140536,Colby Elementary School,Open,"202 W DOLF ST COLBY, WI 54421",,COLBY,WI,54421,7152233939,,Laurie,Hesgard,,Colby School District,2019-06-17T04:00:00.000Z,2019-07-03T04:00:00.000Z,"M,T,W,TH",,9:15 AM to 9:45 AM,,,,,,11,U,US,130656,,2019,Clark
-90.59014768,44.76699807,140542,Greenwood Elementary,Open,"700 Division Street Greenwood, WI 54437",,Greenwood,WI,54437,7152677211,,Jeri,Haase,,Greenwood School District,2019-06-10T04:00:00.000Z,2019-07-19T04:00:00.000Z,"M,T,W,TH,F",,7:45 AM to 8:15 AM,10:45 AM to 12:30 PM,,,,,11,U,US,130691,,2019,Clark
-90.50147365,44.73529082,140543,Loyal Public School,Open,"514 W. Central Street Loyal, WI 54446",,Loyal,WI,54446,7152558511,,Jared,Zemke,,Loyal School District,2019-06-10T04:00:00.000Z,2019-06-28T04:00:00.000Z,"M,T,W,TH,F",,7:45 AM to 9:15 AM,11:15 AM to 12:30 PM,,,,,11,U,US,5429,,2019,Clark
-90.7958127,44.95454627,140548,Thorp High School,Open,"605 S Clark Street Thorp, WI 54771",,Thorp,WI,54771,7156695401,,Dawn,Mlejnek,,Thorp School District,2019-06-10T04:00:00.000Z,2019-06-27T04:00:00.000Z,"M,T,W,TH",,7:30 AM to 8:00 AM,11:30 AM to 12:30 PM,,,,,11,U,US,7024,,2019,Clark
-89.01901038,43.33635559,140549,Columbus Middle School,Open,"400 S Dickason Blvd Columbus, WI 53925",,Columbus,WI,53925,9236235950,,Jane,Sydow,,Columbus School District,2019-06-10T04:00:00.000Z,2019-08-02T04:00:00.000Z,"M,T,W,TH,F",,8:00 AM to 8:30 AM,11:30 AM to 12:00 PM,,,,,11,U,US,130661,,2019,Columbia
-89.0221232,43.33528148,140550,Columbus Elementary School,Open,"200 W Fuller Street Columbus, WI 53925",,Columbus,WI,53925,9206235950,,Jane,Sydow,,Columbus School District,2019-06-10T04:00:00.000Z,2019-08-02T04:00:00.000Z,"M,T,W,TH,F",,8:10 AM to 8:30 AM,11:30 AM to 12:00 PM,,,,,11,U,US,130659,,2019,Columbia
-91.1452144,43.05733284,140553,BAK Elementary School,Open,"420 Wacouta Ave Prairie du Chien, WI 53821",,Prairie du Chien,WI,53821,6083263760,,Will,Zeeh,,Prairie du Chien Area School District,2019-06-10T04:00:00.000Z,2019-07-26T04:00:00.000Z,"M,T,W,TH,F",,7:30 AM to 8:00 AM,11:30 AM to 12:15 PM,,,,,11,U,US,3142,,2019,Crawford
-91.13769415,43.04260479,140554,Prairie du Chien High School,Open,"800 E Crawford Prairie du Chien, WI 53821",,Prairie du Chien,WI,53821,6083260503,,William,Zeeh,,Prairie du Chien Area School District,2019-06-10T04:00:00.000Z,2019-07-26T04:00:00.000Z,"M,T,W,TH,F",,7:30 AM to 8:00 AM,11:30 AM to 12:30 PM,,,,,11,U,US,144445,,2019,Crawford
-89.50248094,43.0663763,140560,Lussier Community Education Center,Open,"55 S Gammon Road Madison, WI 53717",,Madison,WI,53717,6088334979,,Susan,Ramspacher,,Irwin and Robert Goodman Community Ctr.,2019-06-24T04:00:00.000Z,2019-08-16T04:00:00.000Z,"M,T,W,TH,F",,9:00 AM to 10:00 AM,,,3:00 PM to 4:00 PM,,,11,U,US,143785,,2019,Dane
-89.33007618,43.11718261,140561,East Madison Community Center,Open,"8 Straubel Court madison, WI 53704",,madison,WI,53704,6082490861,,Dekendra,Stamps,,Irwin and Robert Goodman Community Ctr.,2019-06-24T04:00:00.000Z,2019-08-16T04:00:00.000Z,"M,T,W,TH,F",,9:00 AM to 9:30 AM,12:00 PM to 12:30 PM,,,,,11,U,US,14663,,2019,Dane
-89.38559179,43.14018132,140562,Kennedy Heights Community Center,Open,"199 Kennedy Heights madison, WI 53704",,madison,WI,53704,6082440767,,Cora,Kruzicki,,Irwin and Robert Goodman Community Ctr.,2019-06-24T04:00:00.000Z,2019-08-16T04:00:00.000Z,"M,T,W,TH,F",,,12:00 PM to 12:45 PM,,3:30 PM to 4:00 PM,,,11,U,US,90937,,2019,Dane
-89.34388192,43.09703112,140563,"Goodman Community Center, Inc.",Open,"149 Waubesa Street Madison, WI 53704",,Madison,WI,53704,6082048025,,Becky,Steinhoff,,Irwin and Robert Goodman Community Ctr.,2019-06-17T04:00:00.000Z,2019-08-23T04:00:00.000Z,"M,T,W,TH,F",,11:30 AM to 1:00 PM,,,,4:30 PM to 5:30 PM,,11,U,US,14743,,2019,Dane
-89.45847514,43.02881393,140564,BOYS AND GIRLS CLUB- ALLIED,Open,"4715 JENEWIEN RD MADISON, WI 53711",,MADISON,WI,53711,6085728194,,McKenzie,Krueger,,Madison Metro School District,2019-06-24T04:00:00.000Z,2019-08-16T04:00:00.000Z,"M,T,W,TH,F",,9:00 AM to 10:00 AM,,,3:00 PM to 3:30 PM,,,11,U,US,148105,,2019,Dane
-89.4593414,43.02923064,140565,ALLIED LEARNING CENTER,Open,"2237 ALLIED DRIVE MADISON, WI 53711",,MADISON,WI,53711,6082046578,,Laura,Harrington,,Madison Metro School District,2019-06-24T04:00:00.000Z,2019-08-16T04:00:00.000Z,"M,T,W,TH,F",,9:00 AM to 9:30 AM,11:45 AM to 12:15 PM,,,,,11,U,US,57276,,2019,Dane
-89.39765154,43.06633676,140566,BAYVIEW COMMUNITY CENTER,Open,"601 BAY VIEW MADISON, WI 53715",,MADISON,WI,53715,6082567808,,Alexis,London,,Madison Metro School District,2019-06-24T04:00:00.000Z,2019-08-16T04:00:00.000Z,"M,T,W,TH,F",,8:30 AM to 9:00 AM,11:50 AM to 12:20 PM,,,,,11,U,US,57386,,2019,Dane
-89.39300393,43.04411114,140573,BOYS AND GIRLS CLUB @ TAFT ST,Open,"2001 TAFT ST MADISON, WI 53704",,MADISON,WI,53704,6086614734,,Michelle,Young,,Madison Metro School District,2019-06-24T04:00:00.000Z,2019-08-16T04:00:00.000Z,"M,T,W,TH,F",,9:15 AM to 9:45 AM,,,3:00 PM to 3:30 PM,,,11,U,US,148104,,2019,Dane
-89.40402243,43.0667647,140575,NEIGHBORHOOD HOUSE,Open,"29 S MILLS ST MADISON, WI 53715",,MADISON,WI,53715,6082555337,,"Andy, Laura","Millman, Gundlach",,Madison Metro School District,2019-06-24T04:00:00.000Z,2019-08-16T04:00:00.000Z,"M,T,W,TH,F",,,12:00 PM to 1:00 PM,,3:00 PM to 4:00 PM,,,11,U,US,148923,,2019,Dane
-89.3576571,43.12823089,140577,PACKERS APARTMENT,Open,"1927 NORTHPORT DRIVE MADISON, WI 53704",,MADISON,WI,53704,6085133866,,Justin,Markofski,,Madison Metro School District,2019-06-24T04:00:00.000Z,2019-08-16T04:00:00.000Z,"M,T,W,TH,F",,9:30 AM to 10:00 AM,12:00 PM to 1:00 PM,,,,,11,U,US,101077,,2019,Dane
-89.36828624,43.1326697,140580,WARNER PARK COMMUNITY RECREATION CENTER,Open,"1625 NORTHPORT DRIVE MADISON, WI 53704",,MADISON,WI,53704,6082131519,,Janet,Dyer,,Madison Metro School District,2019-06-24T04:00:00.000Z,2019-08-16T04:00:00.000Z,"M,T,W,TH,F",,9:00 AM to 9:30 AM,12:00 PM to 12:30 PM,,,,,11,U,US,60642,,2019,Dane
-89.31984203,43.06208651,140581,LA FOLLETTE HS,Open,"702 PFLAUM rD MADISON, WI 53716",,MADISON,WI,53716,6082043688,,Latasha,Bloodsaw,,Madison Metro School District,2019-06-24T04:00:00.000Z,2019-08-02T04:00:00.000Z,"M,T,W,TH,F",,7:05 AM to 7:35 AM,12:00 PM to 12:30 PM,,,,,11,U,US,148678,,2019,Dane
-89.48981043,43.03747691,140582,THERESA TERRACE NEIGHBORHOOD CENTER,Open,"1409 THERESA TERRACE MADISON, WI 53719",,MADISON,WI,53719,6086610308,,Jennifer,Weber,,Madison Metro School District,2019-06-24T04:00:00.000Z,2019-08-16T04:00:00.000Z,"M,T,W,TH,F",,,12:00 PM to 12:30 PM,,2:00 PM to 2:15 PM,,,11,U,US,102535,,2019,Dane
-89.41943042,43.026113,140586,Leopold Park/FAIRWAY APTS,Open,"2301 TRACEWAY DR FITCHBURG, WI 53713",,FITCHBURG,WI,53713,6083107831,,Matthew,Fornoff,,Madison Metro School District,2019-06-24T04:00:00.000Z,2019-08-16T04:00:00.000Z,"M,T,W,TH,F",,,12:00 PM to 1:00 PM,,,,,11,U,US,148723,,2019,Dane
-89.38693079,43.03460161,140587,Southdale Park,Open,"200 Deer Valley Rd Madison, WI 53713",,Madison,WI,53713,6083107831,,Matthew,Fornoff,,Madison Metro School District,2019-06-24T04:00:00.000Z,2019-08-16T04:00:00.000Z,"M,T,W,TH,F",,,12:00 PM to 1:00 PM,,,,,11,U,US,149226,,2019,Dane
-89.44923759,43.0573405,140588,Midvale Camp Compass,Open,"502 Caromar Dr Madison, WI 53711",,Madison,WI,53711,6082046733,,Megan,Woodward,,Madison Metro School District,2019-06-24T04:00:00.000Z,2019-08-16T04:00:00.000Z,"M,T,W,TH,F",,,12:00 PM to 1:00 PM,,3:00 PM to 3:30 PM,,,11,U,US,148834,,2019,Dane
-89.3408415,43.09290788,140589,Lowell Elementary Camp Compass,Open,"401 Maple Ave Madison, WI 53704",,Madison,WI,53704,6082046616,,LaRonda,McLin,,Madison Metro School District,2019-06-24T04:00:00.000Z,2019-08-16T04:00:00.000Z,"M,T,W,TH,F",,,12:00 PM to 1:00 PM,,3:00 PM to 3:30 PM,,,11,U,US,148764,,2019,Dane
-89.35451401,43.09282178,140592,Arts & Literature Laboratory,Open,"2021 Winnebago St Madison, WI 53704",,Madison,WI,53704,6085567415,,Alaura,Borealis,,Madison Metro School District,2019-06-24T04:00:00.000Z,2019-08-16T04:00:00.000Z,"M,T,W,TH,F",,9:00 AM to 9:30 AM,11:45 AM to 1:15 PM,,,,,11,U,US,148014,,2019,Dane
-89.50495423,43.0405563,140601,WI YOUTH CO/ELVER CC,Open,"1201 MCKENNA BLVD MADISON, WI 53711",,MADISON,WI,53711,6082101617,,Monique,Bryson,,Madison Metro School District,2019-06-24T04:00:00.000Z,2019-08-16T04:00:00.000Z,"M,T,W,TH,F",,,12:00 PM to 12:30 PM,,4:00 PM to 4:30 PM,,,11,U,US,149494,,2019,Dane
-89.45103089,43.0471615,140603,MIDVALE BAPTIST - Kid's Best,Open,"821 S. MIDVALE BLD MADISON, WI 53705",,MADISON,WI,53705,6082335661,,Sara,Stine,,Madison Metro School District,2019-06-24T04:00:00.000Z,2019-08-16T04:00:00.000Z,"M,T,W,TH,F",,,12:00 PM to 1:00 PM,,3:00 PM to 3:45 PM,,,11,U,US,148833,,2019,Dane
-89.49139175,43.04637707,140604,LIGHT HOUSE CHRISTIAN,Open,"6402 Schroeder Road MADISON, WI 53705",,MADISON,WI,53705,6084419408,,Tia,Sierra,,Madison Metro School District,2019-06-24T04:00:00.000Z,2019-08-16T04:00:00.000Z,"M,T,W,TH,F",,,11:00 AM to 1:00 PM,,2:00 PM to 3:00 PM,,,11,U,US,148732,,2019,Dane
-89.39085608,43.03835988,140609,NEHEMIAH-CENTER,Open,"655 W. BADGER RD MADISON, WI 53713",,MADISON,WI,53713,6085127636,,Ozanne,Anderson,,Madison Metro School District,2019-07-15T04:00:00.000Z,2019-08-16T04:00:00.000Z,"M,T,W,TH,F",,8:00 AM to 8:30 AM,11:45 AM to 12:15 PM,,,,,11,U,US,148921,,2019,Dane
-89.07469467,43.16561623,140612,Marshall Elementary School,Open,"617 Madison St. Marshall, WI 53559",,Marshall,WI,53559,6086553466,,Judy,Filter,,Marshall School District,2019-06-13T04:00:00.000Z,2019-07-26T04:00:00.000Z,"M,T,W,TH,F",,7:30 AM to 8:00 AM,11:55 AM to 12:30 PM,,,,,11,U,US,143844,,2019,Dane
-89.06968996,43.16489193,140613,Marshall Early Learning Center,Open,"329 School St. Marshall, WI 53559",,Marshall,WI,53559,6086551588,,Kortnie,Filter,,Marshall School District,2019-06-13T04:00:00.000Z,2019-07-26T04:00:00.000Z,"M,T,W,TH,F",,7:30 AM to 8:00 AM,11:55 AM to 12:30 PM,,,,,11,U,US,143841,,2019,Dane
-89.50659549,43.0983671,140614,Middleton High School,Open,"2100 Bristol St. Middleton, WI 53562",,Middleton,WI,53562,6088299792,,Denitza,Neville,,Middleton-Cross Plains School District,2019-06-17T04:00:00.000Z,2019-08-08T04:00:00.000Z,"M,T,W,TH",,7:30 AM to 9:00 AM,11:00 AM to 1:00 PM,,,,,11,U,US,134934,,2019,Dane
-89.23514777,43.1808929,140615,Westside Elementary,Open,"1320 Buena Vista Sun Prairie, WI 53590",,Sun Prairie,WI,53590,6088347505,,Dania,Cannon,,Sun Prairie Area School District,2019-06-24T04:00:00.000Z,2019-07-31T04:00:00.000Z,"M,T,W,TH",,7:40 AM to 8:10 AM,10:10 AM to 12:45 PM,,,,,11,U,US,130840,,2019,Dane
-89.21528456,43.19456565,140616,Northside Elementary,Open,"230 W. Klubertanz Drive Sun Prairie, WI 53590",,Sun Prairie,WI,53590,6088347103,,Carrie,Johnson,,Sun Prairie Area School District,2019-06-24T04:00:00.000Z,2019-07-31T04:00:00.000Z,"M,T,W,TH",,7:30 AM to 8:10 AM,10:25 AM to 12:50 PM,,,,,11,U,US,130760,,2019,Dane
-89.25086314,43.20179727,140617,Token Springs,Open,"1435 N. Thompson Rd. Sun Prairie, WI 53590",,Sun Prairie,WI,53590,6088345051,,,,,Sun Prairie Area School District,2019-06-24T04:00:00.000Z,2019-07-31T04:00:00.000Z,"M,T,W,TH",,7:30 AM to 8:10 AM,10:00 AM to 12:45 PM,,,,,11,U,US,130821,,2019,Dane
-89.21961955,43.18047249,140618,Cardinal Heights Upper Middle,Open,"220 Kroncke Drive Sun Prairie, WI 53590",,Sun Prairie,WI,53590,6088348005,,Ryan,Bruenig,,Sun Prairie Area School District,2019-06-24T04:00:00.000Z,2019-07-31T04:00:00.000Z,"M,T,W,TH",,,10:35 AM to 12:45 PM,,,,,11,U,US,130649,,2019,Dane
-89.42909127,43.07600724,140619,Four Lakes Cafe,Open,"600 Highland Ave Madison, WI 53792",,Madison,WI,53792,6088908528,,Lisa,Bote,,UW Hospital & Clinics Authority,2019-06-17T04:00:00.000Z,2019-08-30T04:00:00.000Z,"S,M,T,W,TH,F,SA",,6:50 AM to 11:00 AM,11:00 AM to 7:00 PM,,,,,11,U,US,130682,,2019,Dane
-89.43389118,43.07683442,140620,American Family Children's Hospital,Open,"1675 Highland Ave Madison, WI 53792",,Madison,WI,53792,6088908528,,Lisa,Bote,,UW Hospital & Clinics Authority,2019-06-17T04:00:00.000Z,2019-08-30T04:00:00.000Z,"M,T,W,TH,F",,6:50 AM to 11:00 AM,11:00 AM to 2:50 PM,,,,,11,U,US,130618,,2019,Dane
-89.3148615,43.08391349,140621,East YMCA Supper Program,Open,"711 Cottage Grove Rd Madison, WI 53716",,Madison,WI,53716,6082211571,,Joanne,Marquez,,YMCA of Dane County-Northeast,2019-06-17T04:00:00.000Z,2019-08-29T04:00:00.000Z,"T,W,TH",,,,,,5:00 PM to 7:00 PM,,11,U,US,120944,,2019,Dane
-88.83714978,43.45952746,140624,Middle School,Open,"108 4th Street Beaver dam, WI 53916",,Beaver dam,WI,53916,9208857300,,Stephanie,Young,,Beaver Dam Unified Schools,2019-06-10T04:00:00.000Z,2019-07-25T04:00:00.000Z,"M,T,W,TH",,,12:00 PM to 12:20 PM,,,,,11,U,US,130743,,2019,Dodge
-88.5526127,43.50203132,140628,Mayville Middle School,Open,"455 N Henninger St Mayville, WI 53050",,Mayville,WI,53050,9203877960,,Nikki,Williams,,Mayville School District,2019-06-17T04:00:00.000Z,2019-08-23T04:00:00.000Z,"M,T,W,TH,F",,7:00 AM to 8:30 AM,11:00 AM to 12:30 PM,,,,,11,U,US,134878,,2019,Dodge
-87.28932563,44.89178778,140629,Sevastopol Schools,Open,"4550 HWY 57 Sturgeon Bay, WI 54235",,Sturgeon Bay,WI,54235,9207436282,,Casey,Andrews,,Sevastopol School District,2019-07-08T04:00:00.000Z,2019-07-25T04:00:00.000Z,"M,T,W,TH",,,11:30 AM to 12:00 PM,,,,,11,U,US,6610,,2019,Door
-87.38711929,44.81863167,140630,Lansing Avenue Center,Open,"876 S Lansing Avenue Sturgeon Bay, WI 54235",,Sturgeon Bay,WI,54235,9208180796,,Abby,Lifto,,Door County YMCA,2019-06-03T04:00:00.000Z,2019-08-30T04:00:00.000Z,"M,T,W,TH,F",,,11:30 AM to 12:00 PM,,3:00 PM to 3:30 PM,,,11,U,US,19746,,2019,Door
-87.34846263,44.83505647,140633,Door County YMCA,Open,"1900 Michigan St. Sturgeon Bay, WI 54235",,Sturgeon Bay,WI,54235,9207434949,,Sherri,Dantoin,,Door County YMCA,2019-06-10T04:00:00.000Z,2019-08-23T04:00:00.000Z,"M,T,W,TH,F",,,11:30 AM to 12:30 PM,,,,,11,U,US,71114,,2019,Door
-87.40435038,44.83119149,140634,Otumba Park,Open,"Juniper St. Sturgeon Bay, WI 54235",,Sturgeon Bay,WI,54235,9207434949,,Lee,McConkey,,Door County YMCA,2019-06-17T04:00:00.000Z,2019-08-15T04:00:00.000Z,"M,T,W,TH",,,11:30 AM to 12:15 PM,9:30 AM to 9:45 AM,,,,11,U,US,71512,,2019,Door
-92.1001905,46.6658005,140635,Bryant Elementary,Open,"1423 Central Ave Superior, WI 54880",,Superior,WI,54880,7153948785,,Jean,Koerner,,Superior School District,2019-06-17T04:00:00.000Z,2019-07-18T04:00:00.000Z,"M,T,W,TH",,7:50 AM to 8:30 AM,11:00 AM to 11:30 AM,,,,,11,U,US,130647,,2019,Douglas
-92.0619,46.715148,140636,P&R Gouge/Turtle Park,Open,"12th Ave. East & East 4th Street Superior, WI 54880",,Superior,WI,54880,2183487520,,Caitlyn,Knoll,,Superior School District,2019-06-12T04:00:00.000Z,2019-08-16T04:00:00.000Z,"M,T,W,TH,F",,,11:45 AM to 12:15 PM,,4:15 PM to 4:30 PM,,,11,U,US,130767,,2019,Douglas
-92.07968276,46.70624955,140637,Great Lakes Elementary,Open,"129 North 28th, Street Superior, WI 54880",,Superior,WI,54880,7153958500,,Sara,Pfau,,Superior School District,2019-06-17T04:00:00.000Z,2019-07-18T04:00:00.000Z,"M,T,W,TH",,8:15 AM to 8:45 AM,11:00 AM to 12:00 PM,,,,,11,U,US,130689,,2019,Douglas
-92.09792094,46.71548025,140638,P&R Hammond Park,Open,"1920 Hammond Ave Superior, WI 54880",,Superior,WI,54880,2183487520,,Caitlyn,Knoll,,Superior School District,2019-06-12T04:00:00.000Z,2019-08-16T04:00:00.000Z,"M,T,W,TH,F",,,11:45 AM to 12:15 PM,,4:15 PM to 4:30 PM,,,11,U,US,130768,,2019,Douglas
-92.002399,46.66389322,140639,Lake Superior Elementary,Open,"6200 East 3rd Street Superior, WI 54880",,Superior,WI,54880,7153987672,,Kerri,Gontjes,,Superior School District,2019-06-17T04:00:00.000Z,2019-07-18T04:00:00.000Z,"M,T,W,TH",,8:00 AM to 8:30 AM,10:45 AM to 11:10 AM,,,,,11,U,US,102161,,2019,Douglas
-92.0962215,46.70622752,140640,Northern Lights Elementary,Open,"1201 W. 28th Street Superior, WI 54880",,Superior,WI,54880,7153958481,,Renay,Boggie,,Superior School District,2019-06-17T04:00:00.000Z,2019-07-18T04:00:00.000Z,"M,T,W,TH",,8:15 AM to 8:45 AM,11:20 AM to 11:50 AM,,,,,11,U,US,130759,,2019,Douglas
-92.09034089,46.72337442,140643,P&R Wade Bowl,Open,"1228 Clough Superior, WI 54880",,Superior,WI,54880,7153948700,,Caitlyn,Knoll,,Superior School District,2019-06-12T04:00:00.000Z,2019-08-16T04:00:00.000Z,"M,T,W,TH,F",,,11:45 AM to 12:15 PM,,4:15 PM to 4:30 PM,,,11,U,US,130769,,2019,Douglas
-92.10424884,46.67050449,140644,P&R Webster Park,Open,"5718 Tower Ave Superior, WI 54880",,Superior,WI,54880,7153957270,,Caitlyn,Knoll,,Superior School District,2019-06-12T04:00:00.000Z,2019-08-16T04:00:00.000Z,"M,T,W,TH,F",,,11:45 AM to 12:15 PM,,4:15 PM to 4:30 PM,,,11,U,US,130770,,2019,Douglas
-92.1070011,46.71726359,140645,P&R 18th & Oakes Park,Open,"1725 Oakes Ave. Superior, WI 54880",,Superior,WI,54880,2183487520,,Caitlyn,Knoll,,Superior School District,2019-06-12T04:00:00.000Z,2019-08-16T04:00:00.000Z,"M,T,W,TH,F",,,11:45 AM to 12:15 PM,,4:15 PM to 4:30 PM,,,11,U,US,130765,,2019,Douglas
-92.08737838,46.73005184,140646,SS5 Boys & Girls Club of Superior,Open,"710 Catlin Ave Superior, WI 54880",,Superior,WI,54880,7153945766,,Kym,Nepper,,Superior School District,2019-06-10T04:00:00.000Z,2019-08-23T04:00:00.000Z,"M,T,W,TH,F",,,1:20 PM to 1:40 PM,,3:30 PM to 4:00 PM,,,11,U,US,130810,,2019,Douglas
-91.6758168,46.48270776,140647,YMCA Day Camp,Open,"7751 cty rd s Lake Nebagamon, WI 54849",,Lake Nebagamon,WI,54849,7153925611,,Jill,Anderson,,Superior School District,2019-06-10T04:00:00.000Z,2019-08-28T04:00:00.000Z,"M,T,W,TH,F",,9:30 AM to 9:45 AM,12:15 PM to 12:45 PM,,,,,11,U,US,130849,,2019,Douglas
-92.13980225,46.7122094,140648,P&R Billings Park,Open,"15 Billings Drive Superior, WI 54880",,Superior,WI,54880,7153957361,,Caitlyn,Knoll,,Superior School District,2019-06-12T04:00:00.000Z,2019-08-16T04:00:00.000Z,"M,T,W,TH,F",,,11:45 AM to 12:15 PM,,4:15 PM to 4:30 PM,,,11,U,US,130766,,2019,Douglas
-92.0980125,46.706202,140649,SS3 Heritage Skate Park,Open,"28th & Hammond Ave Superior, WI 54880",,Superior,WI,54880,2183498936,,Kym,Nepper,,Superior School District,2019-06-10T04:00:00.000Z,2019-08-23T04:00:00.000Z,"M,T,W,TH,F",,,11:50 AM to 12:15 PM,,,,,11,U,US,130808,,2019,Douglas
-92.09806905,46.69645547,140654,SS1 Lakeside Terrace,Open,"3626 Hammond Avenue Superior, WI 54880",,Superior,WI,54880,7153948740,,Kym,Nepper,,Superior School District,2019-06-10T04:00:00.000Z,2019-08-23T04:00:00.000Z,"M,T,W,TH,F",,,10:10 AM to 10:30 AM,,,,,11,U,US,130806,,2019,Douglas
-92.07458189,46.5326335,140655,Four Corners Elementary,Open,"4465 E. County Road B Superior, WI 54836",,Superior,WI,54836,7153998911,,Jenny,Thompson,,Superior School District,2019-06-17T04:00:00.000Z,2019-07-18T04:00:00.000Z,"M,T,W,TH",,8:30 AM to 8:45 AM,11:00 AM to 11:45 AM,,,,,11,U,US,130681,,2019,Douglas
-92.10410944,46.691883,140657,SS2 Bartley Manor,Open,"3920 tower ave Superior, WI 54880",,Superior,WI,54880,2183487520,,Kym,Nepper,,Superior School District,2019-06-10T04:00:00.000Z,2019-08-23T04:00:00.000Z,"M,T,W,TH,F",,,11:00 AM to 11:20 AM,,,,,11,U,US,130807,,2019,Douglas
-91.93569753,44.86118836,140658,River Heights Elementary,Open,"615 24th Ave Menomonie, WI 54751",,Menomonie,WI,54751,7152323987,,Connie,Harmon,,Menomonie School District,2019-06-17T04:00:00.000Z,2019-08-16T04:00:00.000Z,"M,T,W,TH,F",,7:30 AM to 8:30 AM,11:15 AM to 12:15 PM,,,,,11,U,US,71591,,2019,Dunn
-91.41476331,44.80245949,140661,Altoona Elementary School,Open,"157 Bartlett Avenue Altoona, WI 54720",,Altoona,WI,54720,7158396050,,Bernie,Allen,,Altoona School District,2019-06-17T04:00:00.000Z,2019-07-26T04:00:00.000Z,"M,T,W,TH,F",,,11:00 AM to 12:00 PM,,,,,11,U,US,130617,,2019,Eau Claire
-91.13797765,44.68386596,140662,Augusta Elementary School,Open,"E 19320 Bartig Rd. Augusta, WI 54722",,Augusta,WI,54722,7152863304,,Jayne,Yule,,Augusta School District,2019-06-17T04:00:00.000Z,2019-08-09T04:00:00.000Z,"M,T,W,TH,F",,7:45 AM to 8:30 AM,11:45 AM to 12:15 PM,,,,,11,U,US,70921,,2019,Eau Claire
-91.49038817,44.81948759,140663,Longfellow Elementary,Open,"512 Balcom Street Eau Claire, WI 54703",,Eau Claire,WI,54703,7158523806,,Stephanie,Graveen,,Eau Claire Area School District,2019-06-17T04:00:00.000Z,2019-08-15T04:00:00.000Z,"M,T,W,TH",,7:45 AM to 8:45 AM,11:30 AM to 12:30 PM,,,,,11,U,US,5395,,2019,Eau Claire
-91.51442713,44.80720784,140664,Lakeshore Elementary,Open,"711 Lake Street Eau Claire, WI 54703",,Eau Claire,WI,54703,7158523400,,Penny,Nelson,,Eau Claire Area School District,2019-07-29T04:00:00.000Z,2019-08-15T04:00:00.000Z,"M,T,W,TH",,7:45 AM to 9:00 AM,11:30 AM to 12:30 PM,,,,,11,U,US,5221,,2019,Eau Claire
-91.53634907,44.81924644,140671,Delong Middle,Open,"2000 Vine Street Eau Claire, WI 54703",,Eau Claire,WI,54703,7158524900,,Gladys,Parkins,,Eau Claire Area School District,2019-06-17T04:00:00.000Z,2019-08-01T04:00:00.000Z,"M,T,W,TH",,7:30 AM to 8:45 AM,11:30 AM to 12:30 PM,,,,,11,U,US,100363,,2019,Eau Claire
-91.47142825,44.78198952,140683,South Middle School,Open,"2115 Mitscher Ave Eau Claire, WI 54701",,Eau Claire,WI,54701,7158525200,,Yvonne,Couillard,,Eau Claire Area School District,2019-06-17T04:00:00.000Z,2019-08-01T04:00:00.000Z,"M,T,W,TH",,7:30 AM to 8:45 AM,11:30 AM to 12:30 PM,,,,,11,U,US,130802,,2019,Eau Claire
-91.5130715,44.81638751,140684,Montessori Charter School,Open,"400 Cameron Street Eau Claire, WI 54703",,Eau Claire,WI,54703,7158526950,,Gladys,Parkins,,Eau Claire Area School District,2019-06-17T04:00:00.000Z,2019-06-27T04:00:00.000Z,"M,T,W,TH",,7:45 AM to 9:00 AM,11:30 AM to 12:30 PM,,,,,11,U,US,130748,,2019,Eau Claire
-91.50671047,44.81024883,140685,BGCGCV - Lee & Mary Markquart Center,Open,"1005 Oxford Ave Eau Claire, WI 54703",,Eau Claire,WI,54703,7158550081,,Andi,Walters,,Boys & Girls Club - Chippewa Valley,2019-06-10T04:00:00.000Z,2019-08-23T04:00:00.000Z,"M,T,W,TH,F",,,12:00 PM to 1:00 PM,,3:00 PM to 4:00 PM,,,11,U,US,133826,,2019,Eau Claire
-91.39230308,44.93756176,140686,BGCGCV - Chippewa Falls Center,Open,"21 E. Grand Ave. Chippewa Falls, WI 54729",,Chippewa Falls,WI,54729,7157209206,,Travis,Austad,,Boys & Girls Club - Chippewa Valley,2019-06-10T04:00:00.000Z,2019-08-23T04:00:00.000Z,"M,T,W,TH,F",,,12:00 PM to 1:00 PM,,2:30 PM to 3:30 PM,,,11,U,US,133825,,2019,Chippewa
-90.83492551,44.29423419,140687,BGCGCV - Lunda Center,Open,"405 State Highway 54 (Suite 1) Black River Falls, WI 54615",Suite 1,Black River Falls,WI,54615,7152844005,,Kelly,LaBar,,Boys & Girls Club - Chippewa Valley,2019-06-10T04:00:00.000Z,2019-08-23T04:00:00.000Z,"M,T,W,TH,F",,,11:00 AM to 12:00 PM,,2:30 PM to 3:30 PM,,,11,U,US,17630,,2019,Jackson
-88.11485161,45.785349,140690,NWTC Woodland Center,Open,"2030 Calvary Dr Niagara, WI 54151",,Niagara,WI,54151,7155283262,,Meg,Dallapiazza,,Florence School District,2019-06-18T04:00:00.000Z,2019-07-18T04:00:00.000Z,"T,TH",,8:30 AM to 9:30 AM,11:30 AM to 12:30 PM,,,,,11,U,US,140446,,2019,Florence
-88.47139656,43.77437003,140691,Evans Elementary,Open,"140 S Peters Ave Fond du Lac, WI 54935",,Fond du Lac,WI,54935,9209066580,,Jodi,Marceau,,Fond du Lac School District,2019-06-10T04:00:00.000Z,2019-06-28T04:00:00.000Z,"M,T,W,TH,F",,7:30 AM to 8:30 AM,11:00 AM to 12:00 PM,,,,,11,U,US,4317,,2019,Fond du Lac
-88.45003817,43.7753405,140694,Boys & Girls Club- Johnsonville Club,Open,"76 W. 2nd St. Fond du Lac, WI 54935",,Fond du Lac,WI,54935,9209066580,,Pam,Sippel,,Fond du Lac School District,2019-06-10T04:00:00.000Z,2019-08-16T04:00:00.000Z,"M,T,W,TH,F",,,11:00 AM to 12:30 PM,,2:00 PM to 3:00 PM,,,11,U,US,3420,,2019,Fond du Lac
-88.42729646,43.77093416,140695,Roberts Elementary,Open,"270 Candy Lane Fond du Lac, WI 54935",,Fond du Lac,WI,54935,9209066580,,Sara,Scott,,Fond du Lac School District,2019-08-12T04:00:00.000Z,2019-08-22T04:00:00.000Z,"M,T,W,TH,F",,7:30 AM to 8:30 AM,11:00 AM to 12:00 PM,,,,,11,U,US,6425,,2019,Fond du Lac
-88.42813909,43.75505551,140697,Theisen Middle School,Open,"525 E Pioneer Road Fond du Lac, WI 54935",,Fond du Lac,WI,54935,9209066580,,Laurie,Schlafer,,Fond du Lac School District,2019-06-10T04:00:00.000Z,2019-08-16T04:00:00.000Z,"M,T,W,TH,F",,,11:00 AM to 12:30 PM,,2:00 PM to 3:00 PM,,,11,U,US,91982,,2019,Fond du Lac
-88.41708368,43.7928902,140698,Fond du Lac High School,Open,"801 Campus Dr Fond du Lac, WI 54935",,Fond du Lac,WI,54935,9209066580,,Pat,Schiefelbein,,Fond du Lac School District,2019-06-10T04:00:00.000Z,2019-06-28T04:00:00.000Z,"M,T,W,TH,F",,7:30 AM to 8:30 AM,,,,,,11,U,US,136631,,2019,Fond du Lac
-88.4357337,43.78741868,140699,Bessie Allen Middle School,Open,"305 McKinley Street North Fond du Lac, WI 54935",,North Fond du Lac,WI,54935,9209293754,,Julie,Ebertz,,North Fond du Lac School District,2019-05-28T04:00:00.000Z,2019-07-25T04:00:00.000Z,"M,T,W,TH",,7:30 AM to 9:00 AM,11:30 AM to 1:00 PM,,,,,11,U,US,3309,,2019,Fond du Lac
-88.92657556,45.57181017,140704,SCHOOL DISTRICT OF CRANDON,Open,"9750 US HIGHWAY 8 WEST CRANDON, WI 54520",,CRANDON,WI,54520,7154786109,,Lori,Shampo,,Crandon School District,2019-06-17T04:00:00.000Z,2019-08-01T04:00:00.000Z,"M,T,W,TH",,7:30 AM to 8:30 AM,11:00 AM to 12:00 PM,,,,,11,U,US,6568,,2019,Forest
-88.6481682,45.44107935,140705,Wabeno elementry,Open,"4346 Mill Ln. Wabeno, WI 54566",,Wabeno,WI,54566,7154732592,,Thomas,Swearingen,,Wabeno School District,2019-06-17T04:00:00.000Z,2019-07-12T04:00:00.000Z,"M,T,W,TH,F",,8:00 AM to 8:30 AM,11:30 AM to 12:00 PM,,,,,11,U,US,135762,,2019,Forest
-90.4365732,43.1922273,140708,Riverdale Elementary,Open,"800 N 6th Street Muscoda, WI 53573",,Muscoda,WI,53573,6087393101,,Peggy,Post,,Riverdale School District,2019-06-10T04:00:00.000Z,2019-08-09T04:00:00.000Z,"M,T,W,TH,F",,8:10 AM to 8:30 AM,11:15 AM to 11:45 AM,,,,,11,U,US,71595,,2019,Grant
-90.4752281,42.7408234,140709,Platteville Middle School,Open,"40 E. Madison St Platteville, WI 53818",,Platteville,WI,53818,6083424000,,Kristoffer,Brown,,Platteville School District,2019-06-13T04:00:00.000Z,2019-06-28T04:00:00.000Z,"M,T,W,TH,F",,8:00 AM to 8:30 AM,11:30 AM to 12:00 PM,,,,,11,U,US,71550,,2019,Grant
-90.49296521,42.74228028,140710,Westview Elementary,Open,"1201 Camp St. Platteville, WI 53818",,Platteville,WI,53818,6083424050,,Kristoffer,Brown,,Platteville School District,2019-08-05T04:00:00.000Z,2019-08-22T04:00:00.000Z,"M,T,W,TH",,7:30 AM to 8:00 AM,11:00 AM to 11:30 AM,,,,,11,U,US,135817,,2019,Grant
-90.97935203,42.95272048,140711,River Ridge School District,Open,"11165 County Hwy P Patch Grove, WI 53817",,Patch Grove,WI,53817,6089942715,,Nancy,Fassbinder,,River Ridge School District,2019-07-08T04:00:00.000Z,2019-08-01T04:00:00.000Z,"M,T,W,TH",,7:45 AM to 9:15 AM,11:30 AM to 12:30 PM,,,,,11,U,US,130787,,2019,Grant
-90.73598262,43.25226229,140712,Mt. Zion,Open,"51588 Mt. Zion Road Boscobel, WI 53805",,Boscobel,WI,53805,6088722565,,Sarah,Pegram,,Boscobel United Methodist Church,2019-06-09T04:00:00.000Z,2019-06-10T04:00:00.000Z,"S,M",,,,,,4:30 PM to 5:30 PM,,11,U,US,5789,,2019,Crawford
-90.70348114,43.13292355,140713,Boscobel Elementary School,Open,"200 Buchanan Street Boscobel, WI 53805",,Boscobel,WI,53805,6083754165,,Pam,Brownlee,,Boscobel United Methodist Church,2019-07-28T04:00:00.000Z,2019-08-01T04:00:00.000Z,"S,M,T,W,TH",,,,,,4:15 PM to 5:30 PM,,11,U,US,3396,,2019,Grant
-90.9248974,42.88534258,140715,Bloomington,Open,"301 Congress Street Bloomington, WI 53804",,Bloomington,WI,53804,6089943851,,Pam,Brownlee,,Boscobel United Methodist Church,2019-06-05T04:00:00.000Z,2019-08-08T04:00:00.000Z,"M,T,W,TH,F",,,12:00 PM to 12:30 PM,,,,,11,U,US,130635,,2019,Grant
-90.7705126,43.39322077,140716,Soldiers Grove,Open,"206 Pine Street Soldiers Grove, WI 54655",,Soldiers Grove,WI,54655,6086245826,,Sarah,Pegram,,Boscobel United Methodist Church,2019-06-12T04:00:00.000Z,2019-06-13T04:00:00.000Z,"W,TH",,,,,,4:30 PM to 5:30 PM,,11,U,US,130801,,2019,Crawford
-90.70474997,43.13290254,140719,Boscobel United Methodist Church,Open,"104 Buchanan Street Boscobel, WI 53805",,Boscobel,WI,53805,6083754565,,Pam,Brownlee,,Boscobel United Methodist Church,2019-06-05T04:00:00.000Z,2019-08-08T04:00:00.000Z,"M,T,W,TH,F",,,11:30 AM to 12:45 PM,,,,,11,U,US,3397,,2019,Grant
-89.63908089,42.58782355,140724,Monroe High School,Open,"1600 26th Street Monroe, WI 53566",,Monroe,WI,53566,6083287116,,Tauri,Burns,,Monroe School District,2019-06-17T04:00:00.000Z,2019-07-26T04:00:00.000Z,"M,T,W,TH,F",,8:00 AM to 8:45 AM,,,,,,11,U,US,100951,,2019,Green
-88.9577983,43.96828648,140725,Boys & Girls Club of the Tri-County Area,Open,"344 Broadway St Berlin, WI 54923",,Berlin,WI,54923,9203612717,,Mindy,Collado,,Boys & Girls Club of the Tri-County Area,2019-06-11T04:00:00.000Z,2019-08-23T04:00:00.000Z,"M,T,W,TH,F",,,11:30 AM to 12:45 PM,,2:30 PM to 3:30 PM,,,11,U,US,130640,,2019,Green Lake
-89.9904721,42.99956624,140726,Ridgeway Elementary School,Open,"208 Jarvis Street Ridgeway, WI 53582",,Ridgeway,WI,53582,6089353307,,Candace,Syvrud,,Dodgeville Sch District,2019-06-10T04:00:00.000Z,2019-08-23T04:00:00.000Z,"M,T,W,TH,F",,7:30 AM to 10:45 AM,11:00 AM to 12:30 PM,,,,,11,U,US,55081,,2019,Iowa
-90.20442698,46.45800649,140727,Hurley School District,Open,"5503 W. Range View Dr. Hurley, WI 54534",,Hurley,WI,54534,7155614900,,Dawn,Rye,,Hurley School District,2019-06-10T04:00:00.000Z,2019-08-16T04:00:00.000Z,"M,T,W,TH,F",,,10:50 AM to 11:30 AM,,1:50 PM to 2:05 PM,,,11,U,US,130703,,2019,Iron
-90.83966925,44.45144026,140728,Lincoln Elementary,Open,"Highway 95 207 Pearl Street Merrillan, WI 54754",,Merrillan,WI,54754,7153332911,,Deb,Barton,,Alma Center School District,2019-08-05T04:00:00.000Z,2019-08-16T04:00:00.000Z,"M,T,W,TH,F",,,10:45 AM to 11:15 AM,,,,,11,U,US,134794,,2019,Jackson
-90.91568848,44.43548484,140729,Alma Center Jr/Sr High,Open,"124 South School Street Alma Center, WI 54611",,Alma Center,WI,54611,7159645311,,Deb,Barton,,Alma Center School District,2019-06-10T04:00:00.000Z,2019-06-21T04:00:00.000Z,"M,T,W,TH,F",,8:50 AM to 9:10 AM,12:00 PM to 1:00 PM,,,,,11,U,US,101665,,2019,Jackson
-90.85162198,44.30749179,140730,Black River Falls Red Creek,Open,"410 county hwy A Black River Falls, WI 54615",,Black River Falls,WI,54615,7152844357,,Jennifer,Houd,,Black River Falls Schools,2019-06-24T04:00:00.000Z,2019-07-26T04:00:00.000Z,"M,T,W,TH,F",,7:40 AM to 8:10 AM,11:20 AM to 12:05 PM,,,,,11,U,US,138779,,2019,Jackson
-88.82540022,43.00508455,140739,West Elementary School,Open,"900 West Milwaukee Street Jefferson, WI 53549",,Jefferson,WI,53549,9206751035,,Barb,Severson,,Jefferson School District,2019-06-17T04:00:00.000Z,2019-07-26T04:00:00.000Z,"M,T,W,TH,F",,8:30 AM to 9:55 AM,11:30 AM to 12:15 PM,,,,,11,U,US,101540,,2019,Jefferson
-88.82189688,43.00235993,140740,Middle School,Open,"501 South Taft Ave Jefferson, WI 53549",,Jefferson,WI,53549,9206751035,,Barb,Severson,,Jefferson School District,2019-06-17T04:00:00.000Z,2019-07-26T04:00:00.000Z,"M,T,W,TH,F",,8:00 AM to 9:15 AM,,,,,,11,U,US,5673,,2019,Jefferson
-88.74047556,43.20655962,140741,Watertown High School,Open,"825 Endeavour Drive Watertown, WI 53098",,Watertown,WI,53098,9202627536,,Nancy,Kopplin,,Watertown Unified School District,2019-06-18T04:00:00.000Z,2019-07-18T04:00:00.000Z,"M,T,W,TH,F",,,10:25 AM to 12:35 PM,,,,,11,U,US,7284,,2019,Dodge
-88.72979572,43.19517181,140742,Lincoln Elementary,Open,"120 N. Montgomery Watertown, WI 53036",,Watertown,WI,53036,9202627536,,Janina,Kroll,,Watertown Unified School District,2019-06-18T04:00:00.000Z,2019-07-18T04:00:00.000Z,"M,T,W,TH,F",,9:00 AM to 10:00 AM,,,,,,11,U,US,5329,,2019,Jefferson
-90.36577228,43.79118824,140743,Kendall Gazebo,Open,"208 E. South Railroad St Kendall, WI 54638",,Kendall,WI,54638,6084637124,,Tracey,Miller,,Royall School District,2019-06-10T04:00:00.000Z,2019-07-26T04:00:00.000Z,"M,T,W,TH,F",,,11:30 AM to 12:30 PM,,,,,11,U,US,130714,,2019,Monroe
-90.27202975,43.74247682,140744,Elroy Library,Open,"501 2nd Main Street Elroy, WI 53929",,Elroy,WI,53929,6084622407,,Pam,Strike,,Royall School District,2019-07-01T04:00:00.000Z,2019-07-26T04:00:00.000Z,"M,T,W,TH,F",,,11:30 AM to 12:30 PM,,,,,11,U,US,73603,,2019,Juneau
-90.2734458,43.7533233,140745,Royall School District,Open,"1501 Academy St Elroy, WI 53929",,Elroy,WI,53929,6084622600,,Kristi,Shore,,Royall School District,2019-06-10T04:00:00.000Z,2019-06-28T04:00:00.000Z,"M,T,W,TH,F",,7:30 AM to 8:15 AM,11:30 AM to 12:30 PM,,,,,11,U,US,6486,,2019,Juneau
-90.076788,43.78830912,140746,Lion's Park,Open,"Division Street Mauston, WI 53968",,Mauston,WI,53968,6088475451,,Veronica,Erickson,,Mauston School District,2019-06-10T04:00:00.000Z,2019-08-23T04:00:00.000Z,"M,T,W,TH,F",,,12:00 PM to 12:30 PM,,,,,11,U,US,5359,,2019,Juneau
-90.08506705,43.80108759,140747,Marachowsky's Park,Open,"Liberty Street Mauston, WI 53948",,Mauston,WI,53948,6088475451,,Veronica,Erickson,,Mauston School District,2019-06-10T04:00:00.000Z,2019-08-23T04:00:00.000Z,"M,T,W,TH,F",,,11:30 AM to 12:00 PM,,,,,11,U,US,5519,,2019,Juneau
-90.07238043,43.79648793,140748,Riverside Park,Open,"Mansion Street Mauston, WI 53948",,Mauston,WI,53948,6088475451,,Veronica,Erickson,,Mauston School District,2019-06-10T04:00:00.000Z,2019-08-23T04:00:00.000Z,"M,T,W,TH,F",,,12:10 PM to 12:30 PM,,,,,11,U,US,6397,,2019,Juneau
-90.0843895,43.78906552,140749,Mauston High School,Open,"510 Grayside Avenue Mauston, WI 53948",,Mauston,WI,53948,6088475451,,Katina,Ziebell,,Mauston School District,2019-06-10T04:00:00.000Z,2019-08-23T04:00:00.000Z,"M,T,W,TH,F",,7:30 AM to 8:00 AM,11:30 AM to 12:30 PM,,,,,11,U,US,5594,,2019,Juneau
-90.083907,43.793361,140750,Jones Park,Open,"Jones Street Mauston, WI 53948",,Mauston,WI,53948,6088475451,,Veronica,Erickson,,Mauston School District,2019-06-10T04:00:00.000Z,2019-08-23T04:00:00.000Z,"M,T,W,TH,F",,,11:30 AM to 11:50 AM,,,,,11,U,US,5065,,2019,Juneau
-90.07150476,44.00004082,140751,Necedah Area School District,Open,"1801 South Main Street Necedah, WI 54646",,Necedah,WI,54646,6085652256,,Sherri,Kobs,,Necedah Area School District,2019-06-10T04:00:00.000Z,2019-07-19T04:00:00.000Z,"M,T,W,TH,F",,7:30 AM to 8:15 AM,10:45 AM to 11:45 AM,,,,,11,U,US,102287,,2019,Juneau
-87.8481593,42.5844633,140755,C.Strange,Open,"5520 32nd Ave KENOSHA, WI 53144",,KENOSHA,WI,53144,2623596024,,Krissy,Hill,,Kenosha Common School District,2019-06-24T04:00:00.000Z,2019-07-26T04:00:00.000Z,"M,T,W,TH,F",,7:30 AM to 8:05 AM,11:45 AM to 12:30 PM,,,,,11,U,US,3556,,2019,Kenosha
